~Version Information Section
VERS.          2.0                                     : CWLS LOG ASCII Standard
WRAP.          NO                                      : One line per depth step
CREA.          23/02/15                                : LAS Creation Date
~Well Information Section
STRT.ft        600.0000                                : Start Depth
STOP.ft        6471.5000                               : Stop Depth
STEP.ft        0.5000                                  : Step
NULL.          -999.2500                               : Null Value
COMP.          AMERADA HESS LTD                        : Company
WELL.          15/21b-45                               : Well
FLD .          EXPLORATION                             : Field
LOC .          CENTRAL NORTH SEA                       : Location
LOC1.                                                  : Location (UTM)
CTRY.          UK                                      : Country
PROV.          UKCS                                    : Province
UWI .          15463                                   : UWI Number
API .                                                  : API Number
SECT.                                                  : Section
TOWN.                                                  : Township
RNGE.                                                  : Range
PDAT.          MSL                                     : Perm Datum
EPD .ft        0.00                                    : Elevation
LMF .          DF                                      : Log Measured From
DMF .          DF                                      : Drill Measured From
APD .ft        82.00                                   : Above Perm Datum
EKB .ft        -                                       : Elev-Kelly Bushing
EDF .ft        82.00                                   : Elev-Drill Floor
EGL .ft        -446.00                                 : Elev-Ground Level (Water Depth)
TDD .ft        6500.00                                 : Total Depth (Driller)
SRVC.          ATLAS WIRELINE                          : Service Company
LATI.          58 14 37.771 N                          : Latitude
LONG.          00 01 11.609 E                          : Longitude
DATE.          NOV-91-JAN-92                           : Logging Date
PROJ.          UKCS                                    : Project
SET .          COMP WIRE                               : Set
~Curve Information Section
DEPTH.ft                                               : Depth Curve
AC.us/ft                                               : Acoustic Travel Time
CAL.in                                                 : MLL Caliper
CALD.in                                                : ZDL Caliper
CNC.%                                                  : Compensated Neutron Porosity
GRD.gAPI                                               : ZDL Gamma Ray
GRL.gAPI                                               : DLL/DIFL Gamma Ray
K.                                                     : Potassium
KTH.gAPI                                               : Uranium Stripped Gamma Ray
PE.b/e                                                 : Photo-electric
RD.ohmm                                                : Deep Resistivity
RFOC.ohmm                                              : Logarithmic Resistivity from CFOC
RILD.ohmm                                              : Deep Induction Resistivity
RILM.ohmm                                              : Medium Induction Resistivity
RMLL.ohmm                                              : Microlaterolog Resistivity
RS.ohmm                                                : Shallow Resistivity
SP.mV                                                  : Spontaneous Potential
TH.ppm                                                 : Thorium
U.ppm                                                  : Uranium
ZCOR.g/cc                                              : ZDL Density Correction
ZDEN.g/cc                                              : ZDL Bulk Density
~ASCII Log Data Section
# ...
 3863.0000       199.6479        13.5876        12.5304        61.0447        71.5143        67.8839         1.9717        61.2542         4.9168         1.3790      -999.2500      -999.2500      -999.2500         0.3500         0.8990        51.9956         2.4273         2.3375         0.1158         2.1156     
 3863.5000       199.4683        13.0279        11.9819        60.7191        70.7420        69.6274         2.0840        61.2101         4.5695         1.4482      -999.2500      -999.2500      -999.2500         0.4165         0.9422        51.9941         3.1359         2.3227         0.1238         2.0774     
 3864.0000       199.7399        12.3279        11.7449        59.3648        71.8366        73.4464         2.3582        63.8265         4.3453         1.4505      -999.2500      -999.2500      -999.2500         0.5169         0.9502        51.9608         3.9059         2.1311         0.1300         2.0557     
 3864.5000       200.0747        11.7223        11.3765        57.1316        74.9973        77.0548         2.4393        67.1087         4.3159         1.4128      -999.2500      -999.2500      -999.2500         0.5620         0.9321        51.8977         4.5055         2.0807         0.1307         2.0565     
 3865.0000       200.2682        11.2894        11.0498        56.6084        77.7647        79.7724         2.1661        68.3716         4.3232         1.3867      -999.2500      -999.2500      -999.2500         0.5326         0.9162        51.8594         5.3930         2.2150         0.1242         2.0719     
 3865.5000       200.3282        10.9642        10.7265        56.0054        79.2609        80.7376         1.9077        67.5703         4.3045         1.3910      -999.2500      -999.2500      -999.2500         0.5307         0.9161        51.8956         6.0764         2.5234         0.1059         2.0818     
 3866.0000       200.1794        10.6452        10.5540        54.0589        80.3910        79.6299         2.0035        68.9637         4.2592         1.4106      -999.2500      -999.2500      -999.2500         0.5722         0.9255        51.9867         6.4045         2.5392         0.0809         2.0829     
 3866.5000       199.7701        10.3158        10.4135        53.3914        81.4081        78.0424         2.2882        73.3525         4.1941         1.4212      -999.2500      -999.2500      -999.2500         0.5868         0.9327        52.0579         6.9761         1.9112         0.0642         2.0910     
 3867.0000       199.0688        10.0691        10.1614        55.5510        82.7883        78.3223         2.4587        78.2545         4.2227         1.4155      -999.2500      -999.2500      -999.2500         0.5435         0.9327        52.0533         7.6895         1.0867         0.0703         2.0823     
 3867.5000       198.1354         9.9320        10.1863        57.4671        83.6112        80.3922         2.4100        80.5427         4.3102         1.4063      -999.2500      -999.2500      -999.2500         0.5075         0.9287        51.9806         7.9112         0.7045         0.0946         2.0791     
 3868.0000       197.2837         9.8831        10.4011        59.3357        82.4015        81.2538         2.2385        78.2126         4.3108         1.4056      -999.2500      -999.2500      -999.2500         0.4908         0.9257        51.8837         7.6162         0.9241         0.1173         2.0902     
 3868.5000       196.8623         9.8937        10.6799        60.2270        80.3129        79.5380         2.0731        73.2885         4.2854         1.4093      -999.2500      -999.2500      -999.2500         0.4693         0.9254        51.8038         6.7397         1.5229         0.1227         2.0930     
 3869.0000       196.9594         9.9414        10.8303        60.2157        79.6676        77.4897         1.8415        69.3063         4.3075         1.4123      -999.2500      -999.2500      -999.2500         0.4586         0.9266        51.7639         5.5504         2.0910         0.1130         2.0852     
 3869.5000       197.3367        10.0210        10.7738        61.4274        79.8798        75.8912         1.6639        68.0114         4.3447         1.4140      -999.2500      -999.2500      -999.2500         0.4768         0.9279        51.7656         5.4655         2.2282         0.1054         2.0670     
 3870.0000       197.7181        10.1127        10.6395        62.9548        79.8199        74.3363         1.7631        69.6356         4.3445         1.4124      -999.2500      -999.2500      -999.2500         0.4772         0.9277        51.8027         6.6066         2.0135         0.1122         2.0448     
 3870.5000       197.7732        10.1675        10.6047        63.0268        79.6014        74.7422         2.0175        71.2501         4.3808         1.4029      -999.2500      -999.2500      -999.2500         0.4781         0.9246        51.8751         7.2807         1.8370         0.1240         2.0293     
 3871.0000       197.2799        10.1870        10.6648        62.2103        79.3546        76.1942         2.1518        71.1336         4.5102         1.3858      -999.2500      -999.2500      -999.2500         0.5294         0.9191        51.9507         6.9546         1.9046         0.1246         2.0257     
 3871.5000       196.3375        10.2024        10.8358        61.6486        78.7763        75.6824         2.2063        70.8731         4.6147         1.3674      -999.2500      -999.2500      -999.2500         0.6168         0.9121        51.9949         6.5792         1.8664         0.1133         2.0284     
 3872.0000       195.5757        10.2147        10.7093        61.7196        77.6204        73.6674         2.2052        70.7128         4.6486         1.3568      -999.2500      -999.2500      -999.2500         0.6169         0.9078        52.0147         6.1642         1.6225         0.1130         2.0264     
 3872.5000       195.2472        10.2142        10.5157        61.7557        75.9637        73.1314         2.0276        68.7795         4.6922         1.3504      -999.2500      -999.2500      -999.2500         0.5389         0.9057        52.0134         5.1280         1.5788         0.1293         2.0141     
 3873.0000       195.1107        10.2117        10.5385        61.6177        74.9118        74.1092         1.8383        66.7260         4.7594         1.3432      -999.2500      -999.2500      -999.2500         0.5099         0.9044        51.9571         4.3739         1.6714         0.1456         1.9884     
 3873.5000       194.7606        10.2213        10.5732        61.8918        75.2873        75.1545         1.8790        66.3930         4.8511         1.3419      -999.2500      -999.2500      -999.2500         0.5412         0.9064        51.8551         4.5284         1.8678         0.1543         1.9518     
 3874.0000       194.1953        10.2448        10.6046        62.0162        76.1642        75.8255         2.0104        65.6329         5.0478         1.3527      -999.2500      -999.2500      -999.2500         0.6062         0.9144        51.7761         4.8891         2.3956         0.1613         1.9314     
 3874.5000       193.7105        10.3030        10.6146        61.1703        76.6577        75.9065         1.9852        64.1716         5.3215         1.3729      -999.2500      -999.2500      -999.2500         0.6482         0.9269        51.7679         4.9936         2.8779         0.1657         1.9558     
 3875.0000       193.4557        10.3809        10.6157        60.3141        76.5078        74.5192         1.9244        63.6053         5.4646         1.3927      -999.2500      -999.2500      -999.2500         0.6312         0.9388        51.8145         4.6162         2.8953         0.1555         2.0107     
 3875.5000       193.4172        10.3922        10.5782        60.7764        75.4494        73.0402         1.9310        63.1093         5.3726         1.4012      -999.2500      -999.2500      -999.2500         0.5689         0.9444        51.8833         4.0613         2.7680         0.1439         2.0425     
