~Version Information Section
VERS.          2.0                                     : CWLS LOG ASCII Standard
WRAP.          NO                                      : One line per depth step
CREA.          23/02/15                                : LAS Creation Date
~Well Information Section
STRT.ft        600.0000                                : Start Depth
STOP.ft        6471.5000                               : Stop Depth
STEP.ft        0.5000                                  : Step
NULL.          -999.2500                               : Null Value
COMP.          AMERADA HESS LTD                        : Company
WELL.          15/21b-45                               : Well
FLD .          EXPLORATION                             : Field
LOC .          CENTRAL NORTH SEA                       : Location
LOC1.                                                  : Location (UTM)
CTRY.          UK                                      : Country
PROV.          UKCS                                    : Province
UWI .          15463                                   : UWI Number
API .                                                  : API Number
SECT.                                                  : Section
TOWN.                                                  : Township
RNGE.                                                  : Range
PDAT.          MSL                                     : Perm Datum
EPD .ft        0.00                                    : Elevation
LMF .          DF                                      : Log Measured From
DMF .          DF                                      : Drill Measured From
APD .ft        82.00                                   : Above Perm Datum
EKB .ft        -                                       : Elev-Kelly Bushing
EDF .ft        82.00                                   : Elev-Drill Floor
EGL .ft        -446.00                                 : Elev-Ground Level (Water Depth)
TDD .ft        6500.00                                 : Total Depth (Driller)
SRVC.          ATLAS WIRELINE                          : Service Company
LATI.          58 14 37.771 N                          : Latitude
LONG.          00 01 11.609 E                          : Longitude
DATE.          NOV-91-JAN-92                           : Logging Date
PROJ.          UKCS                                    : Project
SET .          COMP WIRE                               : Set
~Curve Information Section
DEPTH.ft                                               : Depth Curve
AC.us/ft                                               : Acoustic Travel Time
CAL.in                                                 : MLL Caliper
CALD.in                                                : ZDL Caliper
CNC.%                                                  : Compensated Neutron Porosity
GRD.gAPI                                               : ZDL Gamma Ray
GRL.gAPI                                               : DLL/DIFL Gamma Ray
K.                                                     : Potassium
KTH.gAPI                                               : Uranium Stripped Gamma Ray
PE.b/e                                                 : Photo-electric
RD.ohmm                                                : Deep Resistivity
RFOC.ohmm                                              : Logarithmic Resistivity from CFOC
RILD.ohmm                                              : Deep Induction Resistivity
RILM.ohmm                                              : Medium Induction Resistivity
RMLL.ohmm                                              : Microlaterolog Resistivity
RS.ohmm                                                : Shallow Resistivity
SP.mV                                                  : Spontaneous Potential
TH.ppm                                                 : Thorium
U.ppm                                                  : Uranium
ZCOR.g/cc                                              : ZDL Density Correction
ZDEN.g/cc                                              : ZDL Bulk Density
~ASCII Log Data Section
# ...
 4500.0000       132.1700         9.2046         9.2792        58.7847        82.6768        79.7787         2.3665        74.0369         4.2502         0.9549      -999.2500      -999.2500      -999.2500         0.3578         0.8685        52.2616         7.1749         2.0999         0.1259         2.0611     
 4500.5000       133.6771         9.2209         9.2281        60.1909        80.1491        78.3302         2.2097        72.9414         4.3462         0.9811      -999.2500      -999.2500      -999.2500         0.3276         0.8838        52.2300         6.3763         1.6609         0.1521         2.0414     
 4501.0000       134.5379         9.1989         9.2082        59.8422        80.1260        76.3716         2.1038        74.5193         4.4449         1.0090      -999.2500      -999.2500      -999.2500         0.3485         0.8996        52.2492         6.6999         1.2114         0.1734         2.0410     
 4501.5000       135.0534         9.2046         9.1609        59.0845        82.0123        75.8391         2.2215        77.2878         4.4379         1.0152      -999.2500      -999.2500      -999.2500         0.3883         0.8988        52.2758         7.4478         1.0418         0.1766         2.0480     
 4502.0000       136.9248         9.2578         9.2150        58.9441        83.2270        76.8201         2.4804        79.0346         4.4152         0.9933      -999.2500      -999.2500      -999.2500         0.3990         0.8776        52.2679         7.7896         1.0002         0.1677         2.0524     
 4502.5000       140.8545         9.3155         9.5336        59.5194        81.9893        76.5228         2.6615        78.1310         4.4071         0.9701      -999.2500      -999.2500      -999.2500         0.3720         0.8585        52.2241         7.3263         0.9897         0.1481         2.0571     
 4503.0000       146.1788         9.3427         9.6455        60.6877        79.2067        74.1348         2.5920        74.7234         4.3752         0.9725      -999.2500      -999.2500      -999.2500         0.3354         0.8622        52.1715         6.2658         1.1510         0.1267         2.0637     
 4503.5000       151.5501         9.3198         9.5786        61.3186        77.4344        70.8947         2.3200        71.4015         4.3199         0.9970      -999.2500      -999.2500      -999.2500         0.3384         0.8826        52.1382         5.6571         1.4447         0.1179         2.0693     
 4504.0000       155.1627         9.2629         9.4293        61.4849        77.8506        68.7482         2.0677        70.0516         4.2650         1.0282      -999.2500      -999.2500      -999.2500         0.3971         0.9045        52.1461         5.9875         1.7351         0.1261         2.0753     
 4504.5000       156.3263         9.2017         9.2438        61.5120        79.3957        69.5786         1.9666        70.4820         4.1594         1.0473      -999.2500      -999.2500      -999.2500         0.4425         0.9168        52.2031         6.4152         1.9063         0.1382         2.0771     
 4505.0000       156.4259         9.1606         9.1991        61.2688        80.2893        72.5617         1.9779        71.4254         4.0206         1.0338      -999.2500      -999.2500      -999.2500         0.3878         0.9051        52.3031         6.2769         1.8757         0.1512         2.0640     
 4505.5000       156.3741         9.1278         9.0359        61.3905        79.4056        74.4443         2.0032        71.4714         4.0055         0.9999      -999.2500      -999.2500      -999.2500         0.3541         0.8762        52.3941         6.1209         1.6908         0.1642         2.0402     
 4506.0000       156.0421         9.1034         8.9724        61.7668        77.3122        73.7416         1.9824        69.7674         4.1686         0.9685      -999.2500      -999.2500      -999.2500         0.3799         0.8474        52.3912         6.2208         1.6369         0.1662         2.0257     
 4506.5000       155.7362         9.1102         8.9475        62.5688        75.3523        71.7989         1.9165        66.8191         4.3533         0.9421      -999.2500      -999.2500      -999.2500         0.4083         0.8233        52.3143         5.8706         1.8611         0.1500         2.0260     
 4507.0000       155.2739         9.1564         9.1991        62.9256        73.6303        70.1118         1.8392        64.1925         4.3907         0.9271      -999.2500      -999.2500      -999.2500         0.3925         0.8108        52.2609         4.9989         2.0309         0.1316         2.0277     
 4507.5000       153.3523         9.1922         9.5530        62.0643        71.8461        68.9919         1.8110        63.0205         4.3266         0.9321      -999.2500      -999.2500      -999.2500         0.3678         0.8161        52.2453         4.5993         1.8899         0.1297         2.0254     
 4508.0000       149.8572         9.2048         9.6411        60.5955        71.1993        68.0434         1.8875        63.5276         4.2831         0.9531      -999.2500      -999.2500      -999.2500         0.3526         0.8334        52.2127         4.9699         1.7033         0.1393         2.0261     
 4508.5000       146.4523         9.2263         9.6999        59.7105        72.5742        67.5433         2.0507        65.8775         4.2847         0.9880      -999.2500      -999.2500      -999.2500         0.3444         0.8608        52.1830         5.6545         1.5630         0.1552         2.0238     
 4509.0000       144.8701         9.2841         9.5473        60.1934        74.6460        67.5233         2.2245        69.6952         4.3465         1.0262      -999.2500      -999.2500      -999.2500         0.3378         0.8913        52.2149         6.5408         1.1945         0.1764         2.0062     
 4509.5000       145.6031         9.3495         9.5271        60.8548        76.1149        67.8289         2.2832        72.6581         4.4611         1.0441      -999.2500      -999.2500      -999.2500         0.3363         0.9045        52.2942         7.3286         0.8315         0.1920         1.9819     
 4510.0000       147.1189         9.4624         9.7858        61.0231        77.1434        68.9078         2.1440        72.9562         4.5627         1.0358      -999.2500      -999.2500      -999.2500         0.3232         0.8956        52.3381         7.6255         0.9424         0.1848         1.9682     
 4510.5000       145.4146         9.6292         9.6231        61.9588        77.7149        69.8329         1.8970        70.8514         4.6263         1.0124      -999.2500      -999.2500      -999.2500         0.2982         0.8769        52.2878         7.0754         1.4193         0.1665         1.9714     
 4511.0000       140.0873         9.6375         9.7485        62.2432        77.3110        70.9905         1.7421        67.6971         4.6731         0.9826      -999.2500      -999.2500      -999.2500         0.3105         0.8540        52.1797         5.8607         1.9048         0.1569         1.9917     
 4511.5000       135.5390         9.3995         9.9393        60.9107        76.3085        73.5974         1.7883        65.5307         4.6160         0.9607      -999.2500      -999.2500      -999.2500         0.3973         0.8358        52.0783         4.8656         2.2088         0.1421         2.0266     
 4512.0000       134.1582         9.1695         9.6803        59.1291        75.8180        76.5164         1.9345        65.0334         4.3863         0.9549      -999.2500      -999.2500      -999.2500         0.5035         0.8298        52.0176         4.7008         2.3834         0.1154         2.0652     
 4512.5000       134.1420         9.1083         9.4933        57.9644        76.1581        77.1119         2.0108        64.8784         4.1163         0.9553      -999.2500      -999.2500      -999.2500         0.4855         0.8281        52.0220         4.9528         2.5997         0.1140         2.0815     
