~Version Information Section
VERS.          2.0                                     : CWLS LOG ASCII Standard
WRAP.          NO                                      : One line per depth step
CREA.          23/02/15                                : LAS Creation Date
~Well Information Section
STRT.ft        600.0000                                : Start Depth
STOP.ft        6471.5000                               : Stop Depth
STEP.ft        0.5000                                  : Step
NULL.          -999.2500                               : Null Value
COMP.          AMERADA HESS LTD                        : Company
WELL.          15/21b-45                               : Well
FLD .          EXPLORATION                             : Field
LOC .          CENTRAL NORTH SEA                       : Location
LOC1.                                                  : Location (UTM)
CTRY.          UK                                      : Country
PROV.          UKCS                                    : Province
UWI .          15463                                   : UWI Number
API .                                                  : API Number
SECT.                                                  : Section
TOWN.                                                  : Township
RNGE.                                                  : Range
PDAT.          MSL                                     : Perm Datum
EPD .ft        0.00                                    : Elevation
LMF .          DF                                      : Log Measured From
DMF .          DF                                      : Drill Measured From
APD .ft        82.00                                   : Above Perm Datum
EKB .ft        -                                       : Elev-Kelly Bushing
EDF .ft        82.00                                   : Elev-Drill Floor
EGL .ft        -446.00                                 : Elev-Ground Level (Water Depth)
TDD .ft        6500.00                                 : Total Depth (Driller)
SRVC.          ATLAS WIRELINE                          : Service Company
LATI.          58 14 37.771 N                          : Latitude
LONG.          00 01 11.609 E                          : Longitude
DATE.          NOV-91-JAN-92                           : Logging Date
PROJ.          UKCS                                    : Project
SET .          COMP WIRE                               : Set
~Curve Information Section
DEPTH.ft                                               : Depth Curve
AC.us/ft                                               : Acoustic Travel Time
CAL.in                                                 : MLL Caliper
CALD.in                                                : ZDL Caliper
CNC.%                                                  : Compensated Neutron Porosity
GRD.gAPI                                               : ZDL Gamma Ray
GRL.gAPI                                               : DLL/DIFL Gamma Ray
K.                                                     : Potassium
KTH.gAPI                                               : Uranium Stripped Gamma Ray
PE.b/e                                                 : Photo-electric
RD.ohmm                                                : Deep Resistivity
RFOC.ohmm                                              : Logarithmic Resistivity from CFOC
RILD.ohmm                                              : Deep Induction Resistivity
RILM.ohmm                                              : Medium Induction Resistivity
RMLL.ohmm                                              : Microlaterolog Resistivity
RS.ohmm                                                : Shallow Resistivity
SP.mV                                                  : Spontaneous Potential
TH.ppm                                                 : Thorium
U.ppm                                                  : Uranium
ZCOR.g/cc                                              : ZDL Density Correction
ZDEN.g/cc                                              : ZDL Bulk Density
~ASCII Log Data Section
# ...
 3538.0000       128.4422      -999.2500        13.2542        44.9139      -999.2500        80.0355      -999.2500      -999.2500         2.8187         0.7845      -999.2500      -999.2500      -999.2500         0.6873         0.6554        58.5242      -999.2500      -999.2500         0.0518         2.1447     
 3538.5000       128.1309      -999.2500        13.2542        44.0800      -999.2500        77.7227      -999.2500      -999.2500         2.7786         0.7818      -999.2500      -999.2500      -999.2500         0.6700         0.6514        58.8175      -999.2500      -999.2500         0.0511         2.1424     
 3539.0000       127.8652      -999.2500        13.2548        43.3666      -999.2500        75.9409      -999.2500      -999.2500         2.7356         0.7810      -999.2500      -999.2500      -999.2500         0.6640         0.6481        58.9635      -999.2500      -999.2500         0.0260         2.1491     
 3539.5000       127.8396      -999.2500        13.2610        44.2950      -999.2500        74.5354      -999.2500      -999.2500         2.8302         0.7713      -999.2500      -999.2500      -999.2500         0.5700         0.6396        58.9153      -999.2500      -999.2500         0.0119         2.1605     
 3540.0000       127.8976      -999.2500        13.2700        47.7455      -999.2500        75.5670      -999.2500      -999.2500         3.1420         0.7545      -999.2500      -999.2500      -999.2500         0.5136         0.6277        58.9681      -999.2500      -999.2500         0.0435         2.1595     
 3540.5000       127.9415      -999.2500        13.2700        47.9175      -999.2500        77.8332      -999.2500      -999.2500         3.4129         0.7372      -999.2500      -999.2500      -999.2500         0.5625         0.6147        59.1915      -999.2500      -999.2500         0.0776         2.1393     
 3541.0000       127.9146      -999.2500        13.2610        45.6552      -999.2500        77.6798      -999.2500      -999.2500         3.3831         0.7287      -999.2500      -999.2500      -999.2500         0.6820         0.6056        59.3730      -999.2500      -999.2500         0.0715         2.1159     
 3541.5000       127.6663      -999.2500        13.2548        43.9204      -999.2500        76.5523      -999.2500      -999.2500         3.2072         0.7280      -999.2500      -999.2500      -999.2500         0.7174         0.6020        59.4667      -999.2500      -999.2500         0.0479         2.1061     
 3542.0000       127.5589      -999.2500        13.2542        43.3978      -999.2500        77.5731      -999.2500      -999.2500         3.1107         0.7180      -999.2500      -999.2500      -999.2500         0.6475         0.5940        59.5268      -999.2500      -999.2500         0.0364         2.1095     
 3542.5000       128.3302      -999.2500        13.2542        44.2188      -999.2500        78.6002      -999.2500      -999.2500         3.0430         0.6975      -999.2500      -999.2500      -999.2500         0.5468         0.5781        59.4920      -999.2500      -999.2500         0.0374         2.1121     
 3543.0000       129.8251      -999.2500        13.2570        46.5023      -999.2500        79.0777      -999.2500      -999.2500         2.9031         0.6926      -999.2500      -999.2500      -999.2500         0.4656         0.5698        59.4086      -999.2500      -999.2500         0.0488         2.1066     
 3543.5000       131.0473      -999.2500        13.2659        48.4953      -999.2500        81.2520      -999.2500      -999.2500         2.7892         0.7160      -999.2500      -999.2500      -999.2500         0.4637         0.5791        59.4530      -999.2500      -999.2500         0.0575         2.1000     
 3544.0000       131.5345      -999.2500        13.2716        48.7852      -999.2500        83.9121      -999.2500      -999.2500         2.7959         0.7441      -999.2500      -999.2500      -999.2500         0.5386         0.5938        59.5727      -999.2500      -999.2500         0.0471         2.1018     
 3544.5000       131.6446      -999.2500        13.2659        48.8693      -999.2500        84.3869      -999.2500      -999.2500         2.9323         0.7354      -999.2500      -999.2500      -999.2500         0.6081         0.5884        59.5856      -999.2500      -999.2500         0.0337         2.1111     
 3545.0000       131.9997      -999.2500        13.2570        49.6049      -999.2500        82.8120      -999.2500      -999.2500         3.0873         0.6878      -999.2500      -999.2500      -999.2500         0.5748         0.5578        59.5575      -999.2500      -999.2500         0.0353         2.1167     
 3545.5000       132.9631      -999.2500        13.2542        50.3177      -999.2500        80.3560      -999.2500      -999.2500         3.1092         0.6364      -999.2500      -999.2500      -999.2500         0.5336         0.5226        59.6789      -999.2500      -999.2500         0.0366         2.1118     
 3546.0000       134.1883      -999.2500        13.2542        50.0800      -999.2500        77.8568      -999.2500      -999.2500         2.9769         0.6105      -999.2500      -999.2500      -999.2500         0.5038         0.5029        59.9423      -999.2500      -999.2500         0.0284         2.1043     
 3546.5000       134.9035      -999.2500        13.2542        48.5252      -999.2500        75.8203      -999.2500      -999.2500         2.8162         0.6208      -999.2500      -999.2500      -999.2500         0.4965         0.5071        60.2645      -999.2500      -999.2500         0.0237         2.1024     
 3547.0000       134.7984      -999.2500        13.2542        47.0888      -999.2500        73.9795      -999.2500      -999.2500         2.6916         0.6641      -999.2500      -999.2500      -999.2500         0.5375         0.5343        60.6241      -999.2500      -999.2500         0.0279         2.1036     
 3547.5000       134.1744      -999.2500        13.2542        47.3660      -999.2500        72.3884      -999.2500      -999.2500         2.5955         0.7249      -999.2500      -999.2500      -999.2500         0.6110         0.5755        60.9714      -999.2500      -999.2500         0.0359         2.1030     
 3548.0000       133.5714      -999.2500        13.2542        48.4854      -999.2500        73.0693      -999.2500      -999.2500         2.5857         0.7809      -999.2500      -999.2500      -999.2500         0.6196         0.6156        61.1749      -999.2500      -999.2500         0.0380         2.1019     
 3548.5000       133.3342      -999.2500        13.2542        48.1246      -999.2500        75.6482      -999.2500      -999.2500         2.7280         0.8232      -999.2500      -999.2500      -999.2500         0.5888         0.6476        61.1192      -999.2500      -999.2500         0.0344         2.1037     
 3549.0000       133.0881      -999.2500        13.2542        46.1508      -999.2500        77.3705      -999.2500      -999.2500         2.8810         0.8575      -999.2500      -999.2500      -999.2500         0.6063         0.6739        60.8946      -999.2500      -999.2500         0.0337         2.1100     
 3549.5000       132.3865      -999.2500        13.2542        44.4013      -999.2500        77.2049      -999.2500      -999.2500         2.8653         0.8872      -999.2500      -999.2500      -999.2500         0.6643         0.6961        60.7085      -999.2500      -999.2500         0.0356         2.1196     
 3550.0000       131.5405      -999.2500        13.2542        44.1307      -999.2500        75.9029      -999.2500      -999.2500         2.7656         0.9103      -999.2500      -999.2500      -999.2500         0.7372         0.7142        60.6272      -999.2500      -999.2500         0.0344         2.1281     
 3550.5000       131.0290      -999.2500        13.2542        44.9707      -999.2500        74.0000      -999.2500      -999.2500         2.6815         0.9321      -999.2500      -999.2500      -999.2500         0.8196         0.7330        60.5409      -999.2500      -999.2500         0.0279         2.1322     
