~Version Information Section
VERS.          2.0                                     : CWLS LOG ASCII Standard
WRAP.          NO                                      : One line per depth step
CREA.          23/02/15                                : LAS Creation Date
~Well Information Section
STRT.ft        600.0000                                : Start Depth
STOP.ft        6471.5000                               : Stop Depth
STEP.ft        0.5000                                  : Step
NULL.          -999.2500                               : Null Value
COMP.          AMERADA HESS LTD                        : Company
WELL.          15/21b-45                               : Well
FLD .          EXPLORATION                             : Field
LOC .          CENTRAL NORTH SEA                       : Location
LOC1.                                                  : Location (UTM)
CTRY.          UK                                      : Country
PROV.          UKCS                                    : Province
UWI .          15463                                   : UWI Number
API .                                                  : API Number
SECT.                                                  : Section
TOWN.                                                  : Township
RNGE.                                                  : Range
PDAT.          MSL                                     : Perm Datum
EPD .ft        0.00                                    : Elevation
LMF .          DF                                      : Log Measured From
DMF .          DF                                      : Drill Measured From
APD .ft        82.00                                   : Above Perm Datum
EKB .ft        -                                       : Elev-Kelly Bushing
EDF .ft        82.00                                   : Elev-Drill Floor
EGL .ft        -446.00                                 : Elev-Ground Level (Water Depth)
TDD .ft        6500.00                                 : Total Depth (Driller)
SRVC.          ATLAS WIRELINE                          : Service Company
LATI.          58 14 37.771 N                          : Latitude
LONG.          00 01 11.609 E                          : Longitude
DATE.          NOV-91-JAN-92                           : Logging Date
PROJ.          UKCS                                    : Project
SET .          COMP WIRE                               : Set
~Curve Information Section
DEPTH.ft                                               : Depth Curve
AC.us/ft                                               : Acoustic Travel Time
CAL.in                                                 : MLL Caliper
CALD.in                                                : ZDL Caliper
CNC.%                                                  : Compensated Neutron Porosity
GRD.gAPI                                               : ZDL Gamma Ray
GRL.gAPI                                               : DLL/DIFL Gamma Ray
K.                                                     : Potassium
KTH.gAPI                                               : Uranium Stripped Gamma Ray
PE.b/e                                                 : Photo-electric
RD.ohmm                                                : Deep Resistivity
RFOC.ohmm                                              : Logarithmic Resistivity from CFOC
RILD.ohmm                                              : Deep Induction Resistivity
RILM.ohmm                                              : Medium Induction Resistivity
RMLL.ohmm                                              : Microlaterolog Resistivity
RS.ohmm                                                : Shallow Resistivity
SP.mV                                                  : Spontaneous Potential
TH.ppm                                                 : Thorium
U.ppm                                                  : Uranium
ZCOR.g/cc                                              : ZDL Density Correction
ZDEN.g/cc                                              : ZDL Bulk Density
~ASCII Log Data Section
# ...
 5137.0000        84.4462         8.7157         8.6107        20.5620        47.5956        44.2903         1.9753        46.0737         3.5141         0.9672      -999.2500      -999.2500      -999.2500         1.9246         0.9487        52.5453         1.3365         0.4513         0.0182         2.3618     
 5137.5000        92.3942         8.7143         8.5935        23.0354        47.8838        46.9732         1.9525        45.5173         3.3718         0.7146      -999.2500      -999.2500      -999.2500         1.1505         0.7089        52.4831         1.0943         0.6984         0.0079         2.3007     
 5138.0000        99.6469         8.7125         8.6375        26.0138        47.7890        47.6142         1.8647        44.3842         3.1076         0.6011      -999.2500      -999.2500      -999.2500         0.8760         0.5921        52.5082         0.9236         0.9800         0.0035         2.2438     
 5138.5000       104.5632         8.7110         8.6618        28.8267        47.7823        47.0738         1.7516        43.7581         2.8864         0.5659      -999.2500      -999.2500      -999.2500         0.7835         0.5443        52.6282         0.9612         1.1068         0.0060         2.2034     
 5139.0000       106.7131         8.7074         8.6583        31.1283        48.3527        46.4214         1.7765        44.5161         2.7794         0.5717      -999.2500      -999.2500      -999.2500         0.7441         0.5364        52.7521         1.2054         1.0586         0.0098         2.1798     
 5139.5000       106.9469         8.7011         8.6343        32.0910        49.4903        45.6497         1.9187        46.1149         2.7378         0.5895      -999.2500      -999.2500      -999.2500         0.7273         0.5447        52.7721         1.5604         0.9747         0.0148         2.1682     
 5140.0000       106.5482         8.6948         8.5843        31.8198        50.0333        43.9925         1.9973        47.0299         2.7144         0.6060      -999.2500      -999.2500      -999.2500         0.7368         0.5535        52.6655         1.9782         0.8933         0.0219         2.1624     
 5140.5000       106.1570         8.6909         8.5608        31.4031        49.3267        42.5813         2.0083        46.6562         2.6879         0.6194      -999.2500      -999.2500      -999.2500         0.7705         0.5591        52.5182         2.2321         0.8095         0.0259         2.1587     
 5141.0000       105.9073         8.6899         8.5643        30.9058        48.6499        43.1871         2.0607        46.4194         2.6544         0.6268      -999.2500      -999.2500      -999.2500         0.8150         0.5616        52.4375         2.1918         0.6953         0.0232         2.1565     
 5141.5000       105.8624         8.6919         8.5882        30.3725        49.2868        44.6143         2.1382        47.6343         2.6252         0.6277      -999.2500      -999.2500      -999.2500         0.8430         0.5612        52.4478         2.0447         0.5188         0.0159         2.1569     
 5142.0000       105.9485         8.6949         8.6383        30.0607        50.3931        45.2308         2.1641        49.1806         2.6001         0.6276      -999.2500      -999.2500      -999.2500         0.8249         0.5590        52.5196         1.8661         0.3721         0.0097         2.1594     
 5142.5000       105.9942         8.6977         8.6614        30.1341        50.7909        46.3556         2.1584        49.9134         2.5528         0.6314      -999.2500      -999.2500      -999.2500         0.7799         0.5572        52.6195         1.6141         0.3083         0.0099         2.1615     
 5143.0000       105.9390         8.7003         8.6598        30.6850        50.5309        47.5747         2.1537        50.1146         2.4949         0.6399      -999.2500      -999.2500      -999.2500         0.7555         0.5569        52.6795         1.4796         0.2949         0.0158         2.1613     
 5143.5000       105.7868         8.7030         8.6605        31.2183        50.0563        46.5219         2.1316        49.8265         2.4856         0.6494      -999.2500      -999.2500      -999.2500         0.7516         0.5582        52.6493         1.4488         0.2933         0.0219         2.1588     
 5144.0000       105.5230         8.7044         8.6514        31.3792        49.7793        44.1684         2.1115        49.3083         2.5147         0.6576      -999.2500      -999.2500      -999.2500         0.7397         0.5608        52.5752         1.3279         0.2954         0.0265         2.1564     
 5144.5000       105.1726         8.7044         8.6098        31.5923        50.0502        42.9762         2.1186        49.3857         2.5499         0.6687      -999.2500      -999.2500      -999.2500         0.7234         0.5654        52.5389         1.4061         0.2970         0.0303         2.1567     
 5145.0000       104.7239         8.7042         8.5676        31.8968        50.5364        43.0863         2.0926        49.7896         2.5716         0.6849      -999.2500      -999.2500      -999.2500         0.7249         0.5724        52.5626         1.7815         0.2977         0.0311         2.1606     
 5145.5000       104.1647         8.7045         8.5616        32.0173        50.6163        43.3180         2.0495        49.3772         2.5652         0.7005      -999.2500      -999.2500      -999.2500         0.7534         0.5809        52.6130         1.7981         0.3768         0.0279         2.1673     
 5146.0000       103.6476         8.7050         8.5625        31.9333        50.3702        43.8049         2.0827        48.2827         2.5724         0.7111      -999.2500      -999.2500      -999.2500         0.8002         0.5892        52.6403         1.2310         0.6226         0.0232         2.1748     
 5146.5000       103.3627         8.7053         8.5625        31.4727        50.1744        44.8257         2.1150        47.7352         2.5642         0.7180      -999.2500      -999.2500      -999.2500         0.8387         0.5953        52.6246         0.9968         0.7412         0.0198         2.1811     
 5147.0000       103.3261         8.7107         8.5625        30.6725        50.0236        45.5911         2.0318        48.0343         2.5478         0.7233      -999.2500      -999.2500      -999.2500         0.8581         0.5984        52.5981         1.5911         0.5864         0.0209         2.1851     
 5147.5000       103.4230         8.7301         8.5625        30.0189        49.8436        45.7135         1.9523        48.0461         2.5342         0.7281      -999.2500      -999.2500      -999.2500         0.8800         0.6005        52.6031         2.0717         0.5134         0.0276         2.1870     
 5148.0000       103.5664         8.7601         8.5625        29.8331        49.7297        45.7385         1.9966        47.1307         2.5216         0.7355      -999.2500      -999.2500      -999.2500         0.9173         0.6032        52.6638         1.6853         0.7700         0.0368         2.1870     
 5148.5000       103.7284         8.7818         8.5621        30.2847        49.6523        45.1143         2.0765        46.4100         2.5106         0.7454      -999.2500      -999.2500      -999.2500         0.9508         0.6053        52.7558         0.9861         0.9960         0.0441         2.1849     
 5149.0000       103.8928         8.7809         8.5640        31.2398        49.6992        44.1391         2.0911        46.5569         2.5095         0.7490      -999.2500      -999.2500      -999.2500         0.9387         0.6034        52.8033         0.6385         0.9612         0.0464         2.1820     
 5149.5000       103.9748         8.7583         8.5881        31.7880        49.8840        44.4199         2.0589        46.7756         2.5121         0.7390      -999.2500      -999.2500      -999.2500         0.8735         0.5964        52.7396         0.5199         0.9294         0.0419         2.1801     
