~Version Information Section
VERS.          2.0                                     : CWLS LOG ASCII Standard
WRAP.          NO                                      : One line per depth step
CREA.          23/02/15                                : LAS Creation Date
~Well Information Section
STRT.ft        600.0000                                : Start Depth
STOP.ft        6471.5000                               : Stop Depth
STEP.ft        0.5000                                  : Step
NULL.          -999.2500                               : Null Value
COMP.          AMERADA HESS LTD                        : Company
WELL.          15/21b-45                               : Well
FLD .          EXPLORATION                             : Field
LOC .          CENTRAL NORTH SEA                       : Location
LOC1.                                                  : Location (UTM)
CTRY.          UK                                      : Country
PROV.          UKCS                                    : Province
UWI .          15463                                   : UWI Number
API .                                                  : API Number
SECT.                                                  : Section
TOWN.                                                  : Township
RNGE.                                                  : Range
PDAT.          MSL                                     : Perm Datum
EPD .ft        0.00                                    : Elevation
LMF .          DF                                      : Log Measured From
DMF .          DF                                      : Drill Measured From
APD .ft        82.00                                   : Above Perm Datum
EKB .ft        -                                       : Elev-Kelly Bushing
EDF .ft        82.00                                   : Elev-Drill Floor
EGL .ft        -446.00                                 : Elev-Ground Level (Water Depth)
TDD .ft        6500.00                                 : Total Depth (Driller)
SRVC.          ATLAS WIRELINE                          : Service Company
LATI.          58 14 37.771 N                          : Latitude
LONG.          00 01 11.609 E                          : Longitude
DATE.          NOV-91-JAN-92                           : Logging Date
PROJ.          UKCS                                    : Project
SET .          COMP WIRE                               : Set
~Curve Information Section
DEPTH.ft                                               : Depth Curve
AC.us/ft                                               : Acoustic Travel Time
CAL.in                                                 : MLL Caliper
CALD.in                                                : ZDL Caliper
CNC.%                                                  : Compensated Neutron Porosity
GRD.gAPI                                               : ZDL Gamma Ray
GRL.gAPI                                               : DLL/DIFL Gamma Ray
K.                                                     : Potassium
KTH.gAPI                                               : Uranium Stripped Gamma Ray
PE.b/e                                                 : Photo-electric
RD.ohmm                                                : Deep Resistivity
RFOC.ohmm                                              : Logarithmic Resistivity from CFOC
RILD.ohmm                                              : Deep Induction Resistivity
RILM.ohmm                                              : Medium Induction Resistivity
RMLL.ohmm                                              : Microlaterolog Resistivity
RS.ohmm                                                : Shallow Resistivity
SP.mV                                                  : Spontaneous Potential
TH.ppm                                                 : Thorium
U.ppm                                                  : Uranium
ZCOR.g/cc                                              : ZDL Density Correction
ZDEN.g/cc                                              : ZDL Bulk Density
~ASCII Log Data Section
# ...
 4825.0000       109.5077         8.7407         8.6602        30.4528        41.0768        37.9108         1.3510        37.8590         2.2894         0.6080      -999.2500      -999.2500      -999.2500         0.5038         0.3547        52.4057         1.8260         0.8155         0.0038         2.0910     
 4825.5000       109.7359         8.7427         8.6602        29.8281        42.6641        38.4925         1.3981        38.7702         2.2851         0.6036      -999.2500      -999.2500      -999.2500         0.5186         0.3505        52.3522         1.5025         0.9887         0.0108         2.0907     
 4826.0000       110.1118         8.7461         8.6602        30.0168        43.9241        39.5404         1.5072        39.4997         2.2903         0.5976      -999.2500      -999.2500      -999.2500         0.5205         0.3468        52.2870         1.0361         1.1693         0.0173         2.0906     
 4826.5000       110.5187         8.7493         8.6602        30.7386        43.6503        38.6064         1.5497        39.1309         2.3084         0.5928      -999.2500      -999.2500      -999.2500         0.5109         0.3462        52.2380         0.8842         1.2325         0.0203         2.0895     
 4827.0000       110.7096         8.7504         8.6602        31.0786        42.6295        36.5794         1.5171        38.3271         2.3200         0.5915      -999.2500      -999.2500      -999.2500         0.4894         0.3486        52.2688         1.1915         1.1832         0.0208         2.0877     
 4827.5000       110.6494         8.7501         8.6602        31.2640        42.2955        36.3205         1.5619        38.3188         2.3148         0.5929      -999.2500      -999.2500      -999.2500         0.4682         0.3521        52.3576         1.4309         1.1308         0.0199         2.0854     
 4828.0000       110.4297         8.7498         8.6602        30.9867        42.7658        37.8029         1.6760        39.0576         2.3160         0.5920      -999.2500      -999.2500      -999.2500         0.4624         0.3544        52.4293         1.1192         1.0996         0.0164         2.0833     
 4828.5000       109.8645         8.7500         8.6602        30.4460        43.5440        38.9542         1.6856        39.6559         2.3192         0.5858      -999.2500      -999.2500      -999.2500         0.4593         0.3547        52.4463         0.6225         1.1270         0.0122         2.0812     
 4829.0000       108.7832         8.7514         8.6602        30.2066        44.3010        39.1724         1.5959        40.0405         2.3170         0.5794      -999.2500      -999.2500      -999.2500         0.4475         0.3556        52.4316         0.6869         1.1610         0.0105         2.0794     
 4829.5000       107.5520         8.7537         8.6602        30.2470        45.0153        39.7075         1.5558        40.8290         2.3166         0.5790      -999.2500      -999.2500      -999.2500         0.4507         0.3602        52.4086         1.1640         1.1068         0.0113         2.0803     
 4830.0000       106.8276         8.7556         8.6602        30.5649        45.6600        41.2857         1.6453        42.0515         2.3166         0.5854      -999.2500      -999.2500      -999.2500         0.4946         0.3679        52.4012         1.3104         0.9796         0.0123         2.0852     
 4830.5000       106.7258         8.7560         8.6602        30.3906        45.5201        41.8652         1.8162        42.8800         2.2977         0.5959      -999.2500      -999.2500      -999.2500         0.5563         0.3768        52.4382         1.0320         0.7656         0.0132         2.0922     
 4831.0000       106.8425         8.7553         8.6600        29.6930        44.0834        39.2716         1.8932        42.2335         2.3020         0.6039      -999.2500      -999.2500      -999.2500         0.5739         0.3846        52.5064         0.7793         0.5656         0.0155         2.0988     
 4831.5000       106.8690         8.7553         8.6603        29.4523        41.8636        35.0415         1.7947        39.9983         2.3704         0.6025      -999.2500      -999.2500      -999.2500         0.5444         0.3895        52.5458         0.9002         0.5746         0.0194         2.1036     
 4832.0000       106.6707         8.7577         8.6483        29.4926        40.0866        33.1965         1.6517        37.6198         2.4090         0.5939      -999.2500      -999.2500      -999.2500         0.5168         0.3919        52.5043         1.2563         0.7509         0.0220         2.1054     
 4832.5000       106.1609         8.7638         8.6354        29.4537        39.5186        34.3658         1.6158        36.7145         2.3661         0.5872      -999.2500      -999.2500      -999.2500         0.5035         0.3958        52.3734         1.5000         0.8628         0.0213         2.1053     
 4833.0000       105.2702         8.7723         8.6484        29.1448        40.1680        36.2268         1.6933        37.4390         2.3237         0.5910      -999.2500      -999.2500      -999.2500         0.4942         0.4068        52.2232         1.2911         0.8568         0.0186         2.1070     
 4833.5000       103.7861         8.7789         8.6603        28.6875        41.1926        38.0398         1.7107        38.4510         2.3188         0.6090      -999.2500      -999.2500      -999.2500         0.4949         0.4272        52.1793         0.8374         0.8375         0.0155         2.1136     
 4834.0000       101.7222         8.7809         8.6600        28.6248        41.8765        40.7041         1.6454        39.0893         2.3174         0.6380      -999.2500      -999.2500      -999.2500         0.5290         0.4521        52.2785         0.6139         0.8012         0.0114         2.1231     
 4834.5000        99.6936         8.7802         8.6602        28.8951        43.3442        42.9069         1.6782        40.3827         2.3085         0.6677      -999.2500      -999.2500      -999.2500         0.6010         0.4758        52.4512         0.8279         0.8450         0.0093         2.1315     
 4835.0000        97.1514         8.7796         8.6602        28.6692        45.7619        42.8643         1.8004        42.2044         2.3119         0.6924      -999.2500      -999.2500      -999.2500         0.6528         0.4989        52.6028         1.3048         1.0524         0.0142         2.1390     
 4835.5000        92.5639         8.7813         8.6602        28.2649        46.2411        41.8895         1.8059        42.4631         2.3786         0.7155      -999.2500      -999.2500      -999.2500         0.6416         0.5237        52.6376         1.9565         1.1303         0.0248         2.1476     
 4836.0000        86.2862         8.7900         8.6604        27.9320        43.2024        40.9671         1.7274        40.3300         2.5041         0.7437      -999.2500      -999.2500      -999.2500         0.6327         0.5517        52.5229         2.4346         0.8776         0.0354         2.1554     
 4836.5000        79.8973         8.8047         8.6589        26.9163        39.6921        39.0210         1.7093        37.7994         2.6175         0.7885      -999.2500      -999.2500      -999.2500         0.6601         0.5882        52.3437         2.2364         0.6074         0.0412         2.1649     
 4837.0000        74.3447         8.8166         8.6789        25.0034        38.4082        36.4299         1.6509        37.1704         2.6842         0.8616      -999.2500      -999.2500      -999.2500         0.6927         0.6431        52.2230         1.6873         0.3868         0.0393         2.1861     
 4837.5000        73.1321         8.8212         8.7125        23.5516        39.7922        36.2170         1.5125        38.4943         2.7419         0.9663      -999.2500      -999.2500      -999.2500         0.7255         0.7246        52.2187         1.2354         0.3520         0.0338         2.2230     
