~Version Information Section
VERS.          2.0                                     : CWLS LOG ASCII Standard
WRAP.          NO                                      : One line per depth step
CREA.          23/02/15                                : LAS Creation Date
~Well Information Section
STRT.ft        600.0000                                : Start Depth
STOP.ft        6471.5000                               : Stop Depth
STEP.ft        0.5000                                  : Step
NULL.          -999.2500                               : Null Value
COMP.          AMERADA HESS LTD                        : Company
WELL.          15/21b-45                               : Well
FLD .          EXPLORATION                             : Field
LOC .          CENTRAL NORTH SEA                       : Location
LOC1.                                                  : Location (UTM)
CTRY.          UK                                      : Country
PROV.          UKCS                                    : Province
UWI .          15463                                   : UWI Number
API .                                                  : API Number
SECT.                                                  : Section
TOWN.                                                  : Township
RNGE.                                                  : Range
PDAT.          MSL                                     : Perm Datum
EPD .ft        0.00                                    : Elevation
LMF .          DF                                      : Log Measured From
DMF .          DF                                      : Drill Measured From
APD .ft        82.00                                   : Above Perm Datum
EKB .ft        -                                       : Elev-Kelly Bushing
EDF .ft        82.00                                   : Elev-Drill Floor
EGL .ft        -446.00                                 : Elev-Ground Level (Water Depth)
TDD .ft        6500.00                                 : Total Depth (Driller)
SRVC.          ATLAS WIRELINE                          : Service Company
LATI.          58 14 37.771 N                          : Latitude
LONG.          00 01 11.609 E                          : Longitude
DATE.          NOV-91-JAN-92                           : Logging Date
PROJ.          UKCS                                    : Project
SET .          COMP WIRE                               : Set
~Curve Information Section
DEPTH.ft                                               : Depth Curve
AC.us/ft                                               : Acoustic Travel Time
CAL.in                                                 : MLL Caliper
CALD.in                                                : ZDL Caliper
CNC.%                                                  : Compensated Neutron Porosity
GRD.gAPI                                               : ZDL Gamma Ray
GRL.gAPI                                               : DLL/DIFL Gamma Ray
K.                                                     : Potassium
KTH.gAPI                                               : Uranium Stripped Gamma Ray
PE.b/e                                                 : Photo-electric
RD.ohmm                                                : Deep Resistivity
RFOC.ohmm                                              : Logarithmic Resistivity from CFOC
RILD.ohmm                                              : Deep Induction Resistivity
RILM.ohmm                                              : Medium Induction Resistivity
RMLL.ohmm                                              : Microlaterolog Resistivity
RS.ohmm                                                : Shallow Resistivity
SP.mV                                                  : Spontaneous Potential
TH.ppm                                                 : Thorium
U.ppm                                                  : Uranium
ZCOR.g/cc                                              : ZDL Density Correction
ZDEN.g/cc                                              : ZDL Bulk Density
~ASCII Log Data Section
# ...
 2901.0000       142.8102      -999.2500        13.3389        81.7137      -999.2500        68.4428      -999.2500      -999.2500         3.2433         0.9049      -999.2500      -999.2500      -999.2500         0.8843         0.7386        60.6113      -999.2500      -999.2500         0.0715         1.9661     
 2901.5000       142.6881      -999.2500        13.3604        77.5914      -999.2500        67.3190      -999.2500      -999.2500         3.1820         0.8825      -999.2500      -999.2500      -999.2500         0.8484         0.7186        59.9570      -999.2500      -999.2500         0.0772         1.9509     
 2902.0000       144.9706      -999.2500        13.3722        73.6635      -999.2500        66.6032      -999.2500      -999.2500         3.1354         0.8659      -999.2500      -999.2500      -999.2500         0.7091         0.7028        59.5835      -999.2500      -999.2500         0.0586         1.9347     
 2902.5000       148.5584      -999.2500        13.4153        73.8691      -999.2500        65.8528      -999.2500      -999.2500         3.1124         0.8633      -999.2500      -999.2500      -999.2500         0.6351         0.6970        59.6528      -999.2500      -999.2500         0.0345         1.9287     
 2903.0000       151.6145      -999.2500        13.6398        78.1886      -999.2500        64.4608      -999.2500      -999.2500         3.1200         0.8697      -999.2500      -999.2500      -999.2500         0.6653         0.6977        59.9936      -999.2500      -999.2500         0.0264         1.9366     
 2903.5000       153.0030      -999.2500        14.0134        80.6315      -999.2500        64.1619      -999.2500      -999.2500         3.2143         0.8769      -999.2500      -999.2500      -999.2500         0.6743         0.7000        60.3964      -999.2500      -999.2500         0.0395         1.9521     
 2904.0000       153.2468      -999.2500        14.2543        77.6998      -999.2500        66.8147      -999.2500      -999.2500         3.3001         0.8804      -999.2500      -999.2500      -999.2500         0.5668         0.7017        60.8612      -999.2500      -999.2500         0.0642         1.9549     
 2904.5000       153.4346      -999.2500        14.2715        75.2677      -999.2500        69.6996      -999.2500      -999.2500         3.3167         0.8751      -999.2500      -999.2500      -999.2500         0.4610         0.6986        61.2959      -999.2500      -999.2500         0.0823         1.9355     
 2905.0000       153.6096      -999.2500        14.2134        75.7422      -999.2500        70.0520      -999.2500      -999.2500         3.3340         0.8638      -999.2500      -999.2500      -999.2500         0.3958         0.6915        61.4869      -999.2500      -999.2500         0.0812         1.9100     
 2905.5000       153.3548      -999.2500        14.2094        74.0346      -999.2500        68.8589      -999.2500      -999.2500         3.3597         0.8598      -999.2500      -999.2500      -999.2500         0.3515         0.6896        61.4787      -999.2500      -999.2500         0.0575         1.9023     
 2906.0000       152.7147      -999.2500        14.2606        73.2292      -999.2500        68.0752      -999.2500      -999.2500         3.3866         0.8713      -999.2500      -999.2500      -999.2500         0.3187         0.6987        61.4921      -999.2500      -999.2500         0.0296         1.9177     
 2906.5000       151.6952      -999.2500        14.2021        76.9854      -999.2500        67.8822      -999.2500      -999.2500         3.3531         0.9007      -999.2500      -999.2500      -999.2500         0.2922         0.7207        61.5403      -999.2500      -999.2500         0.0233         1.9385     
 2907.0000       150.2543      -999.2500        13.9468        76.0204      -999.2500        67.8641      -999.2500      -999.2500         3.2437         0.9497      -999.2500      -999.2500      -999.2500         0.2824         0.7570        61.5327      -999.2500      -999.2500         0.0328         1.9511     
 2907.5000       148.6607      -999.2500        13.6415        66.4908      -999.2500        67.8434      -999.2500      -999.2500         3.1954         1.0114      -999.2500      -999.2500      -999.2500         0.3061         0.8028        61.5537      -999.2500      -999.2500         0.0428         1.9599     
 2908.0000       146.7968      -999.2500        13.4324        63.0648      -999.2500        68.0533      -999.2500      -999.2500         3.1906         1.0613      -999.2500      -999.2500      -999.2500         0.3568         0.8413        61.6637      -999.2500      -999.2500         0.0452         1.9702     
 2908.5000       144.5371      -999.2500        13.3096        64.8115      -999.2500        68.9562      -999.2500      -999.2500         3.1812         1.0776      -999.2500      -999.2500      -999.2500         0.3824         0.8561        61.7765      -999.2500      -999.2500         0.0455         1.9801     
 2909.0000       142.7695      -999.2500        13.2424        62.1964      -999.2500        70.9090      -999.2500      -999.2500         3.1653         1.0612      -999.2500      -999.2500      -999.2500         0.3937         0.8461        61.9562      -999.2500      -999.2500         0.0578         1.9882     
 2909.5000       142.4847      -999.2500        13.1932        63.1972      -999.2500        72.0795      -999.2500      -999.2500         3.0839         1.0262      -999.2500      -999.2500      -999.2500         0.4239         0.8215        62.3477      -999.2500      -999.2500         0.0824         1.9951     
 2910.0000       143.5826      -999.2500        13.1488        69.9437      -999.2500        71.7802      -999.2500      -999.2500         2.9515         0.9855      -999.2500      -999.2500      -999.2500         0.4389         0.7910        62.7308      -999.2500      -999.2500         0.1050         1.9866     
 2910.5000       145.2083      -999.2500        13.1564        75.8045      -999.2500        70.9374      -999.2500      -999.2500         2.8605         0.9479      -999.2500      -999.2500      -999.2500         0.4270         0.7611        62.7524      -999.2500      -999.2500         0.1221         1.9559     
 2911.0000       146.2379      -999.2500        13.2705        75.8714      -999.2500        69.7339      -999.2500      -999.2500         2.9053         0.9162      -999.2500      -999.2500      -999.2500         0.4146         0.7361        62.4555      -999.2500      -999.2500         0.1238         1.9182     
 2911.5000       145.9432      -999.2500        13.4593        72.9859      -999.2500        67.6389      -999.2500      -999.2500         3.0666         0.8932      -999.2500      -999.2500      -999.2500         0.4107         0.7181        62.1643      -999.2500      -999.2500         0.1102         1.8888     
 2912.0000       144.9012      -999.2500        13.5576        71.6899      -999.2500        67.5227      -999.2500      -999.2500         3.2006         0.8832      -999.2500      -999.2500      -999.2500         0.4394         0.7093        62.0665      -999.2500      -999.2500         0.0959         1.8687     
 2912.5000       144.3967      -999.2500        13.4633        72.1485      -999.2500        70.4497      -999.2500      -999.2500         3.2357         0.8805      -999.2500      -999.2500      -999.2500         0.4875         0.7075        62.1035      -999.2500      -999.2500         0.0962         1.8553     
 2913.0000       145.0915      -999.2500        13.2958        68.7692      -999.2500        71.7497      -999.2500      -999.2500         3.2473         0.8770      -999.2500      -999.2500      -999.2500         0.4602         0.7062        62.0737      -999.2500      -999.2500         0.1036         1.8537     
 2913.5000       146.8365      -999.2500        13.2026        66.8404      -999.2500        69.0693      -999.2500      -999.2500         3.2506         0.8761      -999.2500      -999.2500      -999.2500         0.3700         0.7051        61.8756      -999.2500      -999.2500         0.1059         1.8645     
