~Version Information Section
VERS.          2.0                                     : CWLS LOG ASCII Standard
WRAP.          NO                                      : One line per depth step
CREA.          23/02/15                                : LAS Creation Date
~Well Information Section
STRT.ft        600.0000                                : Start Depth
STOP.ft        6471.5000                               : Stop Depth
STEP.ft        0.5000                                  : Step
NULL.          -999.2500                               : Null Value
COMP.          AMERADA HESS LTD                        : Company
WELL.          15/21b-45                               : Well
FLD .          EXPLORATION                             : Field
LOC .          CENTRAL NORTH SEA                       : Location
LOC1.                                                  : Location (UTM)
CTRY.          UK                                      : Country
PROV.          UKCS                                    : Province
UWI .          15463                                   : UWI Number
API .                                                  : API Number
SECT.                                                  : Section
TOWN.                                                  : Township
RNGE.                                                  : Range
PDAT.          MSL                                     : Perm Datum
EPD .ft        0.00                                    : Elevation
LMF .          DF                                      : Log Measured From
DMF .          DF                                      : Drill Measured From
APD .ft        82.00                                   : Above Perm Datum
EKB .ft        -                                       : Elev-Kelly Bushing
EDF .ft        82.00                                   : Elev-Drill Floor
EGL .ft        -446.00                                 : Elev-Ground Level (Water Depth)
TDD .ft        6500.00                                 : Total Depth (Driller)
SRVC.          ATLAS WIRELINE                          : Service Company
LATI.          58 14 37.771 N                          : Latitude
LONG.          00 01 11.609 E                          : Longitude
DATE.          NOV-91-JAN-92                           : Logging Date
PROJ.          UKCS                                    : Project
SET .          COMP WIRE                               : Set
~Curve Information Section
DEPTH.ft                                               : Depth Curve
AC.us/ft                                               : Acoustic Travel Time
CAL.in                                                 : MLL Caliper
CALD.in                                                : ZDL Caliper
CNC.%                                                  : Compensated Neutron Porosity
GRD.gAPI                                               : ZDL Gamma Ray
GRL.gAPI                                               : DLL/DIFL Gamma Ray
K.                                                     : Potassium
KTH.gAPI                                               : Uranium Stripped Gamma Ray
PE.b/e                                                 : Photo-electric
RD.ohmm                                                : Deep Resistivity
RFOC.ohmm                                              : Logarithmic Resistivity from CFOC
RILD.ohmm                                              : Deep Induction Resistivity
RILM.ohmm                                              : Medium Induction Resistivity
RMLL.ohmm                                              : Microlaterolog Resistivity
RS.ohmm                                                : Shallow Resistivity
SP.mV                                                  : Spontaneous Potential
TH.ppm                                                 : Thorium
U.ppm                                                  : Uranium
ZCOR.g/cc                                              : ZDL Density Correction
ZDEN.g/cc                                              : ZDL Bulk Density
~ASCII Log Data Section
# ...
 1627.0000       165.3187      -999.2500        17.3650       148.6743      -999.2500        68.3135      -999.2500      -999.2500         4.7890         1.3411      -999.2500      -999.2500      -999.2500         0.4833         0.8289        69.6728      -999.2500      -999.2500         0.1259         1.8875     
 1627.5000       168.7444      -999.2500        17.4593       145.4584      -999.2500        70.0725      -999.2500      -999.2500         4.6875         1.2180      -999.2500      -999.2500      -999.2500         0.4513         0.8206        70.3227      -999.2500      -999.2500         0.1070         1.8862     
 1628.0000       180.2348      -999.2500        17.5119       116.6771      -999.2500        72.0525      -999.2500      -999.2500         4.6192         1.1442      -999.2500      -999.2500      -999.2500         0.4708         0.8203        70.7177      -999.2500      -999.2500         0.0798         1.8953     
 1628.5000       197.9189      -999.2500        17.5943       103.5759      -999.2500        72.2301      -999.2500      -999.2500         4.6248         1.0948      -999.2500      -999.2500      -999.2500         0.5058         0.8176        70.9607      -999.2500      -999.2500         0.0637         1.9087     
 1629.0000       218.5937      -999.2500        17.8234       113.9558      -999.2500        70.2845      -999.2500      -999.2500         4.7649         1.0455      -999.2500      -999.2500      -999.2500         0.5521         0.8039        71.1520      -999.2500      -999.2500         0.0630         1.9297     
 1629.5000       236.8994      -999.2500        18.1617       110.9319      -999.2500        69.7321      -999.2500      -999.2500         5.0077         0.9811      -999.2500      -999.2500      -999.2500         0.6299         0.7825        71.2953      -999.2500      -999.2500         0.0874         1.9574     
 1630.0000       246.9932      -999.2500        18.4020       104.7656      -999.2500        71.6018      -999.2500      -999.2500         5.1380         0.9058      -999.2500      -999.2500      -999.2500         0.6797         0.7498        71.3990      -999.2500      -999.2500         0.1389         1.9521     
 1630.5000       249.0485      -999.2500        18.4366       106.8862      -999.2500        73.7025      -999.2500      -999.2500         5.0157         0.8432      -999.2500      -999.2500      -999.2500         0.5859         0.7076        71.5778      -999.2500      -999.2500         0.1699         1.8819     
 1631.0000       247.5843      -999.2500        18.3657       102.1055      -999.2500        74.5401      -999.2500      -999.2500         4.7687         0.8132      -999.2500      -999.2500      -999.2500         0.4432         0.6764        71.8022      -999.2500      -999.2500         0.1522         1.8049     
 1631.5000       244.9575      -999.2500        18.4052        88.4537      -999.2500        74.9545      -999.2500      -999.2500         4.6448         0.8173      -999.2500      -999.2500      -999.2500         0.3832         0.6765        71.9053      -999.2500      -999.2500         0.0910         1.7087     
 1632.0000       241.4075      -999.2500        18.6586        89.2103      -999.2500        74.7322      -999.2500      -999.2500         4.8838         0.8474      -999.2500      -999.2500      -999.2500         0.4044         0.7017        71.9355      -999.2500      -999.2500         0.0066         1.6499     
 1632.5000       237.6644      -999.2500        18.9947        93.5331      -999.2500        73.1843      -999.2500      -999.2500         5.5278         0.8883      -999.2500      -999.2500      -999.2500         0.4634         0.7297        71.9826      -999.2500      -999.2500        -0.0362         1.6752     
 1633.0000       234.5784      -999.2500        19.1589        92.8331      -999.2500        71.3591      -999.2500      -999.2500         6.1766         0.9141      -999.2500      -999.2500      -999.2500         0.4999         0.7429        71.9295      -999.2500      -999.2500        -0.0007         1.7741     
 1633.5000       231.1501      -999.2500        19.0381        99.2841      -999.2500        70.3789      -999.2500      -999.2500         6.2937         0.9176      -999.2500      -999.2500      -999.2500         0.5084         0.7386        71.7707      -999.2500      -999.2500         0.0548         1.8666     
 1634.0000       226.1347      -999.2500        18.7617       100.4032      -999.2500        70.5178      -999.2500      -999.2500         5.9426         0.9171      -999.2500      -999.2500      -999.2500         0.4976         0.7287        71.6714      -999.2500      -999.2500         0.0646         1.8983     
 1634.5000       222.1216      -999.2500        18.5101        95.0676      -999.2500        71.6081      -999.2500      -999.2500         5.5615         0.9277      -999.2500      -999.2500      -999.2500         0.4885         0.7267        71.6985      -999.2500      -999.2500         0.0589         1.9069     
 1635.0000       221.9712      -999.2500        18.3973        94.6931      -999.2500        72.4787      -999.2500      -999.2500         5.3462         0.9441      -999.2500      -999.2500      -999.2500         0.4375         0.7322        71.8997      -999.2500      -999.2500         0.0872         1.9262     
 1635.5000       223.4014      -999.2500        18.3662        96.9226      -999.2500        72.2504      -999.2500      -999.2500         5.2218         0.9527      -999.2500      -999.2500      -999.2500         0.3367         0.7349        72.2852      -999.2500      -999.2500         0.1247         1.9323     
 1636.0000       222.8716      -999.2500        18.2760        93.6891      -999.2500        72.1682      -999.2500      -999.2500         5.1154         0.9473      -999.2500      -999.2500      -999.2500         0.2771         0.7315        72.6528      -999.2500      -999.2500         0.1226         1.9228     
 1636.5000       220.0330      -999.2500        18.2061        89.3153      -999.2500        71.9617      -999.2500      -999.2500         5.1222         0.9336      -999.2500      -999.2500      -999.2500         0.2941         0.7200        72.8867      -999.2500      -999.2500         0.0784         1.9022     
 1637.0000       216.1758      -999.2500        18.3638        81.7608      -999.2500        70.7984      -999.2500      -999.2500         5.2246         0.9189      -999.2500      -999.2500      -999.2500         0.3765         0.7061        73.1603      -999.2500      -999.2500         0.0272         1.8738     
 1637.5000       212.0438      -999.2500        18.5699        83.5357      -999.2500        69.0416      -999.2500      -999.2500         5.2837         0.9109      -999.2500      -999.2500      -999.2500         0.4460         0.7016        73.5340      -999.2500      -999.2500        -0.0005         1.8834     
 1638.0000       203.8948      -999.2500        18.6313        82.3232      -999.2500        67.5987      -999.2500      -999.2500         5.3332         0.9081      -999.2500      -999.2500      -999.2500         0.4610         0.7106        73.7645      -999.2500      -999.2500         0.0046         1.9162     
 1638.5000       186.8813      -999.2500        18.7251        74.1600      -999.2500        67.0646      -999.2500      -999.2500         5.3729         0.9040      -999.2500      -999.2500      -999.2500         0.4713         0.7153        73.6804      -999.2500      -999.2500         0.0304         1.9514     
 1639.0000       166.4478      -999.2500        18.7798        71.6243      -999.2500        67.2461      -999.2500      -999.2500         5.3835         0.9024      -999.2500      -999.2500      -999.2500         0.4480         0.7059        73.3889      -999.2500      -999.2500         0.0601         1.9664     
 1639.5000       153.6716      -999.2500        18.6746        78.6220      -999.2500        66.9906      -999.2500      -999.2500         5.4486         0.9069      -999.2500      -999.2500      -999.2500         0.4134         0.6863        73.1040      -999.2500      -999.2500         0.0623         1.9555     
