~Version Information Section
VERS.          2.0                                     : CWLS LOG ASCII Standard
WRAP.          NO                                      : One line per depth step
CREA.          23/02/15                                : LAS Creation Date
~Well Information Section
STRT.ft        600.0000                                : Start Depth
STOP.ft        6471.5000                               : Stop Depth
STEP.ft        0.5000                                  : Step
NULL.          -999.2500                               : Null Value
COMP.          AMERADA HESS LTD                        : Company
WELL.          15/21b-45                               : Well
FLD .          EXPLORATION                             : Field
LOC .          CENTRAL NORTH SEA                       : Location
LOC1.                                                  : Location (UTM)
CTRY.          UK                                      : Country
PROV.          UKCS                                    : Province
UWI .          15463                                   : UWI Number
API .                                                  : API Number
SECT.                                                  : Section
TOWN.                                                  : Township
RNGE.                                                  : Range
PDAT.          MSL                                     : Perm Datum
EPD .ft        0.00                                    : Elevation
LMF .          DF                                      : Log Measured From
DMF .          DF                                      : Drill Measured From
APD .ft        82.00                                   : Above Perm Datum
EKB .ft        -                                       : Elev-Kelly Bushing
EDF .ft        82.00                                   : Elev-Drill Floor
EGL .ft        -446.00                                 : Elev-Ground Level (Water Depth)
TDD .ft        6500.00                                 : Total Depth (Driller)
SRVC.          ATLAS WIRELINE                          : Service Company
LATI.          58 14 37.771 N                          : Latitude
LONG.          00 01 11.609 E                          : Longitude
DATE.          NOV-91-JAN-92                           : Logging Date
PROJ.          UKCS                                    : Project
SET .          COMP WIRE                               : Set
~Curve Information Section
DEPTH.ft                                               : Depth Curve
AC.us/ft                                               : Acoustic Travel Time
CAL.in                                                 : MLL Caliper
CALD.in                                                : ZDL Caliper
CNC.%                                                  : Compensated Neutron Porosity
GRD.gAPI                                               : ZDL Gamma Ray
GRL.gAPI                                               : DLL/DIFL Gamma Ray
K.                                                     : Potassium
KTH.gAPI                                               : Uranium Stripped Gamma Ray
PE.b/e                                                 : Photo-electric
RD.ohmm                                                : Deep Resistivity
RFOC.ohmm                                              : Logarithmic Resistivity from CFOC
RILD.ohmm                                              : Deep Induction Resistivity
RILM.ohmm                                              : Medium Induction Resistivity
RMLL.ohmm                                              : Microlaterolog Resistivity
RS.ohmm                                                : Shallow Resistivity
SP.mV                                                  : Spontaneous Potential
TH.ppm                                                 : Thorium
U.ppm                                                  : Uranium
ZCOR.g/cc                                              : ZDL Density Correction
ZDEN.g/cc                                              : ZDL Bulk Density
~ASCII Log Data Section
# ...
 2264.0000       155.5687      -999.2500        16.0799        56.1703      -999.2500        54.1543      -999.2500      -999.2500         2.2889         0.6412      -999.2500      -999.2500      -999.2500         0.4155         0.4823        79.5865      -999.2500      -999.2500         0.0728         2.0064     
 2264.5000       154.9760      -999.2500        15.8296        52.8732      -999.2500        54.7130      -999.2500      -999.2500         2.4154         0.6438      -999.2500      -999.2500      -999.2500         0.4112         0.4852        79.2506      -999.2500      -999.2500         0.0698         1.9954     
 2265.0000       153.9419      -999.2500        15.6378        51.8580      -999.2500        55.0358      -999.2500      -999.2500         2.5555         0.6490      -999.2500      -999.2500      -999.2500         0.3840         0.4910        79.0338      -999.2500      -999.2500         0.0674         1.9951     
 2265.5000       152.8925      -999.2500        15.4818        52.2135      -999.2500        54.7419      -999.2500      -999.2500         2.6769         0.6563      -999.2500      -999.2500      -999.2500         0.3591         0.4969        79.1002      -999.2500      -999.2500         0.0604         2.0001     
 2266.0000       152.5506      -999.2500        15.3134        52.6730      -999.2500        53.5443      -999.2500      -999.2500         2.7670         0.6614      -999.2500      -999.2500      -999.2500         0.3578         0.4994        79.2171      -999.2500      -999.2500         0.0433         2.0037     
 2266.5000       153.0485      -999.2500        15.1731        53.1825      -999.2500        52.7570      -999.2500      -999.2500         2.7752         0.6651      -999.2500      -999.2500      -999.2500         0.3611         0.5001        79.0582      -999.2500      -999.2500         0.0430         2.0028     
 2267.0000       153.8080      -999.2500        15.1136        54.9823      -999.2500        53.2283      -999.2500      -999.2500         2.7707         0.6702      -999.2500      -999.2500      -999.2500         0.3547         0.5020        78.7387      -999.2500      -999.2500         0.0674         1.9966     
 2267.5000       154.1653      -999.2500        15.1059        55.1892      -999.2500        53.9192      -999.2500      -999.2500         2.7833         0.6760      -999.2500      -999.2500      -999.2500         0.3598         0.5051        78.5078      -999.2500      -999.2500         0.0787         1.9900     
 2268.0000       153.8737      -999.2500        15.1059        52.4699      -999.2500        53.3663      -999.2500      -999.2500         2.7815         0.6813      -999.2500      -999.2500      -999.2500         0.3786         0.5089        78.3861      -999.2500      -999.2500         0.0559         1.9881     
 2268.5000       153.2352      -999.2500        15.1059        49.0636      -999.2500        52.3752      -999.2500      -999.2500         2.8100         0.6881      -999.2500      -999.2500      -999.2500         0.4030         0.5140        78.4206      -999.2500      -999.2500         0.0225         1.9880     
 2269.0000       152.8179      -999.2500        15.1059        46.8665      -999.2500        51.3577      -999.2500      -999.2500         2.8370         0.6944      -999.2500      -999.2500      -999.2500         0.4111         0.5181        78.6891      -999.2500      -999.2500         0.0101         2.0019     
 2269.5000       152.9188      -999.2500        15.1059        45.3253      -999.2500        50.5874      -999.2500      -999.2500         2.7356         0.6958      -999.2500      -999.2500      -999.2500         0.3796         0.5179        79.0038      -999.2500      -999.2500         0.0123         2.0172     
 2270.0000       153.3425      -999.2500        15.1059        44.0491      -999.2500        50.2568      -999.2500      -999.2500         2.5301         0.6938      -999.2500      -999.2500      -999.2500         0.3404         0.5139        79.1531      -999.2500      -999.2500         0.0102         2.0208     
 2270.5000       153.7581      -999.2500        15.1059        43.3931      -999.2500        49.3105      -999.2500      -999.2500         2.4065         0.6910      -999.2500      -999.2500      -999.2500         0.3442         0.5098        79.1532      -999.2500      -999.2500         0.0065         2.0171     
 2271.0000       154.0758      -999.2500        15.1059        43.3174      -999.2500        47.6843      -999.2500      -999.2500         2.4314         0.6864      -999.2500      -999.2500      -999.2500         0.3796         0.5063        79.0791      -999.2500      -999.2500         0.0091         2.0140     
 2271.5000       154.3128      -999.2500        15.1059        43.4393      -999.2500        47.3595      -999.2500      -999.2500         2.4520         0.6817      -999.2500      -999.2500      -999.2500         0.4067         0.5027        79.0034      -999.2500      -999.2500         0.0127         2.0128     
 2272.0000       154.3430      -999.2500        15.1059        43.4643      -999.2500        49.0145      -999.2500      -999.2500         2.4322         0.6788      -999.2500      -999.2500      -999.2500         0.4114         0.4991        79.0372      -999.2500      -999.2500         0.0086         2.0111     
 2272.5000       154.1061      -999.2500        15.1059        43.8654      -999.2500        50.8367      -999.2500      -999.2500         2.4222         0.6741      -999.2500      -999.2500      -999.2500         0.4138         0.4963        79.1495      -999.2500      -999.2500         0.0010         2.0090     
 2273.0000       153.8300      -999.2500        15.1059        45.0969      -999.2500        51.4330      -999.2500      -999.2500         2.4255         0.6675      -999.2500      -999.2500      -999.2500         0.4170         0.4951        79.1413      -999.2500      -999.2500        -0.0010         2.0079     
 2273.5000       153.7453      -999.2500        15.1059        46.6207      -999.2500        51.6216      -999.2500      -999.2500         2.4234         0.6641      -999.2500      -999.2500      -999.2500         0.4240         0.4955        78.9791      -999.2500      -999.2500         0.0028         2.0069     
 2274.0000       153.8327      -999.2500        15.1059        47.8459      -999.2500        52.8798      -999.2500      -999.2500         2.4082         0.6654      -999.2500      -999.2500      -999.2500         0.4223         0.4958        78.8547      -999.2500      -999.2500         0.0079         2.0047     
 2274.5000       153.9770      -999.2500        15.1037        48.7539      -999.2500        54.6936      -999.2500      -999.2500         2.3953         0.6681      -999.2500      -999.2500      -999.2500         0.4076         0.4955        78.8151      -999.2500      -999.2500         0.0093         2.0026     
 2275.0000       154.1306      -999.2500        15.1043        49.1982      -999.2500        55.4203      -999.2500      -999.2500         2.3904         0.6673      -999.2500      -999.2500      -999.2500         0.3927         0.4939        78.7717      -999.2500      -999.2500         0.0048         2.0037     
 2275.5000       154.2918      -999.2500        15.1262        48.1095      -999.2500        55.4642      -999.2500      -999.2500         2.3873         0.6602      -999.2500      -999.2500      -999.2500         0.3896         0.4905        78.7755      -999.2500      -999.2500         0.0007         2.0091     
 2276.0000       154.4644      -999.2500        15.1627        46.1768      -999.2500        56.1066      -999.2500      -999.2500         2.3803         0.6512      -999.2500      -999.2500      -999.2500         0.3917         0.4868        78.8602      -999.2500      -999.2500         0.0020         2.0163     
 2276.5000       154.6536      -999.2500        15.1903        45.7788      -999.2500        56.3088      -999.2500      -999.2500         2.3685         0.6480      -999.2500      -999.2500      -999.2500         0.3870         0.4852        78.9133      -999.2500      -999.2500         0.0041         2.0209     
