~Version Information Section
VERS.          2.0                                     : CWLS LOG ASCII Standard
WRAP.          NO                                      : One line per depth step
CREA.          23/02/15                                : LAS Creation Date
~Well Information Section
STRT.ft        600.0000                                : Start Depth
STOP.ft        6471.5000                               : Stop Depth
STEP.ft        0.5000                                  : Step
NULL.          -999.2500                               : Null Value
COMP.          AMERADA HESS LTD                        : Company
WELL.          15/21b-45                               : Well
FLD .          EXPLORATION                             : Field
LOC .          CENTRAL NORTH SEA                       : Location
LOC1.                                                  : Location (UTM)
CTRY.          UK                                      : Country
PROV.          UKCS                                    : Province
UWI .          15463                                   : UWI Number
API .                                                  : API Number
SECT.                                                  : Section
TOWN.                                                  : Township
RNGE.                                                  : Range
PDAT.          MSL                                     : Perm Datum
EPD .ft        0.00                                    : Elevation
LMF .          DF                                      : Log Measured From
DMF .          DF                                      : Drill Measured From
APD .ft        82.00                                   : Above Perm Datum
EKB .ft        -                                       : Elev-Kelly Bushing
EDF .ft        82.00                                   : Elev-Drill Floor
EGL .ft        -446.00                                 : Elev-Ground Level (Water Depth)
TDD .ft        6500.00                                 : Total Depth (Driller)
SRVC.          ATLAS WIRELINE                          : Service Company
LATI.          58 14 37.771 N                          : Latitude
LONG.          00 01 11.609 E                          : Longitude
DATE.          NOV-91-JAN-92                           : Logging Date
PROJ.          UKCS                                    : Project
SET .          COMP WIRE                               : Set
~Curve Information Section
DEPTH.ft                                               : Depth Curve
AC.us/ft                                               : Acoustic Travel Time
CAL.in                                                 : MLL Caliper
CALD.in                                                : ZDL Caliper
CNC.%                                                  : Compensated Neutron Porosity
GRD.gAPI                                               : ZDL Gamma Ray
GRL.gAPI                                               : DLL/DIFL Gamma Ray
K.                                                     : Potassium
KTH.gAPI                                               : Uranium Stripped Gamma Ray
PE.b/e                                                 : Photo-electric
RD.ohmm                                                : Deep Resistivity
RFOC.ohmm                                              : Logarithmic Resistivity from CFOC
RILD.ohmm                                              : Deep Induction Resistivity
RILM.ohmm                                              : Medium Induction Resistivity
RMLL.ohmm                                              : Microlaterolog Resistivity
RS.ohmm                                                : Shallow Resistivity
SP.mV                                                  : Spontaneous Potential
TH.ppm                                                 : Thorium
U.ppm                                                  : Uranium
ZCOR.g/cc                                              : ZDL Density Correction
ZDEN.g/cc                                              : ZDL Bulk Density
~ASCII Log Data Section
# ...
 6125.0000        83.7348      -999.2500         6.2988        20.5668        45.2058        41.8453         1.4895        45.2058         3.0919      -999.2500         2.0900         1.3114         1.4370      -999.2500      -999.2500        83.2207         3.0021         0.2851         0.0453         2.3529     
 6125.5000        83.0624      -999.2500         6.2528        20.1034        44.2297        42.8367         1.5253        44.2297         3.1065      -999.2500         2.1333         1.2832         1.4223      -999.2500      -999.2500        83.3406         2.7320         0.2861         0.0488         2.3640     
 6126.0000        82.7814      -999.2500         6.2167        19.6326        43.8868        44.9700         1.4708        42.3011         3.1196      -999.2500         2.1144         1.2703         1.4216      -999.2500      -999.2500        83.3850         1.9833         0.3801         0.0501         2.3788     
 6126.5000        82.7812      -999.2500         6.2191        18.9859        44.3528        46.3787         1.3021        39.5586         3.1366      -999.2500         2.0710         1.2710         1.4303      -999.2500      -999.2500        83.3746         1.3783         1.0743         0.0457         2.3903     
 6127.0000        82.7306      -999.2500         6.2188        18.6630        44.3750        46.6337         1.1296        36.9221         3.1878      -999.2500         2.0454         1.2789         1.4397      -999.2500      -999.2500        83.4678         1.4014         1.5645         0.0408         2.3924     
 6127.5000        82.4399      -999.2500         6.2188        18.5219        43.9808        45.9981         1.1426        36.9712         3.2833      -999.2500         2.0693         1.2878         1.4438      -999.2500      -999.2500        83.6457         2.2439         1.5330         0.0381         2.3841     
 6128.0000        82.0017      -999.2500         6.2188        18.4461        44.0721        45.2623         1.2910        39.3098         3.3766      -999.2500         2.1376         1.2939         1.4429      -999.2500      -999.2500        83.7446         2.7880         1.1159         0.0360         2.3696     
 6128.5000        81.5968      -999.2500         6.2188        18.5721        43.9592        44.8197         1.3559        40.9513         3.4410      -999.2500         2.1854         1.2960         1.4413      -999.2500      -999.2500        83.6878         2.6385         0.7042         0.0379         2.3567     
 6129.0000        81.3184      -999.2500         6.2188        18.8330        42.6478        44.2897         1.3791        40.7239         3.4503      -999.2500         2.1501         1.2954         1.4418      -999.2500      -999.2500        83.4946         2.5318         0.4586         0.0428         2.3503     
 6129.5000        81.1789      -999.2500         6.2188        18.4631        40.8995        44.0734         1.4398        38.5971         3.4023      -999.2500         2.0695         1.2921         1.4401      -999.2500      -999.2500        83.2331         2.3135         0.5987         0.0449         2.3489     
 6130.0000        81.2332      -999.2500         6.2188        17.7050        39.7154        43.2991         1.4238        36.1649         3.3303      -999.2500         2.0097         1.2863         1.4298      -999.2500      -999.2500        83.1058         1.6879         0.9568         0.0451         2.3489     
 6130.5000        81.6101      -999.2500         6.2188        17.6443        39.2963        41.2212         1.3997        35.4487         3.3719      -999.2500         1.9622         1.2800         1.4126      -999.2500      -999.2500        83.2819         1.1953         1.0250         0.0457         2.3501     
 6131.0000        82.3565      -999.2500         6.2188        18.3423        39.5732        40.2649         1.4657        36.7427         3.4721      -999.2500         1.8948         1.2779         1.3973      -999.2500      -999.2500        83.6270         0.9099         0.7539         0.0449         2.3537     
 6131.5000        83.3056      -999.2500         6.2188        18.6535        39.9928        41.1529         1.5311        38.1246         3.4693      -999.2500         1.8287         1.2849         1.3930      -999.2500      -999.2500        83.8150         0.6401         0.4965         0.0422         2.3584     
 6132.0000        84.1272      -999.2500         6.2188        18.5155        39.7986        41.7113         1.5144        38.0782         3.4188      -999.2500         1.7970         1.3020         1.4074      -999.2500      -999.2500        83.7070         0.5714         0.4519         0.0421         2.3606     
 6132.5000        84.5939      -999.2500         6.2188        18.4494        39.4708        41.9614         1.5131        37.3844         3.3633      -999.2500         1.8030         1.3270         1.4443      -999.2500      -999.2500        83.4323         0.7618         0.5609         0.0443         2.3590     
 6133.0000        84.7264      -999.2500         6.2188        18.5848        40.0556        43.4341         1.5419        37.6027         3.4315      -999.2500         1.8515         1.3585         1.4982      -999.2500      -999.2500        83.1540         1.1978         0.6762         0.0441         2.3576     
 6133.5000        84.6621      -999.2500         6.2188        18.7576        41.6538        46.0010         1.6138        39.4784         3.6624      -999.2500         1.9517         1.3985         1.5580      -999.2500      -999.2500        82.9394         1.6704         0.6047         0.0430         2.3601     
 6134.0000        84.4347      -999.2500         6.2191        18.5635        43.5499        48.0934         1.6761        41.9743         3.9126      -999.2500         2.0676         1.4513         1.6197      -999.2500      -999.2500        82.7609         1.6745         0.4272         0.0444         2.3654     
 6134.5000        84.0354      -999.2500         6.2180        18.0338        45.4400        48.4532         1.5805        43.4030         3.9619      -999.2500         2.1276         1.5243         1.6960      -999.2500      -999.2500        82.5048         1.5000         0.5025         0.0464         2.3716     
 6135.0000        83.7201      -999.2500         6.2422        17.4417        47.0720        46.9283         1.3982        42.5685         3.7903      -999.2500         2.1166         1.6241         1.8094      -999.2500      -999.2500        82.0657         1.4674         1.0066         0.0453         2.3808     
 6135.5000        83.6413      -999.2500         6.2515        17.0136        47.0808        45.1169         1.3506        40.7877         3.6811      -999.2500         2.0930         1.7556         1.9718      -999.2500      -999.2500        81.5119         1.2842         1.4119         0.0359         2.3922     
 6136.0000        83.2868      -999.2500         6.2829        16.6459        44.6445        43.8744         1.4000        39.7647         3.8959      -999.2500         2.1280         1.9245         2.1618      -999.2500      -999.2500        81.1012         0.9425         1.1498         0.0269         2.3995     
 6136.5000        82.1344      -999.2500         6.3201        16.1987        41.5251        42.9064         1.3410        38.8450         4.2902      -999.2500         2.2713         2.1314         2.3599      -999.2500      -999.2500        81.0549         0.8261         0.6177         0.0382         2.4011     
 6137.0000        80.5568      -999.2500         6.3081        15.7025        40.1095        42.3952         1.1911        38.1258         4.5255      -999.2500         2.5012         2.3931         2.5768      -999.2500      -999.2500        81.2957         0.8598         0.4157         0.0580         2.4035     
 6137.5000        79.0915      -999.2500         6.2515        15.6199        40.8985        44.1647         1.0994        38.6862         4.5847      -999.2500         2.6992         2.7487         2.8434      -999.2500      -999.2500        81.4802         1.1491         0.4277         0.0598         2.4087     
