~Version Information Section
VERS.          2.0                                     : CWLS LOG ASCII Standard
WRAP.          NO                                      : One line per depth step
CREA.          23/02/15                                : LAS Creation Date
~Well Information Section
STRT.ft        600.0000                                : Start Depth
STOP.ft        6471.5000                               : Stop Depth
STEP.ft        0.5000                                  : Step
NULL.          -999.2500                               : Null Value
COMP.          AMERADA HESS LTD                        : Company
WELL.          15/21b-45                               : Well
FLD .          EXPLORATION                             : Field
LOC .          CENTRAL NORTH SEA                       : Location
LOC1.                                                  : Location (UTM)
CTRY.          UK                                      : Country
PROV.          UKCS                                    : Province
UWI .          15463                                   : UWI Number
API .                                                  : API Number
SECT.                                                  : Section
TOWN.                                                  : Township
RNGE.                                                  : Range
PDAT.          MSL                                     : Perm Datum
EPD .ft        0.00                                    : Elevation
LMF .          DF                                      : Log Measured From
DMF .          DF                                      : Drill Measured From
APD .ft        82.00                                   : Above Perm Datum
EKB .ft        -                                       : Elev-Kelly Bushing
EDF .ft        82.00                                   : Elev-Drill Floor
EGL .ft        -446.00                                 : Elev-Ground Level (Water Depth)
TDD .ft        6500.00                                 : Total Depth (Driller)
SRVC.          ATLAS WIRELINE                          : Service Company
LATI.          58 14 37.771 N                          : Latitude
LONG.          00 01 11.609 E                          : Longitude
DATE.          NOV-91-JAN-92                           : Logging Date
PROJ.          UKCS                                    : Project
SET .          COMP WIRE                               : Set
~Curve Information Section
DEPTH.ft                                               : Depth Curve
AC.us/ft                                               : Acoustic Travel Time
CAL.in                                                 : MLL Caliper
CALD.in                                                : ZDL Caliper
CNC.%                                                  : Compensated Neutron Porosity
GRD.gAPI                                               : ZDL Gamma Ray
GRL.gAPI                                               : DLL/DIFL Gamma Ray
K.                                                     : Potassium
KTH.gAPI                                               : Uranium Stripped Gamma Ray
PE.b/e                                                 : Photo-electric
RD.ohmm                                                : Deep Resistivity
RFOC.ohmm                                              : Logarithmic Resistivity from CFOC
RILD.ohmm                                              : Deep Induction Resistivity
RILM.ohmm                                              : Medium Induction Resistivity
RMLL.ohmm                                              : Microlaterolog Resistivity
RS.ohmm                                                : Shallow Resistivity
SP.mV                                                  : Spontaneous Potential
TH.ppm                                                 : Thorium
U.ppm                                                  : Uranium
ZCOR.g/cc                                              : ZDL Density Correction
ZDEN.g/cc                                              : ZDL Bulk Density
~ASCII Log Data Section
# ...
 2576.0000       147.4712      -999.2500        13.2542        52.1107      -999.2500        64.8787      -999.2500      -999.2500         2.4416         1.2753      -999.2500      -999.2500      -999.2500         0.8297         1.0445        69.9132      -999.2500      -999.2500         0.0725         2.0861     
 2576.5000       147.6630      -999.2500        13.2542        51.3011      -999.2500        62.6273      -999.2500      -999.2500         2.4525         1.2637      -999.2500      -999.2500      -999.2500         0.8772         1.0408        69.9307      -999.2500      -999.2500         0.0587         2.0849     
 2577.0000       147.7288      -999.2500        13.2542        49.4324      -999.2500        63.0209      -999.2500      -999.2500         2.4499         1.2502      -999.2500      -999.2500      -999.2500         0.9014         1.0362        70.0535      -999.2500      -999.2500         0.0502         2.0906     
 2577.5000       147.7429      -999.2500        13.2542        47.4273      -999.2500        64.3372      -999.2500      -999.2500         2.4094         1.2382      -999.2500      -999.2500      -999.2500         0.9030         1.0322        70.2520      -999.2500      -999.2500         0.0543         2.0973     
 2578.0000       147.6916      -999.2500        13.2542        46.3427      -999.2500        63.9758      -999.2500      -999.2500         2.3747         1.2282      -999.2500      -999.2500      -999.2500         0.9060         1.0298        70.4258      -999.2500      -999.2500         0.0626         2.0990     
 2578.5000       147.5753      -999.2500        13.2542        46.3713      -999.2500        62.1682      -999.2500      -999.2500         2.3569         1.2196      -999.2500      -999.2500      -999.2500         0.9272         1.0281        70.4962      -999.2500      -999.2500         0.0686         2.0970     
 2579.0000       147.4605      -999.2500        13.2542        46.4849      -999.2500        60.7464      -999.2500      -999.2500         2.3373         1.2094      -999.2500      -999.2500      -999.2500         0.9198         1.0236        70.5346      -999.2500      -999.2500         0.0671         2.0967     
 2579.5000       147.3627      -999.2500        13.2542        45.7043      -999.2500        60.1537      -999.2500      -999.2500         2.3270         1.1915      -999.2500      -999.2500      -999.2500         0.8627         1.0121        70.5799      -999.2500      -999.2500         0.0577         2.0997     
 2580.0000       146.9089      -999.2500        13.2548        44.5523      -999.2500        60.4460      -999.2500      -999.2500         2.3341         1.1641      -999.2500      -999.2500      -999.2500         0.8021         0.9926        70.5659      -999.2500      -999.2500         0.0498         2.1031     
 2580.5000       145.4247      -999.2500        13.2610        43.3126      -999.2500        61.2901      -999.2500      -999.2500         2.3401         1.1373      -999.2500      -999.2500      -999.2500         0.7587         0.9714        70.4758      -999.2500      -999.2500         0.0511         2.1039     
 2581.0000       142.8000      -999.2500        13.2700        42.2401      -999.2500        62.2395      -999.2500      -999.2500         2.3303         1.1219      -999.2500      -999.2500      -999.2500         0.7536         0.9566        70.3337      -999.2500      -999.2500         0.0528         2.1014     
 2581.5000       139.9783      -999.2500        13.2700        42.7109      -999.2500        61.8148      -999.2500      -999.2500         2.3241         1.1209      -999.2500      -999.2500      -999.2500         0.7929         0.9519        70.1313      -999.2500      -999.2500         0.0468         2.0986     
 2582.0000       138.3569      -999.2500        13.2610        43.8273      -999.2500        59.4066      -999.2500      -999.2500         2.3233         1.1316      -999.2500      -999.2500      -999.2500         0.8428         0.9566        69.9684      -999.2500      -999.2500         0.0411         2.0991     
 2582.5000       138.8471      -999.2500        13.2548        43.6390      -999.2500        57.2399      -999.2500      -999.2500         2.3276         1.1476      -999.2500      -999.2500      -999.2500         0.8441         0.9662        70.0250      -999.2500      -999.2500         0.0430         2.1002     
 2583.0000       141.2347      -999.2500        13.2542        43.0110      -999.2500        57.0840      -999.2500      -999.2500         2.3502         1.1609      -999.2500      -999.2500      -999.2500         0.8097         0.9733        70.2633      -999.2500      -999.2500         0.0508         2.0978     
 2583.5000       144.2507      -999.2500        13.2542        42.8210      -999.2500        57.9378      -999.2500      -999.2500         2.3375         1.1630      -999.2500      -999.2500      -999.2500         0.7927         0.9708        70.4687      -999.2500      -999.2500         0.0577         2.0927     
 2584.0000       146.3879      -999.2500        13.2542        42.1772      -999.2500        58.3751      -999.2500      -999.2500         2.3159         1.1497      -999.2500      -999.2500      -999.2500         0.8096         0.9571        70.6195      -999.2500      -999.2500         0.0562         2.0886     
 2584.5000       146.7875      -999.2500        13.2542        42.2660      -999.2500        59.1808      -999.2500      -999.2500         2.3019         1.1244      -999.2500      -999.2500      -999.2500         0.8335         0.9356        70.8686      -999.2500      -999.2500         0.0486         2.0868     
 2585.0000       145.5322      -999.2500        13.2542        43.6946      -999.2500        60.9561      -999.2500      -999.2500         2.2871         1.0930      -999.2500      -999.2500      -999.2500         0.8295         0.9091        71.2301      -999.2500      -999.2500         0.0441         2.0883     
 2585.5000       143.4241      -999.2500        13.2542        44.1563      -999.2500        63.0665      -999.2500      -999.2500         2.3364         1.0575      -999.2500      -999.2500      -999.2500         0.7869         0.8790        71.6219      -999.2500      -999.2500         0.0403         2.0936     
 2586.0000       141.4764      -999.2500        13.2542        43.1876      -999.2500        64.0789      -999.2500      -999.2500         2.4128         1.0214      -999.2500      -999.2500      -999.2500         0.7171         0.8483        72.0077      -999.2500      -999.2500         0.0297         2.0994     
 2586.5000       140.3974      -999.2500        13.2570        43.5463      -999.2500        64.5191      -999.2500      -999.2500         2.4536         0.9892      -999.2500      -999.2500      -999.2500         0.6531         0.8207        72.2988      -999.2500      -999.2500         0.0188         2.1014     
 2587.0000       140.3896      -999.2500        13.2659        42.0618      -999.2500        64.7777      -999.2500      -999.2500         2.4492         0.9639      -999.2500      -999.2500      -999.2500         0.6236         0.7977        72.4209      -999.2500      -999.2500         0.0132         2.0987     
 2587.5000       141.2048      -999.2500        13.2716        39.5416      -999.2500        63.7339      -999.2500      -999.2500         2.4482         0.9478      -999.2500      -999.2500      -999.2500         0.6160         0.7805        72.4441      -999.2500      -999.2500         0.0092         2.0936     
 2588.0000       142.4112      -999.2500        13.2659        40.2819      -999.2500        61.0109      -999.2500      -999.2500         2.4479         0.9417      -999.2500      -999.2500      -999.2500         0.6034         0.7714        72.4347      -999.2500      -999.2500         0.0092         2.0883     
 2588.5000       143.5674      -999.2500        13.2570        41.6460      -999.2500        58.5120      -999.2500      -999.2500         2.4392         0.9457      -999.2500      -999.2500      -999.2500         0.5913         0.7701        72.4123      -999.2500      -999.2500         0.0147         2.0836     
