~Version Information Section
VERS.          2.0                                     : CWLS LOG ASCII Standard
WRAP.          NO                                      : One line per depth step
CREA.          23/02/15                                : LAS Creation Date
~Well Information Section
STRT.ft        600.0000                                : Start Depth
STOP.ft        6471.5000                               : Stop Depth
STEP.ft        0.5000                                  : Step
NULL.          -999.2500                               : Null Value
COMP.          AMERADA HESS LTD                        : Company
WELL.          15/21b-45                               : Well
FLD .          EXPLORATION                             : Field
LOC .          CENTRAL NORTH SEA                       : Location
LOC1.                                                  : Location (UTM)
CTRY.          UK                                      : Country
PROV.          UKCS                                    : Province
UWI .          15463                                   : UWI Number
API .                                                  : API Number
SECT.                                                  : Section
TOWN.                                                  : Township
RNGE.                                                  : Range
PDAT.          MSL                                     : Perm Datum
EPD .ft        0.00                                    : Elevation
LMF .          DF                                      : Log Measured From
DMF .          DF                                      : Drill Measured From
APD .ft        82.00                                   : Above Perm Datum
EKB .ft        -                                       : Elev-Kelly Bushing
EDF .ft        82.00                                   : Elev-Drill Floor
EGL .ft        -446.00                                 : Elev-Ground Level (Water Depth)
TDD .ft        6500.00                                 : Total Depth (Driller)
SRVC.          ATLAS WIRELINE                          : Service Company
LATI.          58 14 37.771 N                          : Latitude
LONG.          00 01 11.609 E                          : Longitude
DATE.          NOV-91-JAN-92                           : Logging Date
PROJ.          UKCS                                    : Project
SET .          COMP WIRE                               : Set
~Curve Information Section
DEPTH.ft                                               : Depth Curve
AC.us/ft                                               : Acoustic Travel Time
CAL.in                                                 : MLL Caliper
CALD.in                                                : ZDL Caliper
CNC.%                                                  : Compensated Neutron Porosity
GRD.gAPI                                               : ZDL Gamma Ray
GRL.gAPI                                               : DLL/DIFL Gamma Ray
K.                                                     : Potassium
KTH.gAPI                                               : Uranium Stripped Gamma Ray
PE.b/e                                                 : Photo-electric
RD.ohmm                                                : Deep Resistivity
RFOC.ohmm                                              : Logarithmic Resistivity from CFOC
RILD.ohmm                                              : Deep Induction Resistivity
RILM.ohmm                                              : Medium Induction Resistivity
RMLL.ohmm                                              : Microlaterolog Resistivity
RS.ohmm                                                : Shallow Resistivity
SP.mV                                                  : Spontaneous Potential
TH.ppm                                                 : Thorium
U.ppm                                                  : Uranium
ZCOR.g/cc                                              : ZDL Density Correction
ZDEN.g/cc                                              : ZDL Bulk Density
~ASCII Log Data Section
# ...
 1939.0000       124.5732      -999.2500        14.1251        61.9458      -999.2500       103.7638      -999.2500      -999.2500         5.4607         1.3756      -999.2500      -999.2500      -999.2500         0.9612         1.1025        70.3026      -999.2500      -999.2500         0.0141         2.3294     
 1939.5000       124.1606      -999.2500        14.1615        57.6952      -999.2500       104.1274      -999.2500      -999.2500         5.4588         1.3834      -999.2500      -999.2500      -999.2500         0.9741         1.1065        70.2372      -999.2500      -999.2500         0.0149         2.3371     
 1940.0000       123.6124      -999.2500        14.1986        54.1253      -999.2500       103.6475      -999.2500      -999.2500         5.5742         1.3984      -999.2500      -999.2500      -999.2500         1.0058         1.1150        70.4391      -999.2500      -999.2500         0.0097         2.3471     
 1940.5000       123.1264      -999.2500        14.2356        53.6376      -999.2500       103.7934      -999.2500      -999.2500         5.7992         1.4105      -999.2500      -999.2500      -999.2500         1.0411         1.1213        70.5658      -999.2500      -999.2500         0.0039         2.3563     
 1941.0000       122.8155      -999.2500        14.2721        52.1909      -999.2500       104.5940      -999.2500      -999.2500         5.8298         1.4167      -999.2500      -999.2500      -999.2500         1.0573         1.1228        70.5611      -999.2500      -999.2500         0.0037         2.3614     
 1941.5000       122.6580      -999.2500        14.3029        50.0858      -999.2500       104.8210      -999.2500      -999.2500         5.5611         1.4164      -999.2500      -999.2500      -999.2500         1.0588         1.1199        70.6506      -999.2500      -999.2500         0.0099         2.3613     
 1942.0000       122.6171      -999.2500        14.3276        49.5598      -999.2500       105.2354      -999.2500      -999.2500         5.2844         1.4090      -999.2500      -999.2500      -999.2500         1.0685         1.1132        70.8927      -999.2500      -999.2500         0.0186         2.3574     
 1942.5000       122.7042      -999.2500        14.3461        50.3034      -999.2500       106.4657      -999.2500      -999.2500         5.2235         1.3970      -999.2500      -999.2500      -999.2500         1.0810         1.1032        71.2223      -999.2500      -999.2500         0.0225         2.3519     
 1943.0000       122.9531      -999.2500        14.3590        49.9220      -999.2500       107.4965      -999.2500      -999.2500         5.3128         1.3791      -999.2500      -999.2500      -999.2500         1.0778         1.0900        71.5512      -999.2500      -999.2500         0.0215         2.3465     
 1943.5000       123.3961      -999.2500        14.3748        48.1116      -999.2500       107.0374      -999.2500      -999.2500         5.4666         1.3498      -999.2500      -999.2500      -999.2500         1.0536         1.0704        71.6707      -999.2500      -999.2500         0.0213         2.3407     
 1944.0000       124.0135      -999.2500        14.4034        46.8040      -999.2500       105.7646      -999.2500      -999.2500         5.5421         1.3057      -999.2500      -999.2500      -999.2500         1.0080         1.0407        71.5105      -999.2500      -999.2500         0.0245         2.3315     
 1944.5000       124.8503      -999.2500        14.4494        47.5056      -999.2500       104.2601      -999.2500      -999.2500         5.4841         1.2503      -999.2500      -999.2500      -999.2500         0.9078         1.0045        71.3623      -999.2500      -999.2500         0.0339         2.3168     
 1945.0000       125.9296      -999.2500        14.5150        49.6760      -999.2500       102.1902      -999.2500      -999.2500         5.3289         1.1998      -999.2500      -999.2500      -999.2500         0.7700         0.9729        71.4985      -999.2500      -999.2500         0.0515         2.2975     
 1945.5000       126.9993      -999.2500        14.6049        52.2627      -999.2500        99.8692      -999.2500      -999.2500         5.2087         1.1700      -999.2500      -999.2500      -999.2500         0.6987         0.9548        71.8599      -999.2500      -999.2500         0.0652         2.2782     
 1946.0000       127.7203      -999.2500        14.7256        54.4482      -999.2500        98.4830      -999.2500      -999.2500         5.1651         1.1665      -999.2500      -999.2500      -999.2500         0.7356         0.9543        72.2182      -999.2500      -999.2500         0.0607         2.2664     
 1946.5000       128.1685      -999.2500        14.8726        55.7798      -999.2500        98.1021      -999.2500      -999.2500         5.1131         1.1888      -999.2500      -999.2500      -999.2500         0.8024         0.9726        72.3216      -999.2500      -999.2500         0.0419         2.2668     
 1947.0000       129.2491      -999.2500        15.0285        56.6594      -999.2500        98.4853      -999.2500      -999.2500         5.0666         1.2230      -999.2500      -999.2500      -999.2500         0.7956         1.0002        72.0959      -999.2500      -999.2500         0.0257         2.2761     
 1947.5000       132.0226      -999.2500        15.1621        57.9015      -999.2500        98.3053      -999.2500      -999.2500         5.0386         1.2475      -999.2500      -999.2500      -999.2500         0.7837         1.0214        71.8672      -999.2500      -999.2500         0.0226         2.2864     
 1948.0000       134.5942      -999.2500        15.2255        59.9555      -999.2500        98.2047      -999.2500      -999.2500         5.0002         1.2588      -999.2500      -999.2500      -999.2500         0.8288         1.0325        71.9330      -999.2500      -999.2500         0.0325         2.2936     
 1948.5000       135.3974      -999.2500        15.2034        60.2777      -999.2500       100.6590      -999.2500      -999.2500         4.9785         1.2646      -999.2500      -999.2500      -999.2500         0.8962         1.0401        72.1106      -999.2500      -999.2500         0.0474         2.2977     
 1949.0000       137.6976      -999.2500        15.1555        57.6617      -999.2500       104.4720      -999.2500      -999.2500         4.9535         1.2611      -999.2500      -999.2500      -999.2500         0.9618         1.0430        72.1017      -999.2500      -999.2500         0.0503         2.2994     
 1949.5000       143.5287      -999.2500        15.0899        57.1652      -999.2500       104.7216      -999.2500      -999.2500         4.8455         1.2460      -999.2500      -999.2500      -999.2500         1.0128         1.0372        71.9372      -999.2500      -999.2500         0.0409         2.2995     
 1950.0000       148.9338      -999.2500        14.9657        59.9468      -999.2500       101.6510      -999.2500      -999.2500         4.7350         1.2259      -999.2500      -999.2500      -999.2500         0.9228         1.0244        71.7659      -999.2500      -999.2500         0.0444         2.2956     
 1950.5000       149.9018      -999.2500        14.8379        63.6979      -999.2500        98.3967      -999.2500      -999.2500         4.7017         1.1999      -999.2500      -999.2500      -999.2500         0.7540         1.0057        71.6915      -999.2500      -999.2500         0.0660         2.2850     
 1951.0000       145.7109      -999.2500        14.7714        64.8129      -999.2500        95.2099      -999.2500      -999.2500         4.6572         1.1636      -999.2500      -999.2500      -999.2500         0.6919         0.9811        71.8354      -999.2500      -999.2500         0.0712         2.2724     
 1951.5000       138.5532      -999.2500        14.7260        62.0354      -999.2500        91.0222      -999.2500      -999.2500         4.4664         1.1218      -999.2500      -999.2500      -999.2500         0.7348         0.9529        72.1836      -999.2500      -999.2500         0.0519         2.2658     
