~Version Information Section
VERS.          2.0                                     : CWLS LOG ASCII Standard
WRAP.          NO                                      : One line per depth step
CREA.          23/02/15                                : LAS Creation Date
~Well Information Section
STRT.ft        600.0000                                : Start Depth
STOP.ft        6471.5000                               : Stop Depth
STEP.ft        0.5000                                  : Step
NULL.          -999.2500                               : Null Value
COMP.          AMERADA HESS LTD                        : Company
WELL.          15/21b-45                               : Well
FLD .          EXPLORATION                             : Field
LOC .          CENTRAL NORTH SEA                       : Location
LOC1.                                                  : Location (UTM)
CTRY.          UK                                      : Country
PROV.          UKCS                                    : Province
UWI .          15463                                   : UWI Number
API .                                                  : API Number
SECT.                                                  : Section
TOWN.                                                  : Township
RNGE.                                                  : Range
PDAT.          MSL                                     : Perm Datum
EPD .ft        0.00                                    : Elevation
LMF .          DF                                      : Log Measured From
DMF .          DF                                      : Drill Measured From
APD .ft        82.00                                   : Above Perm Datum
EKB .ft        -                                       : Elev-Kelly Bushing
EDF .ft        82.00                                   : Elev-Drill Floor
EGL .ft        -446.00                                 : Elev-Ground Level (Water Depth)
TDD .ft        6500.00                                 : Total Depth (Driller)
SRVC.          ATLAS WIRELINE                          : Service Company
LATI.          58 14 37.771 N                          : Latitude
LONG.          00 01 11.609 E                          : Longitude
DATE.          NOV-91-JAN-92                           : Logging Date
PROJ.          UKCS                                    : Project
SET .          COMP WIRE                               : Set
~Curve Information Section
DEPTH.ft                                               : Depth Curve
AC.us/ft                                               : Acoustic Travel Time
CAL.in                                                 : MLL Caliper
CALD.in                                                : ZDL Caliper
CNC.%                                                  : Compensated Neutron Porosity
GRD.gAPI                                               : ZDL Gamma Ray
GRL.gAPI                                               : DLL/DIFL Gamma Ray
K.                                                     : Potassium
KTH.gAPI                                               : Uranium Stripped Gamma Ray
PE.b/e                                                 : Photo-electric
RD.ohmm                                                : Deep Resistivity
RFOC.ohmm                                              : Logarithmic Resistivity from CFOC
RILD.ohmm                                              : Deep Induction Resistivity
RILM.ohmm                                              : Medium Induction Resistivity
RMLL.ohmm                                              : Microlaterolog Resistivity
RS.ohmm                                                : Shallow Resistivity
SP.mV                                                  : Spontaneous Potential
TH.ppm                                                 : Thorium
U.ppm                                                  : Uranium
ZCOR.g/cc                                              : ZDL Density Correction
ZDEN.g/cc                                              : ZDL Bulk Density
~ASCII Log Data Section
# ...
 5774.0000        69.1945         8.7616         8.4644        15.7029        35.3393        31.5677         1.4436        33.7779         3.1208         1.6663      -999.2500      -999.2500      -999.2500         2.5264         1.6679        54.8997         0.9119         0.4597         0.0320         2.3900     
 5774.5000        73.6055         8.7710         8.4641        18.2661        36.1301        33.2235         1.3478        33.3489         2.9859         1.1896      -999.2500      -999.2500      -999.2500         1.8922         1.1956        54.9493         0.7263         0.7725         0.0344         2.3365     
 5775.0000        79.4404         8.7740         8.4699        20.7790        37.1223        35.0515         1.4176        34.4591         2.8536         0.9372      -999.2500      -999.2500      -999.2500         1.4531         0.9442        55.0068         0.9116         0.7559         0.0394         2.2939     
 5775.5000        85.0085         8.7749         8.5094        22.5633        37.9324        35.9254         1.5323        36.4319         2.7366         0.8073      -999.2500      -999.2500      -999.2500         1.1266         0.8137        55.0151         1.3379         0.4469         0.0415         2.2687     
 5776.0000        88.7456         8.7763         8.5746        23.6120        38.2595        35.2697         1.5308        37.5991         2.6356         0.7468      -999.2500      -999.2500      -999.2500         0.9318         0.7514        54.9793         1.4179         0.2970         0.0356         2.2574     
 5776.5000        90.4743         8.7793         8.6285        24.3708        37.8954        33.9688         1.4228        37.0035         2.5737         0.7246      -999.2500      -999.2500      -999.2500         0.8583         0.7289        54.9518         1.0900         0.3050         0.0258         2.2543     
 5777.0000        91.0451         8.7829         8.6127        24.8715        37.6871        33.5520         1.3669        36.0286         2.5637         0.7188      -999.2500      -999.2500      -999.2500         0.8620         0.7253        54.9683         1.0379         0.4373         0.0215         2.2557     
 5777.5000        91.3238         8.7847         8.5728        25.0063        39.1443        33.9590         1.4558        37.2405         2.5864         0.7160      -999.2500      -999.2500      -999.2500         0.8929         0.7264        55.0209         1.2674         0.5188         0.0245         2.2610     
 5778.0000        91.7145         8.7847         8.5620        25.2180        43.0227        35.2890         1.6282        41.1020         2.6278         0.7194      -999.2500      -999.2500      -999.2500         0.9275         0.7342        55.0552         1.5556         0.5331         0.0323         2.2758     
 5778.5000        92.2330         8.7849         8.5626        25.8660        48.8726        40.1332         1.7135        45.5233         2.6747         0.7626      -999.2500      -999.2500      -999.2500         0.9825         0.7782        55.0010         2.4450         0.8996         0.0433         2.3079     
 5779.0000        92.4993         8.7854         8.5625        26.6427        56.1041        49.8223         1.7051        50.1303         2.7627         0.9008      -999.2500      -999.2500      -999.2500         1.1538         0.9086        54.9078         3.9556         1.5017         0.0539         2.3508     
 5779.5000        91.9574         8.7866         8.5625        27.1864        62.5054        59.4033         1.7671        55.2278         2.9460         1.1598      -999.2500      -999.2500      -999.2500         1.5645         1.1533        54.9151         4.6735         1.7419         0.0543         2.3819     
 5780.0000        90.7399         8.7915         8.5634        27.3172        64.7121        62.9501         1.8383        57.6965         3.2140         1.3854      -999.2500      -999.2500      -999.2500         2.0074         1.3674        55.0142         3.8797         1.6395         0.0445         2.3840     
 5780.5000        89.2915         8.8046         8.5580        27.1413        62.0463        60.4158         1.7479        55.4640         3.4808         1.4168      -999.2500      -999.2500      -999.2500         1.8988         1.3991        55.0461         2.6862         1.4868         0.0402         2.3657     
 5781.0000        87.2985         8.8270         8.5148        25.7058        56.9524        56.8525         1.6019        51.2560         3.6731         1.4136      -999.2500      -999.2500      -999.2500         1.6443         1.3934        54.9927         2.2724         1.2695         0.0516         2.3590     
 5781.5000        84.0823         8.8522         8.5038        22.5002        52.5998        55.0979         1.5783        47.5820         3.8397         1.4911      -999.2500      -999.2500      -999.2500         1.5823         1.4518        54.9608         2.2477         1.1883         0.0722         2.3834     
 5782.0000        79.8304         8.8620         8.6432        19.2740        49.6421        53.8610         1.5314        43.7200         4.0644         1.6439      -999.2500      -999.2500      -999.2500         1.6397         1.5758        54.9758         1.9693         1.4722         0.0987         2.4197     
 5782.5000        75.4073         8.8431         8.8088        17.5441        45.9203        50.0393         1.3952        39.0895         4.2986         1.8457      -999.2500      -999.2500      -999.2500         1.7888         1.7467        55.0023         1.5241         1.7149         0.1210         2.4591     
 5783.0000        71.4252         8.8041         8.9041        16.6077        39.9496        43.4954         1.2915        34.0093         4.4915         2.0408      -999.2500      -999.2500      -999.2500         2.1182         1.9157        55.0191         0.9745         1.5652         0.1121         2.5062     
 5783.5000        68.2273         8.7672         8.9912        15.2072        34.7058        37.4464         1.2408        29.7615         4.6799         2.1859      -999.2500      -999.2500      -999.2500         2.6512         2.0435        55.0187         0.4331         1.4052         0.0688         2.5233     
 5784.0000        65.9041         8.7453         9.0066        13.4332        33.3495        34.3616         1.1825        27.9214         4.7860         2.3713      -999.2500      -999.2500      -999.2500         3.0272         2.1986        55.0117         0.0831         1.5491         0.0306         2.5141     
 5784.5000        64.3102         8.7378         8.8493        12.2606        34.8125        33.3045         1.1865        28.8306         4.7093         2.7382      -999.2500      -999.2500      -999.2500         3.2041         2.4844        55.0163         0.0422         1.6572         0.0229         2.5149     
 5785.0000        63.6304         8.7382         8.6889        12.1617        36.1126        33.0001         1.2959        31.5117         4.5376         3.0357      -999.2500      -999.2500      -999.2500         4.0139         2.6893        55.0276         0.4296         1.2889         0.0323         2.5186     
 5785.5000        64.6750         8.7409         8.6138        13.1375        36.0409        33.2397         1.3615        33.5490         4.3092         2.6138      -999.2500      -999.2500      -999.2500         4.8063         2.2864        55.0339         1.0754         0.7030         0.0394         2.4939     
 5786.0000        67.1176         8.7446         8.5735        15.0769        35.9815        33.9914         1.3560        34.8364         3.9203         1.8846      -999.2500      -999.2500      -999.2500         2.6476         1.6524        55.0373         1.5701         0.3146         0.0410         2.4317     
 5786.5000        69.9959         8.7489         8.5620        18.0133        37.1360        34.7304         1.3701        35.9646         3.4137         1.3667      -999.2500      -999.2500      -999.2500         1.3997         1.2093        55.0381         1.9352         0.3182         0.0426         2.3543     
