~Version Information Section
VERS.          2.0                                     : CWLS LOG ASCII Standard
WRAP.          NO                                      : One line per depth step
CREA.          23/02/15                                : LAS Creation Date
~Well Information Section
STRT.ft        600.0000                                : Start Depth
STOP.ft        6471.5000                               : Stop Depth
STEP.ft        0.5000                                  : Step
NULL.          -999.2500                               : Null Value
COMP.          AMERADA HESS LTD                        : Company
WELL.          15/21b-45                               : Well
FLD .          EXPLORATION                             : Field
LOC .          CENTRAL NORTH SEA                       : Location
LOC1.                                                  : Location (UTM)
CTRY.          UK                                      : Country
PROV.          UKCS                                    : Province
UWI .          15463                                   : UWI Number
API .                                                  : API Number
SECT.                                                  : Section
TOWN.                                                  : Township
RNGE.                                                  : Range
PDAT.          MSL                                     : Perm Datum
EPD .ft        0.00                                    : Elevation
LMF .          DF                                      : Log Measured From
DMF .          DF                                      : Drill Measured From
APD .ft        82.00                                   : Above Perm Datum
EKB .ft        -                                       : Elev-Kelly Bushing
EDF .ft        82.00                                   : Elev-Drill Floor
EGL .ft        -446.00                                 : Elev-Ground Level (Water Depth)
TDD .ft        6500.00                                 : Total Depth (Driller)
SRVC.          ATLAS WIRELINE                          : Service Company
LATI.          58 14 37.771 N                          : Latitude
LONG.          00 01 11.609 E                          : Longitude
DATE.          NOV-91-JAN-92                           : Logging Date
PROJ.          UKCS                                    : Project
SET .          COMP WIRE                               : Set
~Curve Information Section
DEPTH.ft                                               : Depth Curve
AC.us/ft                                               : Acoustic Travel Time
CAL.in                                                 : MLL Caliper
CALD.in                                                : ZDL Caliper
CNC.%                                                  : Compensated Neutron Porosity
GRD.gAPI                                               : ZDL Gamma Ray
GRL.gAPI                                               : DLL/DIFL Gamma Ray
K.                                                     : Potassium
KTH.gAPI                                               : Uranium Stripped Gamma Ray
PE.b/e                                                 : Photo-electric
RD.ohmm                                                : Deep Resistivity
RFOC.ohmm                                              : Logarithmic Resistivity from CFOC
RILD.ohmm                                              : Deep Induction Resistivity
RILM.ohmm                                              : Medium Induction Resistivity
RMLL.ohmm                                              : Microlaterolog Resistivity
RS.ohmm                                                : Shallow Resistivity
SP.mV                                                  : Spontaneous Potential
TH.ppm                                                 : Thorium
U.ppm                                                  : Uranium
ZCOR.g/cc                                              : ZDL Density Correction
ZDEN.g/cc                                              : ZDL Bulk Density
~ASCII Log Data Section
# ...
 4188.0000       115.7731         8.7287         8.6370        32.9239        41.6869        38.7014         1.5038        36.6088         2.9119         0.5266      -999.2500      -999.2500      -999.2500         0.5207         0.3826        52.1248         1.1248         1.4470         0.0075         2.0875     
 4188.5000       115.8045         8.7304         8.6609        33.1238        43.0251        40.4335         1.5152        37.3285         2.9039         0.5258      -999.2500      -999.2500      -999.2500         0.5048         0.3801        52.1041         0.7899         1.5887         0.0116         2.0871     
 4189.0000       115.2643         8.7305         8.6598        33.6704        42.6534        41.0269         1.5519        37.8886         2.8856         0.5288      -999.2500      -999.2500      -999.2500         0.5027         0.3820        52.1048         0.7284         1.3379         0.0100         2.0883     
 4189.5000       114.2312         8.7302         8.6602        34.0681        41.6101        40.5462         1.6018        38.6280         2.8941         0.5379      -999.2500      -999.2500      -999.2500         0.5177         0.3903        52.1374         0.9054         0.8513         0.0111         2.0941     
 4190.0000       113.0709         8.7315         8.6602        34.0473        41.4014        39.9584         1.6095        39.6186         2.9511         0.5483      -999.2500      -999.2500      -999.2500         0.5490         0.4004        52.1731         1.1574         0.5018         0.0170         2.1087     
 4190.5000       112.2455         8.7339         8.6602        33.5315        41.9666        39.5029         1.5884        40.1217         3.0702         0.5490      -999.2500      -999.2500      -999.2500         0.5782         0.4041        52.1775         1.4040         0.5096         0.0184         2.1270     
 4191.0000       112.3137         8.7350         8.6602        33.4693        42.1835        38.8260         1.5752        39.3064         3.2342         0.5395      -999.2500      -999.2500      -999.2500         0.5723         0.3995        52.1413         1.2711         0.8017         0.0116         2.1344     
 4191.5000       113.3831         8.7349         8.6602        34.1512        42.0107        37.4703         1.5533        37.9964         3.3147         0.5305      -999.2500      -999.2500      -999.2500         0.5386         0.3930        52.0814         0.7421         1.1253         0.0061         2.1248     
 4192.0000       114.8747         8.7348         8.6602        33.5178        42.2176        36.5213         1.4912        37.4847         3.2335         0.5272      -999.2500      -999.2500      -999.2500         0.5142         0.3896        52.0287         0.4729         1.2830         0.0083         2.1084     
 4192.5000       116.3997         8.7407         8.6598        31.4887        43.0482        37.0965         1.4487        38.4750         3.1053         0.5253      -999.2500      -999.2500      -999.2500         0.5024         0.3874        52.0036         0.8509         1.1865         0.0160         2.0971     
 4193.0000       118.0351         8.7636         8.6605        30.9281        43.5580        38.5279         1.4737        39.6646         3.0600         0.5202      -999.2500      -999.2500      -999.2500         0.4880         0.3839        51.9992         1.1876         1.0056         0.0217         2.0905     
 4193.5000       119.6628         8.7976         8.6374        32.5997        43.3499        39.7051         1.5060        39.8106         3.0633         0.5118      -999.2500      -999.2500      -999.2500         0.4752         0.3792        51.9992         1.3951         0.9356         0.0232         2.0837     
 4194.0000       120.9353         8.8190         8.6026        33.9054        43.3528        40.5078         1.5602        40.5325         3.0599         0.5025      -999.2500      -999.2500      -999.2500         0.4766         0.3742        52.0029         1.7346         0.7647         0.0223         2.0762     
 4194.5000       121.6951         8.8187         8.5715        34.4319        44.4549        40.8998         1.6513        42.6119         3.0532         0.4985      -999.2500      -999.2500      -999.2500         0.5011         0.3716        52.0147         1.9176         0.5041         0.0246         2.0694     
 4195.0000       121.9918         8.8086         8.5601        34.9629        45.8125        41.1697         1.6909        44.2167         3.0488         0.5071      -999.2500      -999.2500      -999.2500         0.5510         0.3751        52.0265         2.0045         0.4317         0.0321         2.0647     
 4195.5000       122.0144         8.7983         8.5860        35.5094        47.1664        41.5707         1.7075        45.3741         3.0333         0.5286      -999.2500      -999.2500      -999.2500         0.6104         0.3870        52.0478         2.6074         0.4828         0.0390         2.0643     
 4196.0000       121.9419         8.7858         8.5953        35.7497        48.8617        42.6640         1.7744        47.3489         2.9475         0.5513      -999.2500      -999.2500      -999.2500         0.6495         0.4017        52.0997         3.4341         0.4140         0.0364         2.0681     
 4196.5000       121.6531         8.7679         8.6267        35.5882        50.7503        43.9077         1.9108        49.2734         2.8252         0.5620      -999.2500      -999.2500      -999.2500         0.6594         0.4099        52.1516         3.2974         0.4141         0.0242         2.0706     
 4197.0000       120.7390         8.7499         8.6625        35.4633        51.8013        42.1014         2.0606        49.6842         2.7521         0.5589      -999.2500      -999.2500      -999.2500         0.6514         0.4087        52.1531         2.2291         0.6180         0.0125         2.0708     
 4197.5000       119.2064         8.7376         8.6598        35.1904        50.9952        37.2017         2.0978        48.2414         2.7413         0.5481      -999.2500      -999.2500      -999.2500         0.6263         0.4030        52.1140         1.4750         0.8279         0.0069         2.0755     
 4198.0000       117.6762         8.7275         8.6602        34.4044        47.5142        33.5922         1.8876        44.4487         2.7536         0.5380      -999.2500      -999.2500      -999.2500         0.5845         0.3980        52.0659         1.4180         0.9031         0.0032         2.0845     
 4198.5000       116.4660         8.7154         8.6602        33.1231        42.6059        33.0026         1.6056        39.8466         2.7848         0.5349      -999.2500      -999.2500      -999.2500         0.5450         0.3961        52.0060         1.3233         0.7749        -0.0014         2.0952     
 4199.0000       115.3013         8.7042         8.6602        31.3427        38.4540        33.1649         1.5021        37.2509         2.8248         0.5392      -999.2500      -999.2500      -999.2500         0.5319         0.3976        51.9668         1.3846         0.3491        -0.0021         2.0997     
 4199.5000       114.2992         8.6959         8.6602        30.2269        36.4869        33.1499         1.5409        36.4883         2.8254         0.5494      -999.2500      -999.2500      -999.2500         0.5571         0.4037        52.0058         2.2295         0.2864         0.0015         2.1019     
 4200.0000       113.9394         8.6908         8.6602        29.5952        36.7970        33.0918         1.6567        36.7969         2.8154         0.5618      -999.2500      -999.2500      -999.2500         0.5880         0.4117        52.0873         3.0232         0.2835         0.0061         2.1146     
 4200.5000       114.2787         8.6861         8.6598        29.0945        37.9273        33.6763         1.8131        37.9046         2.8752         0.5660      -999.2500      -999.2500      -999.2500         0.5730         0.4139        52.1279         2.9245         0.2897         0.0050         2.1306     
