~Version Information Section
VERS.          2.0                                     : CWLS LOG ASCII Standard
WRAP.          NO                                      : One line per depth step
CREA.          23/02/15                                : LAS Creation Date
~Well Information Section
STRT.ft        600.0000                                : Start Depth
STOP.ft        6471.5000                               : Stop Depth
STEP.ft        0.5000                                  : Step
NULL.          -999.2500                               : Null Value
COMP.          AMERADA HESS LTD                        : Company
WELL.          15/21b-45                               : Well
FLD .          EXPLORATION                             : Field
LOC .          CENTRAL NORTH SEA                       : Location
LOC1.                                                  : Location (UTM)
CTRY.          UK                                      : Country
PROV.          UKCS                                    : Province
UWI .          15463                                   : UWI Number
API .                                                  : API Number
SECT.                                                  : Section
TOWN.                                                  : Township
RNGE.                                                  : Range
PDAT.          MSL                                     : Perm Datum
EPD .ft        0.00                                    : Elevation
LMF .          DF                                      : Log Measured From
DMF .          DF                                      : Drill Measured From
APD .ft        82.00                                   : Above Perm Datum
EKB .ft        -                                       : Elev-Kelly Bushing
EDF .ft        82.00                                   : Elev-Drill Floor
EGL .ft        -446.00                                 : Elev-Ground Level (Water Depth)
TDD .ft        6500.00                                 : Total Depth (Driller)
SRVC.          ATLAS WIRELINE                          : Service Company
LATI.          58 14 37.771 N                          : Latitude
LONG.          00 01 11.609 E                          : Longitude
DATE.          NOV-91-JAN-92                           : Logging Date
PROJ.          UKCS                                    : Project
SET .          COMP WIRE                               : Set
~Curve Information Section
DEPTH.ft                                               : Depth Curve
AC.us/ft                                               : Acoustic Travel Time
CAL.in                                                 : MLL Caliper
CALD.in                                                : ZDL Caliper
CNC.%                                                  : Compensated Neutron Porosity
GRD.gAPI                                               : ZDL Gamma Ray
GRL.gAPI                                               : DLL/DIFL Gamma Ray
K.                                                     : Potassium
KTH.gAPI                                               : Uranium Stripped Gamma Ray
PE.b/e                                                 : Photo-electric
RD.ohmm                                                : Deep Resistivity
RFOC.ohmm                                              : Logarithmic Resistivity from CFOC
RILD.ohmm                                              : Deep Induction Resistivity
RILM.ohmm                                              : Medium Induction Resistivity
RMLL.ohmm                                              : Microlaterolog Resistivity
RS.ohmm                                                : Shallow Resistivity
SP.mV                                                  : Spontaneous Potential
TH.ppm                                                 : Thorium
U.ppm                                                  : Uranium
ZCOR.g/cc                                              : ZDL Density Correction
ZDEN.g/cc                                              : ZDL Bulk Density
~ASCII Log Data Section
# ...
 6437.0000        96.5652      -999.2500         6.4119        36.2916       132.5188       132.5188         2.6138        98.1330         5.9912      -999.2500         3.1819         3.1932         3.4259      -999.2500      -999.2500        84.4752         9.8878         6.9741         0.1851         2.4279     
 6437.5000        98.1823      -999.2500         6.4276        36.6729       130.8806       130.8806         2.4378        92.8226         5.9214      -999.2500         3.1675         3.0525         3.2147      -999.2500      -999.2500        84.4568         9.1768         7.6083         0.1857         2.4484     
 6438.0000        99.3535      -999.2500         6.4040        36.1664       129.5656       129.5656         2.4868        92.8913         5.6215      -999.2500         3.0401         2.9524         2.9642      -999.2500      -999.2500        84.4398         8.2591         7.3419         0.1616         2.4683     
 6438.5000        99.6799      -999.2500         6.3486        35.2373       129.5859       129.5859         2.6743        96.3568         5.3302      -999.2500         2.8672         2.8760         2.7918      -999.2500      -999.2500        84.5517         7.7020         6.7775         0.1409         2.4600     
 6439.0000        99.7364      -999.2500         6.3142        35.6613       130.8867       130.8867         2.6426        95.2631         5.2280      -999.2500         2.7307         2.8046         2.7686      -999.2500      -999.2500        84.6922         7.6333         7.2640         0.1255         2.4167     
 6439.5000       100.2770      -999.2500         6.3416        37.8710       132.9025       132.9025         2.4610        90.6424         5.4559      -999.2500         2.6722         2.7422         2.8764      -999.2500      -999.2500        84.6785         7.7539         8.5237         0.1215         2.3662     
 6440.0000       101.3432      -999.2500         6.3412        39.4361       135.6194       135.6194         2.3543        88.5032         6.0454      -999.2500         2.7249         2.7110         3.0111      -999.2500      -999.2500        84.4497         7.8220         9.3761         0.1528         2.3429     
 6440.5000       102.0449      -999.2500         6.3160        40.5379       138.9883       138.9883         2.3978        89.8003         6.7273      -999.2500         2.8817         2.7395         3.0971      -999.2500      -999.2500        84.0222         7.4988         9.7488         0.1963         2.3463     
 6441.0000       101.7286      -999.2500         6.3147        41.5620       141.3407       141.3407         2.4368        89.3659         7.1633      -999.2500         3.0435         2.8758         3.2343      -999.2500      -999.2500        83.5236         6.8990        10.3931         0.2070         2.3507     
 6441.5000       100.9026      -999.2500         6.3456        40.3826       140.9088       140.9088         2.2341        84.3904         7.2694      -999.2500         3.0995         3.1893         3.6831      -999.2500      -999.2500        83.2342         6.8516        11.0783         0.2010         2.3696     
 6442.0000        99.7772      -999.2500         6.4279        34.5661       140.1053       140.1053         2.0569        83.6509         7.1666      -999.2500         3.1549         3.7554         4.7717      -999.2500      -999.2500        83.3643         8.0755        10.6289         0.2160         2.3839     
 6442.5000        97.8665      -999.2500         6.6431        29.0592       141.1666       141.1666         2.3959        94.5117         6.9309      -999.2500         3.5710         4.6024         6.7279      -999.2500      -999.2500        83.8612         9.6163         9.0827         0.2318         2.3904     
 6443.0000        95.6383      -999.2500         6.8022        23.5853       139.4942       139.4942         2.8066       100.9841         6.6897      -999.2500         4.9249         5.6771         9.0657      -999.2500      -999.2500        84.4648         9.6364         8.0417         0.2260         2.4194     
 6443.5000        94.2742      -999.2500         6.6338        16.2213       127.1516       127.1516         2.5053        88.6253         6.4387      -999.2500         7.8653         6.7092        10.2281      -999.2500      -999.2500        84.8227         7.7469         8.0651         0.2106         2.4824     
 6444.0000        93.8945      -999.2500         6.3710        11.1303       104.6547       104.6547         1.6893        63.4231         5.8733      -999.2500        11.3082         7.1666         9.2924      -999.2500      -999.2500        84.8232         5.2442         8.1333         0.1822         2.5488     
 6444.5000      -999.2500      -999.2500         6.3105         9.0263        79.3572        79.3572      -999.2500        37.0813         4.9233      -999.2500        11.6214         6.7555         6.8807      -999.2500      -999.2500        84.6052         3.2639         7.7590         0.1273         2.5913     
 6445.0000      -999.2500      -999.2500         6.3191         8.4962        58.8143        58.8143      -999.2500        15.9332         4.0537      -999.2500         8.3784         5.8922         4.6231      -999.2500      -999.2500        84.3147         1.8012         7.3151         0.0779         2.6156     
 6445.5000      -999.2500      -999.2500         6.2820         9.4549        47.6447        47.6447      -999.2500      -999.2500         3.5851      -999.2500         4.7221         5.0626         3.3392      -999.2500      -999.2500        84.0749         0.9156         6.9824         0.0662         2.6227     
 6446.0000      -999.2500      -999.2500         6.2522        12.5181      -999.2500      -999.2500      -999.2500      -999.2500         3.4085      -999.2500         2.7680         4.3499         2.8394      -999.2500      -999.2500        84.0761      -999.2500      -999.2500         0.0849         2.5741     
 6446.5000      -999.2500      -999.2500         6.3707        17.4983      -999.2500      -999.2500      -999.2500      -999.2500         3.3436      -999.2500         2.0557         3.7327         2.7344      -999.2500      -999.2500        84.3073      -999.2500      -999.2500         0.1387         2.4764     
 6447.0000      -999.2500      -999.2500         6.6739        23.4872      -999.2500      -999.2500      -999.2500      -999.2500         3.7059      -999.2500         1.9161         3.2327         2.7496      -999.2500      -999.2500        84.4767      -999.2500      -999.2500         0.2004         2.3902     
 6447.5000      -999.2500      -999.2500         6.9038        30.9496      -999.2500      -999.2500      -999.2500      -999.2500         4.6477      -999.2500         2.0033         2.8349         2.7820      -999.2500      -999.2500        84.3346      -999.2500      -999.2500         0.2101         2.3428     
 6448.0000      -999.2500      -999.2500         6.9070        39.2536      -999.2500      -999.2500      -999.2500      -999.2500         5.6468      -999.2500         2.1733         2.5180         2.8112      -999.2500      -999.2500        83.9886      -999.2500      -999.2500         0.1766         2.3389     
 6448.5000      -999.2500      -999.2500         6.8123        45.1221      -999.2500      -999.2500      -999.2500      -999.2500         6.2738      -999.2500         2.4277         2.3099         2.7689      -999.2500      -999.2500        83.7733      -999.2500      -999.2500         0.1891         2.3383     
 6449.0000      -999.2500      -999.2500         6.7160        47.7129      -999.2500      -999.2500      -999.2500      -999.2500         6.6598      -999.2500         2.7236         2.2245         2.6245      -999.2500      -999.2500        83.8495      -999.2500      -999.2500         0.2692         2.3310     
 6449.5000      -999.2500      -999.2500         6.6418      -999.2500      -999.2500      -999.2500      -999.2500      -999.2500         6.8041      -999.2500         2.8544         2.2485         2.4765      -999.2500      -999.2500        84.1582      -999.2500      -999.2500         0.3135         2.3286     
