~Version Information Section
VERS.          2.0                                     : CWLS LOG ASCII Standard
WRAP.          NO                                      : One line per depth step
CREA.          23/02/15                                : LAS Creation Date
~Well Information Section
STRT.ft        600.0000                                : Start Depth
STOP.ft        6471.5000                               : Stop Depth
STEP.ft        0.5000                                  : Step
NULL.          -999.2500                               : Null Value
COMP.          AMERADA HESS LTD                        : Company
WELL.          15/21b-45                               : Well
FLD .          EXPLORATION                             : Field
LOC .          CENTRAL NORTH SEA                       : Location
LOC1.                                                  : Location (UTM)
CTRY.          UK                                      : Country
PROV.          UKCS                                    : Province
UWI .          15463                                   : UWI Number
API .                                                  : API Number
SECT.                                                  : Section
TOWN.                                                  : Township
RNGE.                                                  : Range
PDAT.          MSL                                     : Perm Datum
EPD .ft        0.00                                    : Elevation
LMF .          DF                                      : Log Measured From
DMF .          DF                                      : Drill Measured From
APD .ft        82.00                                   : Above Perm Datum
EKB .ft        -                                       : Elev-Kelly Bushing
EDF .ft        82.00                                   : Elev-Drill Floor
EGL .ft        -446.00                                 : Elev-Ground Level (Water Depth)
TDD .ft        6500.00                                 : Total Depth (Driller)
SRVC.          ATLAS WIRELINE                          : Service Company
LATI.          58 14 37.771 N                          : Latitude
LONG.          00 01 11.609 E                          : Longitude
DATE.          NOV-91-JAN-92                           : Logging Date
PROJ.          UKCS                                    : Project
SET .          COMP WIRE                               : Set
~Curve Information Section
DEPTH.ft                                               : Depth Curve
AC.us/ft                                               : Acoustic Travel Time
CAL.in                                                 : MLL Caliper
CALD.in                                                : ZDL Caliper
CNC.%                                                  : Compensated Neutron Porosity
GRD.gAPI                                               : ZDL Gamma Ray
GRL.gAPI                                               : DLL/DIFL Gamma Ray
K.                                                     : Potassium
KTH.gAPI                                               : Uranium Stripped Gamma Ray
PE.b/e                                                 : Photo-electric
RD.ohmm                                                : Deep Resistivity
RFOC.ohmm                                              : Logarithmic Resistivity from CFOC
RILD.ohmm                                              : Deep Induction Resistivity
RILM.ohmm                                              : Medium Induction Resistivity
RMLL.ohmm                                              : Microlaterolog Resistivity
RS.ohmm                                                : Shallow Resistivity
SP.mV                                                  : Spontaneous Potential
TH.ppm                                                 : Thorium
U.ppm                                                  : Uranium
ZCOR.g/cc                                              : ZDL Density Correction
ZDEN.g/cc                                              : ZDL Bulk Density
~ASCII Log Data Section
# ...
 3213.0000       151.3708      -999.2500        15.0024        69.1013      -999.2500        74.8539      -999.2500      -999.2500         2.2496         0.5937      -999.2500      -999.2500      -999.2500         0.3286         0.3956        68.0585      -999.2500      -999.2500         0.1552         1.9667     
 3213.5000       153.1412      -999.2500        15.0920        74.2122      -999.2500        70.1364      -999.2500      -999.2500         1.9507         0.6770      -999.2500      -999.2500      -999.2500         0.3195         0.4520        67.4874      -999.2500      -999.2500         0.1280         1.8031     
 3214.0000       154.1639      -999.2500        15.3383       101.0556      -999.2500        64.2290      -999.2500      -999.2500         1.7659         0.8644      -999.2500      -999.2500      -999.2500         0.4039         0.5717        67.1195      -999.2500      -999.2500         0.0506         1.5634     
 3214.5000       154.4937      -999.2500        15.3219       105.2309      -999.2500        56.7962      -999.2500      -999.2500         1.6068         1.2044      -999.2500      -999.2500      -999.2500         0.5956         0.7918        66.8343      -999.2500      -999.2500        -0.0155         1.3659     
 3215.0000       155.1683      -999.2500        14.7495        79.9434      -999.2500        49.4550      -999.2500      -999.2500         1.5142         1.6112      -999.2500      -999.2500      -999.2500         0.7339         1.0908        66.5615      -999.2500      -999.2500        -0.0467         1.2677     
 3215.5000       156.6968      -999.2500        14.0289        75.6796      -999.2500        44.1754      -999.2500      -999.2500         1.6219         1.7754      -999.2500      -999.2500      -999.2500         0.7584         1.2837        66.3637      -999.2500      -999.2500        -0.0573         1.2380     
 3216.0000       158.2870      -999.2500        13.7007       102.4003      -999.2500        42.0377      -999.2500      -999.2500         1.8126         1.6446      -999.2500      -999.2500      -999.2500         0.8392         1.2568        66.1644      -999.2500      -999.2500        -0.0627         1.2284     
 3216.5000       158.9584      -999.2500        13.6878       147.2009      -999.2500        41.6599      -999.2500      -999.2500         1.8635         1.4664      -999.2500      -999.2500      -999.2500         0.9206         1.1549        65.8107      -999.2500      -999.2500        -0.0698         1.2197     
 3217.0000       158.3826      -999.2500        13.6760       149.8196      -999.2500        40.3425      -999.2500      -999.2500         1.8153         1.3578      -999.2500      -999.2500      -999.2500         1.0033         1.0896        65.4391      -999.2500      -999.2500        -0.0718         1.2104     
 3217.5000       156.9839      -999.2500        13.6148       119.8866      -999.2500        37.3651      -999.2500      -999.2500         1.7556         1.3140      -999.2500      -999.2500      -999.2500         1.1487         1.0732        65.3152      -999.2500      -999.2500        -0.0674         1.2000     
 3218.0000       155.6442      -999.2500        13.5562       103.3647      -999.2500        34.9515      -999.2500      -999.2500         1.6958         1.2889      -999.2500      -999.2500      -999.2500         1.3858         1.0751        65.3871      -999.2500      -999.2500        -0.0636         1.1886     
 3218.5000       155.0702      -999.2500        13.5167       106.6393      -999.2500        34.0441      -999.2500      -999.2500         1.6612         1.2376      -999.2500      -999.2500      -999.2500         1.4370         1.0576        65.4411      -999.2500      -999.2500        -0.0640         1.1812     
 3219.0000       155.2392      -999.2500        13.4975       115.4421      -999.2500        33.4731      -999.2500      -999.2500         1.6519         1.1461      -999.2500      -999.2500      -999.2500         1.3082         1.0043        65.4257      -999.2500      -999.2500        -0.0670         1.1854     
 3219.5000       155.6833      -999.2500        13.5116       116.6620      -999.2500        32.8279      -999.2500      -999.2500         1.6683         1.0473      -999.2500      -999.2500      -999.2500         1.1461         0.9371        65.2933      -999.2500      -999.2500        -0.0732         1.2063     
 3220.0000       156.0978      -999.2500        13.5291       114.0083      -999.2500        32.8805      -999.2500      -999.2500         1.7875         0.9803      -999.2500      -999.2500      -999.2500         1.0168         0.8881        65.0393      -999.2500      -999.2500        -0.0772         1.2377     
 3220.5000       156.5401      -999.2500        13.5061       111.9784      -999.2500        33.7795      -999.2500      -999.2500         2.0398         0.9572      -999.2500      -999.2500      -999.2500         0.9352         0.8705        64.8990      -999.2500      -999.2500        -0.0719         1.2707     
 3221.0000       157.0404      -999.2500        13.4735       100.1657      -999.2500        35.7628      -999.2500      -999.2500         2.2681         0.9712      -999.2500      -999.2500      -999.2500         0.8269         0.8819        65.0473      -999.2500      -999.2500        -0.0573         1.3068     
 3221.5000       157.1546      -999.2500        13.5173        82.1205      -999.2500        38.0855      -999.2500      -999.2500         2.3006         1.0036      -999.2500      -999.2500      -999.2500         0.6807         0.9068        65.3170      -999.2500      -999.2500        -0.0423         1.3554     
 3222.0000       156.4091      -999.2500        13.6875        81.3853      -999.2500        38.8871      -999.2500      -999.2500         2.1855         1.0255      -999.2500      -999.2500      -999.2500         0.6681         0.9200        65.5247      -999.2500      -999.2500        -0.0212         1.4166     
 3222.5000       154.7920      -999.2500        13.8262        94.9555      -999.2500        38.1204      -999.2500      -999.2500         2.0075         1.0099      -999.2500      -999.2500      -999.2500         0.9106         0.9008        65.7354      -999.2500      -999.2500         0.0013         1.4401     
 3223.0000       152.5533      -999.2500        13.7688       103.0135      -999.2500        37.4220      -999.2500      -999.2500         1.7390         0.9377      -999.2500      -999.2500      -999.2500         1.3995         0.8373        66.0541      -999.2500      -999.2500        -0.0075         1.3781     
 3223.5000       150.2844      -999.2500        13.6120       100.2127      -999.2500        38.2413      -999.2500      -999.2500         1.4932         0.7989      -999.2500      -999.2500      -999.2500         1.2349         0.7213        66.4636      -999.2500      -999.2500        -0.0429         1.2855     
 3224.0000       148.7179      -999.2500        13.5380        85.2574      -999.2500        40.9604      -999.2500      -999.2500         1.4949         0.6306      -999.2500      -999.2500      -999.2500         0.8259         0.5790        66.9211      -999.2500      -999.2500        -0.0777         1.2530     
 3224.5000       147.8582      -999.2500        13.5621        65.9130      -999.2500        44.0159      -999.2500      -999.2500         1.8182         0.4962      -999.2500      -999.2500      -999.2500         0.5715         0.4624        67.2722      -999.2500      -999.2500        -0.0917         1.3222     
 3225.0000       147.0116      -999.2500        13.6622        54.5165      -999.2500        46.5746      -999.2500      -999.2500         2.3317         0.4154      -999.2500      -999.2500      -999.2500         0.4351         0.3884        67.3106      -999.2500      -999.2500        -0.0779         1.4860     
 3225.5000       145.5754      -999.2500        13.7628        49.0122      -999.2500        48.7366      -999.2500      -999.2500         2.7833         0.3790      -999.2500      -999.2500      -999.2500         0.3773         0.3491        67.1514      -999.2500      -999.2500        -0.0359         1.7014     
