~Version Information Section
VERS.          2.0                                     : CWLS LOG ASCII Standard
WRAP.          NO                                      : One line per depth step
CREA.          23/02/15                                : LAS Creation Date
~Well Information Section
STRT.ft        600.0000                                : Start Depth
STOP.ft        6471.5000                               : Stop Depth
STEP.ft        0.5000                                  : Step
NULL.          -999.2500                               : Null Value
COMP.          AMERADA HESS LTD                        : Company
WELL.          15/21b-45                               : Well
FLD .          EXPLORATION                             : Field
LOC .          CENTRAL NORTH SEA                       : Location
LOC1.                                                  : Location (UTM)
CTRY.          UK                                      : Country
PROV.          UKCS                                    : Province
UWI .          15463                                   : UWI Number
API .                                                  : API Number
SECT.                                                  : Section
TOWN.                                                  : Township
RNGE.                                                  : Range
PDAT.          MSL                                     : Perm Datum
EPD .ft        0.00                                    : Elevation
LMF .          DF                                      : Log Measured From
DMF .          DF                                      : Drill Measured From
APD .ft        82.00                                   : Above Perm Datum
EKB .ft        -                                       : Elev-Kelly Bushing
EDF .ft        82.00                                   : Elev-Drill Floor
EGL .ft        -446.00                                 : Elev-Ground Level (Water Depth)
TDD .ft        6500.00                                 : Total Depth (Driller)
SRVC.          ATLAS WIRELINE                          : Service Company
LATI.          58 14 37.771 N                          : Latitude
LONG.          00 01 11.609 E                          : Longitude
DATE.          NOV-91-JAN-92                           : Logging Date
PROJ.          UKCS                                    : Project
SET .          COMP WIRE                               : Set
~Curve Information Section
DEPTH.ft                                               : Depth Curve
AC.us/ft                                               : Acoustic Travel Time
CAL.in                                                 : MLL Caliper
CALD.in                                                : ZDL Caliper
CNC.%                                                  : Compensated Neutron Porosity
GRD.gAPI                                               : ZDL Gamma Ray
GRL.gAPI                                               : DLL/DIFL Gamma Ray
K.                                                     : Potassium
KTH.gAPI                                               : Uranium Stripped Gamma Ray
PE.b/e                                                 : Photo-electric
RD.ohmm                                                : Deep Resistivity
RFOC.ohmm                                              : Logarithmic Resistivity from CFOC
RILD.ohmm                                              : Deep Induction Resistivity
RILM.ohmm                                              : Medium Induction Resistivity
RMLL.ohmm                                              : Microlaterolog Resistivity
RS.ohmm                                                : Shallow Resistivity
SP.mV                                                  : Spontaneous Potential
TH.ppm                                                 : Thorium
U.ppm                                                  : Uranium
ZCOR.g/cc                                              : ZDL Density Correction
ZDEN.g/cc                                              : ZDL Bulk Density
~ASCII Log Data Section
# ...
 5462.0000       102.6039         8.6332         8.5435        30.4442        47.7458        44.1117         1.6707        44.9911         2.3516         0.6471      -999.2500      -999.2500      -999.2500         0.6379         0.4808        52.8916         1.8920         0.7201         0.0237         2.1650     
 5462.5000       102.5058         8.6388         8.4914        30.7975        47.6318        44.2552         1.6959        44.8549         2.4530         0.6602      -999.2500      -999.2500      -999.2500         0.6515         0.4859        53.0006         1.6942         0.7356         0.0313         2.1638     
 5463.0000       102.5535         8.6479         8.4657        31.1130        47.8803        44.5560         1.7778        45.8355         2.5667         0.6735      -999.2500      -999.2500      -999.2500         0.6700         0.4919        52.9990         1.8962         0.5560         0.0407         2.1647     
 5463.5000       102.7649         8.6536         8.4694        31.1798        48.2627        45.3492         1.8463        46.9750         2.5844         0.6811      -999.2500      -999.2500      -999.2500         0.6927         0.4960        52.9366         2.1827         0.3569         0.0443         2.1672     
 5464.0000       103.1132         8.6557         8.5121        31.0966        48.9169        46.7483         1.9055        47.3169         2.5053         0.6827      -999.2500      -999.2500      -999.2500         0.7092         0.4960        52.9329         2.0232         0.4538         0.0394         2.1709     
 5464.5000       103.5441         8.6667         8.5541        31.1583        49.5146        47.3566         1.8912        46.4690         2.4419         0.6773      -999.2500      -999.2500      -999.2500         0.7127         0.4909        52.9826         1.6063         0.8628         0.0295         2.1732     
 5465.0000       103.9511         8.6887         8.5638        31.3025        49.7452        46.7243         1.8017        45.5272         2.4290         0.6649      -999.2500      -999.2500      -999.2500         0.7067         0.4820        53.0225         1.3668         1.1560         0.0202         2.1706     
 5465.5000       104.2266         8.7069         8.5580        31.4535        49.3955        45.3580         1.7709        45.6743         2.4413         0.6477      -999.2500      -999.2500      -999.2500         0.7008         0.4721        53.0181         1.2765         1.0006         0.0178         2.1620     
 5466.0000       104.3282         8.7133         8.5078        31.7731        48.6410        43.6182         1.8281        46.1361         2.4953         0.6326      -999.2500      -999.2500      -999.2500         0.6945         0.4645        52.9664         1.1454         0.6828         0.0247         2.1515     
 5466.5000       104.2184         8.7136         8.4226        31.5356        48.6665        42.0642         1.9222        46.7918         2.5924         0.6236      -999.2500      -999.2500      -999.2500         0.6783         0.4612        52.8783         1.1164         0.5297         0.0339         2.1450     
 5467.0000       103.9394         8.7133         8.3715        30.7365        49.9683        41.2391         2.0092        48.1608         2.6634         0.6200      -999.2500      -999.2500      -999.2500         0.6610         0.4623        52.7998         1.3805         0.5214         0.0391         2.1451     
 5467.5000       103.6840         8.7133         8.3968        30.1755        50.9898        41.2095         2.0195        48.8529         2.6644         0.6228      -999.2500      -999.2500      -999.2500         0.6664         0.4667        52.8013         1.7881         0.6159         0.0405         2.1493     
 5468.0000       103.5829         8.7137         8.4945        29.8918        50.5167        42.7254         1.9509        47.6738         2.6284         0.6310      -999.2500      -999.2500      -999.2500         0.7002         0.4729        52.9124         1.8815         0.8138         0.0369         2.1534     
 5468.5000       103.6122         8.7134         8.5557        29.9876        49.8156        45.9995         1.9194        46.8586         2.5892         0.6375      -999.2500      -999.2500      -999.2500         0.7392         0.4788        53.0471         1.5917         0.8431         0.0303         2.1558     
 5469.0000       103.5901         8.7121         8.5630        30.5643        50.2881        48.7269         1.9281        47.8823         2.5713         0.6375      -999.2500      -999.2500      -999.2500         0.7422         0.4830        53.1027         1.1955         0.6698         0.0318         2.1558     
 5469.5000       103.3441         8.7108         8.5624        31.3342        51.7128        49.1236         1.9115        49.5756         2.5994         0.6342      -999.2500      -999.2500      -999.2500         0.7156         0.4862        53.0543         1.0304         0.5673         0.0442         2.1539     
 5470.0000       103.0372         8.7105         8.5625        31.6632        52.8938        48.2556         1.9564        50.5624         2.6619         0.6295      -999.2500      -999.2500      -999.2500         0.7080         0.4901        52.9468         1.0878         0.6213         0.0570         2.1529     
 5470.5000       103.0117         8.7114         8.5625        31.3778        52.8161        47.0516         2.0836        50.2472         2.6994         0.6238      -999.2500      -999.2500      -999.2500         0.7226         0.4954        52.8677         1.1411         0.7339         0.0598         2.1544     
 5471.0000       103.3448         8.7139         8.5625        30.8378        51.6875        45.6272         2.1638        49.0994         2.6679         0.6165      -999.2500      -999.2500      -999.2500         0.7264         0.5020        52.8921         1.2947         0.7867         0.0494         2.1564     
 5471.5000       103.8838         8.7199         8.5625        30.4677        50.6165        45.0155         2.1287        47.9661         2.5886         0.6069      -999.2500      -999.2500      -999.2500         0.7083         0.5090        52.9952         1.4718         0.8139         0.0341         2.1570     
 5472.0000       104.4095         8.7319         8.5625        30.4618        49.9720        45.7690         2.0772        46.9958         2.5541         0.5985      -999.2500      -999.2500      -999.2500         0.6775         0.5160        53.0833         1.2340         0.9063         0.0300         2.1567     
 5472.5000       104.6848         8.7582         8.5625        30.8836        49.5450        45.6599         2.0614        46.6289         2.5510         0.5976      -999.2500      -999.2500      -999.2500         0.6709         0.5247        53.1002         1.0160         0.8847         0.0388         2.1554     
 5473.0000       104.7191         8.7970         8.5625        31.6779        49.4869        43.9547         2.0463        47.5298         2.5479         0.6037      -999.2500      -999.2500      -999.2500         0.7100         0.5357        53.0522         1.5233         0.5857         0.0467         2.1532     
 5473.5000       104.7686         8.8271         8.5628        32.5559        49.8340        43.1777         2.0312        48.7095         2.5450         0.6088      -999.2500      -999.2500      -999.2500         0.7410         0.5450        52.9715         2.0973         0.3437         0.0491         2.1506     
 5474.0000       104.9937         8.8267         8.5608        33.0655        50.0124        44.0819         2.0653        48.6203         2.5388         0.6072      -999.2500      -999.2500      -999.2500         0.6996         0.5479        52.8826         1.7811         0.4165         0.0521         2.1478     
 5474.5000       105.3161         8.7960         8.5908        32.6924        49.8278        44.4567         2.1406        47.5897         2.5301         0.5969      -999.2500      -999.2500      -999.2500         0.6362         0.5419        52.8112         0.9406         0.6915         0.0538         2.1450     
