~Version Information Section
VERS.          2.0                                     : CWLS LOG ASCII Standard
WRAP.          NO                                      : One line per depth step
CREA.          18/09/15                                : LAS Creation Date
~Well Information Section
STRT.m         811.6824                                : Start Depth
STOP.m         2310.6888                               : Stop Depth
STEP.m         0.1524                                  : Step
NULL.          -999.2500                               : Null Value
COMP.          BP PET DEV                              : Company
WELL.          15/13a-4Z                               : Well
FLD .          EXPLORATION                             : Field
LOC .          NORTH SEA                               : Location
LOC1.          358107.875mE 6493463.000mN              : Location (UTM)
CTRY.          UK                                      : Country
PROV.          UKCS                                    : Province
UWI .          18761                                   : UWI Number
API .                                                  : API Number
SECT.                                                  : Section
TOWN.                                                  : Township
RNGE.                                                  : Range
PDAT.          MSL                                     : Perm Datum
EPD .m         0.00                                    : Elevation
LMF .          DF                                      : Log Measured From
DMF .          DF                                      : Drill Measured From
APD .m         25.00                                   : Above Perm Datum
EKB .m         25.30                                   : Elev-Kelly Bushing
EDF .m         25.00                                   : Elev-Drill Floor
EGL .m         -147.00                                 : Elev-Ground Level (Water Depth)
TDD .m         2329.00                                 : Total Depth (Driller)
SRVC.          SCHLUMBERGER                            : Service Company
LATI.          58 33 25.58 N                           : Latitude
LONG.          00 33 40.64 E                           : Longitude
DATE.          04-19-AUG-1987                          : Logging Date
PROJ.          UKCS                                    : Project
SET .          COMP WIRE                               : Set
~Curve Information Section
DEPTH.m                                                : Depth Curve
CALI.in                                                : Caliper
DT.us/ft                                               : Delta-T
GR.gAPI                                                : Gamma Ray
ILD.ohmm                                               : Deep Induction Standard Processed Resistivity
ILM.ohmm                                               : Medium Induction Standard Processed Resistivity
~ASCII Log Data Section
# ...
 1790.7000        12.1484       125.6005        47.7775         0.5795         0.5957     
 1790.8524        12.0763       130.2985        54.1331         0.6083         0.6055     
 1791.0048        12.2601       132.9427        60.6020         0.6140         0.6061     
 1791.1572        12.2567       132.4763        61.7041         0.5819         0.5977     
 1791.3096        12.4609       131.4811        55.2271         0.5342         0.5790     
 1791.4620        12.3607       129.2772        45.9361         0.4986         0.5489     
 1791.6144        12.1666       126.8320        37.1252         0.4482         0.5074     
 1791.7668        12.2223       122.3711        32.7327         0.4070         0.4705     
 1791.9192        12.1590       118.3966        30.4740         0.3821         0.4381     
 1792.0716        12.1280       114.7382        30.1311         0.3573         0.4163     
 1792.2240        12.1399       111.6825        31.3377         0.3355         0.3994     
 1792.3764        12.3260       111.8150        32.7685         0.3197         0.3924     
 1792.5288        12.3459       113.3581        33.9038         0.3103         0.3903     
 1792.6812        12.5987       113.5620        35.0713         0.3052         0.3875     
 1792.8336        12.8326       113.4505        34.5365         0.3026         0.3829     
 1792.9860        12.9756       112.9438        35.6099         0.3032         0.3784     
 1793.1384        12.8544       113.0958        33.5772         0.3056         0.3739     
 1793.2908        12.7466       113.3460        32.2286         0.3069         0.3732     
 1793.4432        12.7412       113.6513        29.9582         0.3068         0.3733     
 1793.5956        12.7353       114.0702        28.7792         0.3057         0.3726     
 1793.7480        12.7349       113.2425        29.1285         0.3038         0.3724     
 1793.9004        13.0855       113.0699        31.7209         0.3022         0.3720     
 1794.0528        12.8914       112.0692        33.0006         0.3022         0.3708     
 1794.2052        13.4252       111.8823        33.1802         0.3042         0.3710     
 1794.3576        13.8797       112.0407        31.4615         0.3061         0.3738     
 1794.5100        13.6327       110.6260        29.5907         0.3084         0.3786     
 1794.6624        12.4891       109.3881        29.4164         0.3118         0.3829     
 1794.8148        12.7370       103.8404        29.1045         0.3149         0.3864     
 1794.9672        12.1268       107.2641        30.8699         0.3194         0.3890     
 1795.1196        12.0943       109.5791        34.1043         0.3343         0.3969     
 1795.2720        12.1706       110.3094        40.9321         0.3621         0.4105     
 1795.4244        12.5178       115.1227        50.6417         0.3782         0.4290     
 1795.5768        12.3280       114.4258        56.9160         0.4044         0.4636     
 1795.7292        12.0483       109.2791        57.7594         0.4463         0.5029     
 1795.8816        12.0087       107.6328        54.7495         0.4872         0.5328     
 1796.0340        12.0492       108.6599        51.6926         0.5277         0.5670     
 1796.1864        12.1168       112.1793        55.5937         0.5736         0.6281     
 1796.3388        12.1250       119.6941        58.4482         0.6442         0.6893     
 1796.4912        12.5528       125.3717        68.1330         0.7172         0.7184     
 1796.6436        12.2024       129.3106        76.9342         0.7800         0.7603     
 1796.7960        12.1484       129.1981        83.8984         0.8496         0.8208     
 1796.9484        12.2657       129.4561        81.9286         0.9101         0.8805     
 1797.1008        12.2881       129.0584        72.3442         0.9739         0.9289     
 1797.2532        12.2891       127.7855        66.2117         1.0165         0.9674     
 1797.4056        12.2822       126.8522        63.7685         1.0350         0.9983     
 1797.5580        12.2813       126.6397        68.9100         1.0283         1.0040     
 1797.7104        12.3020       126.8459        73.2147         0.9991         0.9861     
 1797.8628        12.3116       129.3001        74.3489         0.9630         0.9500     
 1798.0152        12.2918       130.9504        72.6702         0.9225         0.9123     
 1798.1676        12.1994       131.6770        67.8007         0.8426         0.8636     
 1798.3200        12.1392       131.7500        63.2660         0.7557         0.8031     
 1798.4724        12.1535       127.8308        58.2788         0.6837         0.7499     
 1798.6248        12.0942       123.9463        52.1416         0.6173         0.6904     
 1798.7772        12.0031       120.9608        48.8947         0.5546         0.6291     
 1798.9296        12.0129       117.8658        40.7265         0.4977         0.5799     
 1799.0820        12.1674       116.7272        35.8235         0.4491         0.5383     
 1799.2344        12.1875       116.2937        31.3649         0.4146         0.4759     
 1799.3868        12.4290       114.5939        33.5212         0.3750         0.4352     
 1799.5392        12.0058       112.7198        35.5302         0.3499         0.4137     
 1799.6916        12.1041       109.6279        35.4738         0.3361         0.4007     
 1799.8440        12.0974       108.1476        36.6502         0.3314         0.3945     
 1799.9964        11.8866       111.3139        39.1875         0.3329         0.3963     
 1800.1488        11.9284       115.0620        45.2132         0.3377         0.4048     
 1800.3012        11.9375       114.5058        45.8583         0.3439         0.4136     
 1800.4536        11.9375       116.6931        45.3746         0.3494         0.4220     
 1800.6060        11.9375       115.2343        38.3325         0.3499         0.4235     
 1800.7584        11.8478       113.0130        34.7845         0.3492         0.4133     
 1800.9108        11.9601       109.8808        33.1684         0.3499         0.4012     
 1801.0632        12.0594       108.6169        36.7256         0.3498         0.3881     
 1801.2156        12.1668       105.8523        38.4874         0.3493         0.3855     
 1801.3680        12.1728       103.6219        39.3191         0.3508         0.3929     
 1801.5204        12.6679       104.1466        37.8079         0.3546         0.4042     
 1801.6728        12.5963       111.0981        35.8817         0.3686         0.4161     
 1801.8252        12.9364       114.2047        37.0342         0.3921         0.4321     
 1801.9776        13.7921       120.4645        46.1655         0.4212         0.4570     
 1802.1300        12.5876       123.7889        54.9605         0.4581         0.4878     
 1802.2824        12.2415       126.0024        63.5611         0.4903         0.5134     
 1802.4348        12.2188       130.8867        67.5433         0.5287         0.5424     
 1802.5872        12.2188       129.8445        71.4140         0.5634         0.5769     
 1802.7396        12.2394       133.2681        74.9109         0.5836         0.6029     
 1802.8920        12.2215       135.7366        77.0232         0.5964         0.6149     
 1803.0444        12.0808       135.2272        79.8443         0.6044         0.6210     
 1803.1968        12.0694       133.1390        73.4021         0.6013         0.6234     
 1803.3492        12.0634       134.0900        67.7505         0.5788         0.6197     
 1803.5016        12.0625       135.0217        62.6326         0.5587         0.6070     
 1803.6540        12.0694       136.2296        62.7493         0.5426         0.5828     
 1803.8064        12.0496       136.5955        62.1272         0.5056         0.5636     
 1803.9588        12.3230       134.9680        58.3583         0.4788         0.5426     
