~Version Information Section
VERS.          2.0                                     : CWLS LOG ASCII Standard
WRAP.          NO                                      : One line per depth step
CREA.          18/09/15                                : LAS Creation Date
~Well Information Section
STRT.m         811.6824                                : Start Depth
STOP.m         2310.6888                               : Stop Depth
STEP.m         0.1524                                  : Step
NULL.          -999.2500                               : Null Value
COMP.          BP PET DEV                              : Company
WELL.          15/13a-4Z                               : Well
FLD .          EXPLORATION                             : Field
LOC .          NORTH SEA                               : Location
LOC1.          358107.875mE 6493463.000mN              : Location (UTM)
CTRY.          UK                                      : Country
PROV.          UKCS                                    : Province
UWI .          18761                                   : UWI Number
API .                                                  : API Number
SECT.                                                  : Section
TOWN.                                                  : Township
RNGE.                                                  : Range
PDAT.          MSL                                     : Perm Datum
EPD .m         0.00                                    : Elevation
LMF .          DF                                      : Log Measured From
DMF .          DF                                      : Drill Measured From
APD .m         25.00                                   : Above Perm Datum
EKB .m         25.30                                   : Elev-Kelly Bushing
EDF .m         25.00                                   : Elev-Drill Floor
EGL .m         -147.00                                 : Elev-Ground Level (Water Depth)
TDD .m         2329.00                                 : Total Depth (Driller)
SRVC.          SCHLUMBERGER                            : Service Company
LATI.          58 33 25.58 N                           : Latitude
LONG.          00 33 40.64 E                           : Longitude
DATE.          04-19-AUG-1987                          : Logging Date
PROJ.          UKCS                                    : Project
SET .          COMP WIRE                               : Set
~Curve Information Section
DEPTH.m                                                : Depth Curve
CALI.in                                                : Caliper
DT.us/ft                                               : Delta-T
GR.gAPI                                                : Gamma Ray
ILD.ohmm                                               : Deep Induction Standard Processed Resistivity
ILM.ohmm                                               : Medium Induction Standard Processed Resistivity
~ASCII Log Data Section
# ...
  825.0936        12.1744       175.3531        22.1642         1.1735         1.3205     
  825.2460        12.1785       168.4675        25.3614         1.1796         1.3330     
  825.3984        12.2112       159.2280        28.3103         1.1844         1.3490     
  825.5508        13.0778       161.3878        34.1777         1.1854         1.3672     
  825.7032        14.7720       165.8056        35.5581         1.1845         1.3778     
  825.8556        15.5296       169.1646        36.2534         1.1864         1.3753     
  826.0080        15.4610       172.8353        33.7352         1.1873         1.3736     
  826.1604        15.6881       171.8496        35.7444         1.1875         1.3754     
  826.3128        16.7247       172.6505        34.0119         1.1793         1.3784     
  826.4652        16.9443       169.9903        33.7514         1.1726         1.3689     
  826.6176        16.5979       171.0556        32.5727         1.1646         1.3580     
  826.7700        16.5836       170.8377        34.2646         1.1613         1.3480     
  826.9224        17.4927       168.1217        34.5897         1.1577         1.3363     
  827.0748        17.4754       167.8105        34.5209         1.1591         1.3277     
  827.2272        17.7660       169.8040        37.7056         1.1566         1.3311     
  827.3796        17.2433       173.4606        38.8438         1.1543         1.3342     
  827.5320        17.5886       173.3001        38.4042         1.1434         1.3323     
  827.6844        18.0046       173.5677        36.4171         1.1315         1.3300     
  827.8368        17.5167       171.5370        37.7794         1.1134         1.3148     
  827.9892        16.1305       166.8614        39.4668         1.1034         1.2826     
  828.1416        17.0578       169.0851        38.7095         1.0982         1.2581     
  828.2940        16.7212       168.2119        38.3158         1.0982         1.2536     
  828.4464        16.3847       168.0907        40.5921         1.0878         1.2557     
  828.5988        16.0187       150.5102        44.5569         1.0751         1.2373     
  828.7512        16.1566       149.2857        46.6326         1.0594         1.2213     
  828.9036        16.3411       158.1953        46.1289         1.0452         1.2070     
  829.0560        16.5258       170.0467        42.1815         1.0374         1.1943     
  829.2084        16.1868       170.4543        37.6119         1.0340         1.1707     
  829.3608        16.2159       168.6423        33.9600         1.0338         1.1541     
  829.5132        16.5344       174.5701        32.5004         1.0382         1.1511     
  829.6656        16.9382       183.2808        29.9331         1.0397         1.1577     
  829.8180        18.9894       195.2214        29.6446         1.0357         1.1698     
  829.9704        20.7588       197.4338        30.4331         1.0242         1.1748     
  830.1228        21.0249       188.3818        32.3755         1.0046         1.1596     
  830.2752        20.7518       181.4874        31.3245         0.9842         1.1239     
  830.4276        17.8474       173.6461        29.7227         0.9762         1.0749     
  830.5800        16.9643       164.9013        28.8291         0.9734         1.0325     
  830.7324        16.5682       164.8663        29.2175         0.9654         1.0101     
  830.8848        16.2718       177.4522        29.6276         0.9500         0.9952     
  831.0372        16.0885       180.6839        28.4885         0.9264         0.9809     
  831.1896        16.0269       180.2553        27.9130         0.9068         0.9734     
  831.3420        15.8051       179.9539        27.2646         0.9039         0.9706     
  831.4944        14.9951       172.5397        29.2320         0.9100         0.9716     
  831.6468        15.0341       164.3304        31.0441         0.9228         0.9879     
  831.7992        15.3568       165.7459        31.2400         0.9441         1.0060     
  831.9516        15.4240       158.2711        30.0574         0.9592         1.0167     
  832.1040        15.4885       164.4938        29.0029         0.9689         1.0230     
  832.2564        15.4921       170.9872        28.8839         0.9860         1.0357     
  832.4088        14.9744       166.4124        27.7215         0.9909         1.0508     
  832.5612        14.3133       165.7976        26.1102         0.9910         1.0490     
  832.7136        14.1514       171.3673        26.8672         1.0093         1.0205     
  832.8660        14.3824       165.2290        29.7107         1.0192         1.0080     
  833.0184        14.4800       163.3371        32.0284         1.0320         1.0400     
  833.1708        14.6560       163.3892        30.9163         1.0550         1.0823     
  833.3232        14.2936       163.9682        30.0504         1.0633         1.1020     
  833.4756        14.2095       163.4450        28.2132         1.0753         1.1060     
  833.6280        14.1844       162.3694        29.0341         1.0988         1.1308     
  833.7804        14.1761       161.1056        28.4815         1.1232         1.1552     
  833.9328        14.2267       160.9619        29.4209         1.1456         1.1733     
  834.0852        14.2901       160.6924        29.9029         1.1750         1.1938     
  834.2376        14.4612       160.7534        31.3042         1.2002         1.2222     
  834.3900        14.4230       161.1196        32.3787         1.2168         1.2506     
  834.5424        14.3212       160.4148        32.7657         1.2326         1.2677     
  834.6948        14.2654       160.1895        33.0857         1.2440         1.2722     
  834.8472        14.0388       159.3287        30.9445         1.2537         1.2721     
  834.9996        13.8926       160.9876        30.9444         1.2544         1.2791     
  835.1520        13.9262       159.8559        30.7586         1.2459         1.2790     
  835.3044        13.9471       159.9294        33.0001         1.2398         1.2685     
  835.4568        14.0009       160.1281        32.5712         1.2310         1.2504     
  835.6092        14.0438       158.9078        31.8616         1.2243         1.2308     
  835.7616        13.6763       158.8583        30.4154         1.2251         1.2174     
  835.9140        13.2003       159.3104        30.7544         1.2194         1.2223     
  836.0664        12.7786       159.6115        30.9455         1.2044         1.2455     
  836.2188        12.5344       158.4312        31.9795         1.1979         1.2242     
  836.3712        12.3651       157.1373        31.7764         1.2057         1.1748     
  836.5236        12.3512       157.3887        28.5667         1.2070         1.1580     
  836.6760        12.4747       157.3896        28.1963         1.2139         1.1887     
  836.8284        12.3231       157.2065        27.9519         1.2295         1.2238     
  836.9808        12.3206       156.2628        31.9640         1.2225         1.2359     
  837.1332        12.3342       156.8379        29.8387         1.2117         1.2265     
  837.2856        12.3294       157.1235        31.7960         1.2103         1.2200     
  837.4380        12.3289       157.4563        28.8161         1.2057         1.2125     
  837.5904        12.3395       157.7983        31.3844         1.1955         1.2097     
  837.7428        12.3178       157.6740        29.2622         1.1877         1.2024     
  837.8952        12.3125       157.7552        30.1685         1.1767         1.1902     
  838.0476        12.3121       158.1984        27.8439         1.1616         1.1759     
  838.2000        12.3052       158.7283        27.1568         1.1487         1.1652     
  838.3524        12.2985       158.2595        25.4944         1.1399         1.1573     
