~Version Information Section
VERS.          2.0                                     : CWLS LOG ASCII Standard
WRAP.          NO                                      : One line per depth step
CREA.          18/09/15                                : LAS Creation Date
~Well Information Section
STRT.m         811.6824                                : Start Depth
STOP.m         2310.6888                               : Stop Depth
STEP.m         0.1524                                  : Step
NULL.          -999.2500                               : Null Value
COMP.          BP PET DEV                              : Company
WELL.          15/13a-4Z                               : Well
FLD .          EXPLORATION                             : Field
LOC .          NORTH SEA                               : Location
LOC1.          358107.875mE 6493463.000mN              : Location (UTM)
CTRY.          UK                                      : Country
PROV.          UKCS                                    : Province
UWI .          18761                                   : UWI Number
API .                                                  : API Number
SECT.                                                  : Section
TOWN.                                                  : Township
RNGE.                                                  : Range
PDAT.          MSL                                     : Perm Datum
EPD .m         0.00                                    : Elevation
LMF .          DF                                      : Log Measured From
DMF .          DF                                      : Drill Measured From
APD .m         25.00                                   : Above Perm Datum
EKB .m         25.30                                   : Elev-Kelly Bushing
EDF .m         25.00                                   : Elev-Drill Floor
EGL .m         -147.00                                 : Elev-Ground Level (Water Depth)
TDD .m         2329.00                                 : Total Depth (Driller)
SRVC.          SCHLUMBERGER                            : Service Company
LATI.          58 33 25.58 N                           : Latitude
LONG.          00 33 40.64 E                           : Longitude
DATE.          04-19-AUG-1987                          : Logging Date
PROJ.          UKCS                                    : Project
SET .          COMP WIRE                               : Set
~Curve Information Section
DEPTH.m                                                : Depth Curve
CALI.in                                                : Caliper
DT.us/ft                                               : Delta-T
GR.gAPI                                                : Gamma Ray
ILD.ohmm                                               : Deep Induction Standard Processed Resistivity
ILM.ohmm                                               : Medium Induction Standard Processed Resistivity
~ASCII Log Data Section
# ...
 1495.6536        14.2092       131.2123        47.8657         0.4752         0.5493     
 1495.8060        13.1343       129.1434        45.4050         0.4768         0.5523     
 1495.9584        12.8492       128.6129        42.8101         0.4764         0.5551     
 1496.1108        13.0073       126.6252        39.6175         0.4722         0.5527     
 1496.2632        12.8929       128.7563        39.3901         0.4700         0.5466     
 1496.4156        12.9791       130.2250        39.0537         0.4698         0.5425     
 1496.5680        13.1769       131.2171        41.2334         0.4686         0.5414     
 1496.7204        13.6462       130.2704        41.6116         0.4659         0.5431     
 1496.8728        13.9080       129.0167        42.4969         0.4631         0.5455     
 1497.0252        12.9865       127.5603        44.4717         0.4647         0.5478     
 1497.1776        12.8500       126.6163        45.2776         0.4693         0.5545     
 1497.3300        12.8885       126.5061        47.4264         0.4809         0.5660     
 1497.4824        13.3963       126.8019        46.4143         0.4977         0.5734     
 1497.6348        12.6554       125.5958        47.0718         0.5338         0.5879     
 1497.7872        12.7036       126.5213        48.2006         0.5842         0.6339     
 1497.9396        12.5612       123.9918        51.9843         0.6295         0.6953     
 1498.0920        12.3256       121.0522        54.8535         0.6753         0.7520     
 1498.2444        12.1200       122.6688        56.2239         0.7491         0.8112     
 1498.3968        12.0600       121.9244        55.0751         0.8241         0.9018     
 1498.5492        12.0703       122.4810        54.9082         0.9094         0.9628     
 1498.7016        12.2059       124.2680        55.3607         0.9852         1.0227     
 1498.8540        12.1938       125.7418        58.5013         1.0087         1.0561     
 1499.0064        12.2766       125.2250        58.7313         0.9996         1.0541     
 1499.1588        12.3317       124.8378        57.3161         0.9121         1.0315     
 1499.3112        12.4738       127.5836        56.0715         0.8392         0.9607     
 1499.4636        12.6204       120.0743        54.4167         0.7899         0.8829     
 1499.6160        12.5495       103.1788        46.1420         0.7362         0.8163     
 1499.7684        12.8811        94.6941        36.9664         0.6805         0.7564     
 1499.9208        14.2691        85.6865        31.8075         0.6327         0.7276     
 1500.0732        14.8058        72.2829        32.6349         0.5763         0.6843     
 1500.2256        12.6852        80.7354        35.1081         0.5216         0.6130     
 1500.3780        12.8886        95.2270        38.4550         0.4903         0.5676     
 1500.5304        12.5989       111.5390        37.6491         0.4688         0.5415     
 1500.6828        12.4718       124.1634        34.6574         0.4512         0.5280     
 1500.8352        12.4757       127.4004        31.6828         0.4390         0.5252     
 1500.9876        12.6014       127.7994        34.4549         0.4299         0.5245     
 1501.1400        12.8084       128.0075        37.7775         0.4267         0.5219     
 1501.2924        12.7612       117.6323        38.0151         0.4264         0.5224     
 1501.4448        12.8288       119.2396        36.9241         0.4307         0.5229     
 1501.5972        13.3301       126.0890        35.8011         0.4382         0.5241     
 1501.7496        12.5053       126.0042        36.6701         0.4420         0.5276     
 1501.9020        13.0866       124.5764        36.6347         0.4477         0.5281     
 1502.0544        13.9947       127.3249        38.9130         0.4585         0.5327     
 1502.2068        13.7003       124.6804        41.3454         0.4731         0.5446     
 1502.3592        12.7159       124.8055        44.6480         0.4960         0.5635     
 1502.5116        12.9761       126.0799        45.0279         0.5065         0.5855     
 1502.6640        12.5219       124.7290        42.9502         0.5115         0.5965     
 1502.8164        12.3986       130.3338        37.7830         0.5168         0.5976     
 1502.9688        12.5781       130.9002        35.0343         0.5169         0.5965     
 1503.1212        13.2074       129.2171        35.3549         0.5111         0.5871     
 1503.2736        13.2470       126.3566        34.9409         0.5023         0.5733     
 1503.4260        12.8705       125.7814        34.3787         0.4915         0.5474     
 1503.5784        13.0903       127.0748        34.1772         0.4681         0.5309     
 1503.7308        14.0013       128.5748        35.9779         0.4513         0.5215     
 1503.8832        14.4206       128.1983        33.2949         0.4386         0.5129     
 1504.0356        13.7215       129.1202        32.3810         0.4186         0.5026     
 1504.1880        13.3563       128.5886        33.3597         0.4090         0.4881     
 1504.3404        13.5343       127.7268        33.8037         0.4082         0.4863     
 1504.4928        13.1071       129.8328        34.0645         0.4086         0.4895     
 1504.6452        12.9986       130.6772        32.8235         0.4117         0.4921     
 1504.7976        12.9094       132.2956        35.0022         0.4143         0.4954     
 1504.9500        12.9468       133.7149        35.9199         0.4160         0.5005     
 1505.1024        12.8358       132.1086        33.8472         0.4178         0.5080     
 1505.2548        12.7720       129.9988        32.7899         0.4251         0.5094     
 1505.4072        12.8415       126.9900        31.2937         0.4309         0.5075     
 1505.5596        12.4720       124.6376        34.5459         0.4403         0.5058     
 1505.7120        12.1528       123.7126        34.9724         0.4546         0.5124     
 1505.8644        12.2896       123.7353        34.4998         0.4734         0.5243     
 1506.0168        12.0778       126.1802        35.5974         0.5077         0.5401     
 1506.1692        12.0469       124.6258        36.4942         0.5303         0.5569     
 1506.3216        12.0676       124.4855        37.3670         0.5412         0.5906     
 1506.4740        12.0496       123.5064        34.9572         0.5712         0.6139     
 1506.6264        12.0952       121.0552        32.3328         0.6021         0.6269     
 1506.7788        12.5915       120.7500        32.3073         0.6172         0.6304     
 1506.9312        13.0080       121.0811        34.4131         0.6303         0.6245     
 1507.0836        12.3717       124.5470        36.5641         0.6349         0.6173     
 1507.2360        12.0674       128.8624        34.2192         0.6284         0.6159     
 1507.3884        12.2805       130.9204        34.8961         0.6170         0.6149     
 1507.5408        12.2021       129.9106        34.6724         0.5976         0.6008     
 1507.6932        12.3255       125.4449        37.5227         0.5643         0.5751     
 1507.8456        12.3575       124.8750        35.8653         0.5432         0.5572     
 1507.9980        12.7322       125.2064        37.3886         0.5330         0.5433     
 1508.1504        12.8019       122.4941        37.3219         0.5246         0.5343     
 1508.3028        12.9220       122.5668        37.4745         0.5130         0.5353     
 1508.4552        13.2756       124.2808        36.5341         0.5026         0.5408     
 1508.6076        13.5895       124.9418        35.8540         0.4966         0.5480     
 1508.7600        13.7561       125.3312        36.1400         0.4873         0.5565     
 1508.9124        13.3734       125.7061        36.9876         0.4841         0.5557     
