~Version Information Section
VERS.          2.0                                     : CWLS LOG ASCII Standard
WRAP.          NO                                      : One line per depth step
CREA.          18/09/15                                : LAS Creation Date
~Well Information Section
STRT.m         811.6824                                : Start Depth
STOP.m         2310.6888                               : Stop Depth
STEP.m         0.1524                                  : Step
NULL.          -999.2500                               : Null Value
COMP.          BP PET DEV                              : Company
WELL.          15/13a-4Z                               : Well
FLD .          EXPLORATION                             : Field
LOC .          NORTH SEA                               : Location
LOC1.          358107.875mE 6493463.000mN              : Location (UTM)
CTRY.          UK                                      : Country
PROV.          UKCS                                    : Province
UWI .          18761                                   : UWI Number
API .                                                  : API Number
SECT.                                                  : Section
TOWN.                                                  : Township
RNGE.                                                  : Range
PDAT.          MSL                                     : Perm Datum
EPD .m         0.00                                    : Elevation
LMF .          DF                                      : Log Measured From
DMF .          DF                                      : Drill Measured From
APD .m         25.00                                   : Above Perm Datum
EKB .m         25.30                                   : Elev-Kelly Bushing
EDF .m         25.00                                   : Elev-Drill Floor
EGL .m         -147.00                                 : Elev-Ground Level (Water Depth)
TDD .m         2329.00                                 : Total Depth (Driller)
SRVC.          SCHLUMBERGER                            : Service Company
LATI.          58 33 25.58 N                           : Latitude
LONG.          00 33 40.64 E                           : Longitude
DATE.          04-19-AUG-1987                          : Logging Date
PROJ.          UKCS                                    : Project
SET .          COMP WIRE                               : Set
~Curve Information Section
DEPTH.m                                                : Depth Curve
CALI.in                                                : Caliper
DT.us/ft                                               : Delta-T
GR.gAPI                                                : Gamma Ray
ILD.ohmm                                               : Deep Induction Standard Processed Resistivity
ILM.ohmm                                               : Medium Induction Standard Processed Resistivity
~ASCII Log Data Section
# ...
 1012.8504        13.8681       134.4823        23.5091         0.6126         0.6642     
 1013.0028        13.9573       134.6250        23.8546         0.6102         0.6598     
 1013.1552        14.0113       134.7261        23.4194         0.6019         0.6572     
 1013.3076        14.0743       135.6740        22.3302         0.5911         0.6562     
 1013.4600        14.1788       135.3556        22.4644         0.5829         0.6520     
 1013.6124        14.3066       135.7693        21.7237         0.5780         0.6435     
 1013.7648        14.2003       135.1813        19.7952         0.5785         0.6368     
 1013.9172        14.1715       133.8647        18.0771         0.5808         0.6398     
 1014.0696        14.1742       133.1096        18.6395         0.5855         0.6422     
 1014.2220        14.0713       132.9079        21.2812         0.5890         0.6424     
 1014.3744        14.0440       133.0956        21.8078         0.5936         0.6473     
 1014.5268        14.2819       134.4078        23.2969         0.5986         0.6563     
 1014.6792        14.5561       135.6374        23.4318         0.6023         0.6712     
 1014.8316        14.8510       135.9025        23.4007         0.6065         0.6826     
 1014.9840        15.3220       136.1145        23.6971         0.6122         0.6902     
 1015.1364        15.8628       135.5596        23.8323         0.6178         0.7015     
 1015.2888        16.0481       135.5500        23.8301         0.6240         0.7116     
 1015.4412        16.0816       135.3945        23.2546         0.6288         0.7203     
 1015.5936        15.8782       135.9684        22.5004         0.6301         0.7275     
 1015.7460        15.5779       135.0820        22.7132         0.6297         0.7304     
 1015.8984        15.2369       133.2334        21.9568         0.6252         0.7243     
 1016.0508        15.0261       132.5243        21.7433         0.6216         0.7146     
 1016.2032        14.8444       134.0999        22.2329         0.6222         0.7099     
 1016.3556        14.7538       135.8112        22.5793         0.6234         0.7125     
 1016.5080        14.7346       136.4555        22.1531         0.6225         0.7169     
 1016.6604        14.8499       137.7746        20.9189         0.6187         0.7147     
 1016.8128        14.9165       137.8951        18.5465         0.6121         0.7114     
 1016.9652        14.8208       137.5803        17.7229         0.6062         0.7039     
 1017.1176        14.6108       137.5739        17.7859         0.6022         0.6925     
 1017.2700        14.2545       137.3302        19.5510         0.6007         0.6793     
 1017.4224        14.1227       137.3695        19.5368         0.5978         0.6668     
 1017.5748        14.1025       137.4865        18.9510         0.5908         0.6586     
 1017.7272        14.0226       136.5665        18.7721         0.5818         0.6561     
 1017.8796        13.8834       135.8595        20.5450         0.5719         0.6545     
 1018.0320        13.7063       135.6851        21.2131         0.5656         0.6539     
 1018.1844        13.3985       136.1122        20.6698         0.5646         0.6554     
 1018.3368        13.3836       137.1462        20.7593         0.5684         0.6629     
 1018.4892        13.3933       138.3840        21.1921         0.5751         0.6698     
 1018.6416        13.3386       137.8743        22.7484         0.5818         0.6770     
 1018.7940        13.3027       138.0031        22.3669         0.5861         0.6826     
 1018.9464        13.3604       137.7575        21.2540         0.5912         0.6865     
 1019.0988        13.3946       137.0406        20.9792         0.5953         0.6919     
 1019.2512        13.3986       136.8207        20.9205         0.5950         0.6945     
 1019.4036        13.3405       136.1222        22.8324         0.5961         0.6973     
 1019.5560        13.3816       134.5663        24.0175         0.5972         0.6965     
 1019.7084        13.5543       134.8978        23.8092         0.5971         0.6944     
 1019.8608        13.4811       135.8273        21.5127         0.6004         0.6962     
 1020.0132        13.3852       137.2835        19.5745         0.6059         0.7006     
 1020.1656        13.4894       138.3698        19.2726         0.6112         0.7064     
 1020.3180        13.4172       137.0375        19.9724         0.6136         0.7120     
 1020.4704        13.1603       135.6638        20.3410         0.6166         0.7163     
 1020.6228        13.3731       134.6345        20.1879         0.6191         0.7196     
 1020.7752        13.8308       133.8734        20.6943         0.6211         0.7228     
 1020.9276        14.1317       133.5651        22.1353         0.6254         0.7264     
 1021.0800        14.0873       133.6670        24.3478         0.6296         0.7295     
 1021.2324        13.3518       133.3351        23.1189         0.6319         0.7308     
 1021.3848        12.9342       133.1843        20.7556         0.6316         0.7298     
 1021.5372        12.8595       133.5666        18.7870         0.6277         0.7245     
 1021.6896        12.8299       133.9771        19.6359         0.6197         0.7159     
 1021.8420        12.8485       133.5339        21.2198         0.6147         0.7086     
 1021.9944        12.8983       133.5155        21.2882         0.6155         0.7042     
 1022.1468        13.0920       132.7895        20.8352         0.6198         0.7064     
 1022.2992        13.4708       131.2399        19.3034         0.6228         0.7155     
 1022.4516        13.8558       129.9315        19.6816         0.6281         0.7285     
 1022.6040        14.2330       129.3008        20.3974         0.6320         0.7425     
 1022.7564        14.4747       130.9345        20.5206         0.6348         0.7510     
 1022.9088        14.3760       132.6728        20.3634         0.6343         0.7507     
 1023.0612        14.0019       135.1038        21.3216         0.6314         0.7391     
 1023.2136        13.4132       135.7397        23.0733         0.6275         0.7193     
 1023.3660        13.3036       134.7709        22.8521         0.6258         0.6991     
 1023.5184        13.3621       133.5474        21.0098         0.6239         0.6874     
 1023.6708        13.5920       132.6993        19.5779         0.6192         0.6860     
 1023.8232        13.8638       132.8712        18.7090         0.6125         0.6854     
 1023.9756        14.2470       132.5670        19.5685         0.6065         0.6831     
 1024.1280        14.6361       132.2480        20.9048         0.6048         0.6823     
 1024.2804        14.9353       132.7437        22.7692         0.6065         0.6830     
 1024.4328        14.9829       132.9679        22.8469         0.6095         0.6858     
 1024.5852        14.8645       132.8808        21.4661         0.6115         0.6879     
 1024.7376        14.5965       132.6716        21.2981         0.6135         0.6912     
 1024.8900        14.1558       132.6512        21.1206         0.6169         0.6944     
 1025.0424        13.7971       132.9564        21.5270         0.6185         0.6986     
 1025.1948        14.0815       133.3573        19.8484         0.6178         0.7047     
 1025.3472        14.1997       134.0378        21.6333         0.6166         0.7087     
 1025.4996        14.5028       134.7182        21.8124         0.6188         0.7099     
 1025.6520        14.6580       134.6197        22.1667         0.6242         0.7096     
 1025.8044        14.8031       134.0142        19.6226         0.6319         0.7110     
 1025.9568        14.8826       133.8318        19.8185         0.6398         0.7151     
 1026.1092        14.7797       133.2620        21.9698         0.6439         0.7203     
