~Version Information Section
VERS.          2.0                                     : CWLS LOG ASCII Standard
WRAP.          NO                                      : One line per depth step
CREA.          18/09/15                                : LAS Creation Date
~Well Information Section
STRT.m         811.6824                                : Start Depth
STOP.m         2310.6888                               : Stop Depth
STEP.m         0.1524                                  : Step
NULL.          -999.2500                               : Null Value
COMP.          BP PET DEV                              : Company
WELL.          15/13a-4Z                               : Well
FLD .          EXPLORATION                             : Field
LOC .          NORTH SEA                               : Location
LOC1.          358107.875mE 6493463.000mN              : Location (UTM)
CTRY.          UK                                      : Country
PROV.          UKCS                                    : Province
UWI .          18761                                   : UWI Number
API .                                                  : API Number
SECT.                                                  : Section
TOWN.                                                  : Township
RNGE.                                                  : Range
PDAT.          MSL                                     : Perm Datum
EPD .m         0.00                                    : Elevation
LMF .          DF                                      : Log Measured From
DMF .          DF                                      : Drill Measured From
APD .m         25.00                                   : Above Perm Datum
EKB .m         25.30                                   : Elev-Kelly Bushing
EDF .m         25.00                                   : Elev-Drill Floor
EGL .m         -147.00                                 : Elev-Ground Level (Water Depth)
TDD .m         2329.00                                 : Total Depth (Driller)
SRVC.          SCHLUMBERGER                            : Service Company
LATI.          58 33 25.58 N                           : Latitude
LONG.          00 33 40.64 E                           : Longitude
DATE.          04-19-AUG-1987                          : Logging Date
PROJ.          UKCS                                    : Project
SET .          COMP WIRE                               : Set
~Curve Information Section
DEPTH.m                                                : Depth Curve
CALI.in                                                : Caliper
DT.us/ft                                               : Delta-T
GR.gAPI                                                : Gamma Ray
ILD.ohmm                                               : Deep Induction Standard Processed Resistivity
ILM.ohmm                                               : Medium Induction Standard Processed Resistivity
~ASCII Log Data Section
# ...
 2193.0360         8.6250        72.9649        19.6955         3.9850         4.0316     
 2193.1884         8.6250        73.3368        19.8220         3.9411         3.9700     
 2193.3408         8.6250        73.6445        20.7855         3.9100         3.9451     
 2193.4932         8.6250        74.0932        21.5389         3.8967         3.9426     
 2193.6456         8.6250        73.3481        22.6701         3.8971         3.9617     
 2193.7980         8.6250        73.0995        22.6530         3.9142         4.0151     
 2193.9504         8.6250        72.4024        23.2839         3.9529         4.0919     
 2194.1028         8.6250        71.6011        22.6297         4.0076         4.1638     
 2194.2552         8.6250        71.7526        21.7631         4.0788         4.2215     
 2194.4076         8.6250        71.6851        20.2452         4.1612         4.2704     
 2194.5600         8.6250        71.2191        20.3601         4.2305         4.3234     
 2194.7124         8.6250        71.7802        19.9273         4.2773         4.3772     
 2194.8648         8.6250        71.4352        21.4661         4.3047         4.4190     
 2195.0172         8.6250        70.7607        22.4786         4.3257         4.4488     
 2195.1696         8.6250        70.4534        22.7096         4.3549         4.4764     
 2195.3220         8.6250        70.6713        21.1208         4.3927         4.5070     
 2195.4744         8.6250        70.7446        18.7113         4.4385         4.5419     
 2195.6268         8.6250        70.1952        17.6950         4.4955         4.5883     
 2195.7792         8.6250        70.6078        17.9220         4.5669         4.6656     
 2195.9316         8.6250        68.9496        18.1464         4.6462         4.7878     
 2196.0840         8.6250        67.8033        18.2218         4.7107         4.9196     
 2196.2364         8.6250        67.5788        17.4572         4.7420         4.9906     
 2196.3888         8.6250        67.1467        17.9985         4.7599         4.9864     
 2196.5412         8.6250        68.3106        17.8877         4.7847         4.9521     
 2196.6936         8.6250        69.5831        19.6558         4.8109         4.9229     
 2196.8460         8.6250        70.6778        21.5632         4.8193         4.9050     
 2196.9984         8.6250        69.8813        22.9167         4.8176         4.8933     
 2197.1508         8.6250        70.5471        23.4905         4.8234         4.8970     
 2197.3032         8.6250        69.9867        22.2272         4.8386         4.9502     
 2197.4556         8.6250        68.3066        21.8486         4.8737         5.0592     
 2197.6080         8.6250        67.7887        20.6669         4.9297         5.1809     
 2197.7604         8.6250        67.3754        19.1963         5.0120         5.2647     
 2197.9128         8.6250        67.8431        19.9049         5.1311         5.3258     
 2198.0652         8.6250        67.7000        18.8072         5.2939         5.4227     
 2198.2176         8.6250        67.8448        17.8245         5.4759         5.6061     
 2198.3700         8.6250        66.5187        14.5871         5.6286         5.8311     
 2198.5224         8.6250        65.2119        14.5090         5.7599         6.0146     
 2198.6748         8.6250        65.0189        15.7086         5.9237         6.1708     
 2198.8272         8.6250        65.4047        19.1476         6.1230         6.3689     
 2198.9796         8.6250        65.0356        20.7517         6.3230         6.6303     
 2199.1320         8.6250        64.4142        19.0548         6.5023         6.9221     
 2199.2844         8.6250        63.8281        16.7717         6.6529         7.1624     
 2199.4368         8.6250        63.1752        14.1502         6.7453         7.2705     
 2199.5892         8.6250        63.2572        14.8537         6.7696         7.2582     
 2199.7416         8.6250        64.1420        15.2730         6.7479         7.1528     
 2199.8940         8.6250        65.1083        17.4292         6.6763         6.9866     
 2200.0464         8.6250        65.5574        18.5413         6.5290         6.8244     
 2200.1988         8.6250        66.8956        19.1614         6.2994         6.6429     
 2200.3512         8.6250        67.6186        19.0608         6.0345         6.3511     
 2200.5036         8.6250        68.7521        20.7969         5.8182         5.9900     
 2200.6560         8.6250        70.2550        22.3348         5.6858         5.7460     
 2200.8084         8.6250        70.3957        22.9368         5.6232         5.6672     
 2200.9608         8.6250        69.1523        21.9167         5.6040         5.6818     
 2201.1132         8.6250        67.4185        20.0133         5.6027         5.7517     
 2201.2656         8.6250        66.4108        18.3040         5.6243         5.8677     
 2201.4180         8.6250        65.5073        17.7286         5.7020         6.0060     
 2201.5704         8.6250        66.3493        18.2478         5.8703         6.1644     
 2201.7228         8.6250        66.3748        19.5671         6.1278         6.3623     
 2201.8752         8.6250        65.9927        19.8381         6.3898         6.6246     
 2202.0276         8.6250        64.8357        18.8996         6.5542         6.9022     
 2202.1800         8.6250        63.4511        16.8586         6.6131         7.0821     
 2202.3324         8.6250        63.3197        15.0267         6.6211         7.1386     
 2202.4848         8.6250        64.0796        14.6368         6.6209         7.0981     
 2202.6372         8.6250        65.3876        16.0259         6.6165         6.9710     
 2202.7896         8.6250        66.6249        17.5154         6.5873         6.8086     
 2202.9420         8.6250        67.0956        18.3586         6.4917         6.6539     
 2203.0944         8.6250        67.4840        19.0175         6.3491         6.5219     
 2203.2468         8.6250        67.7698        19.7925         6.2149         6.4232     
 2203.3992         8.6250        67.9512        20.3774         6.1274         6.3682     
 2203.5516         8.6250        67.8451        20.8892         6.0807         6.3466     
 2203.7040         8.6250        67.5917        19.8227         6.0479         6.3373     
 2203.8564         8.6250        65.8297        19.8294         6.0163         6.3314     
 2204.0088         8.6250        65.7217        19.1476         5.9788         6.3033     
 2204.1612         8.6250        66.7706        19.6631         5.9387         6.2276     
 2204.3136         8.6250        67.5426        19.3232         5.8791         6.1251     
 2204.4660         8.6250        68.3900        19.4327         5.7841         6.0021     
 2204.6184         8.6250        68.9490        19.7219         5.6569         5.8412     
 2204.7708         8.6250        69.6652        19.2518         5.5094         5.6400     
 2204.9232         8.6250        70.1659        16.9884         5.3745         5.4516     
 2205.0756         8.6250        70.3277        16.1640         5.2809         5.3422     
 2205.2280         8.6250        69.9734        17.2463         5.2275         5.3093     
 2205.3804         8.6250        69.0722        19.1653         5.2063         5.3185     
 2205.5328         8.6250        69.2230        19.3113         5.2038         5.3477     
 2205.6852         8.6250        68.7667        19.4747         5.2173         5.3982     
 2205.8376         8.6250        68.4116        20.5589         5.2508         5.4605     
 2205.9900         8.6250        68.1062        21.7224         5.2734         5.4933     
 2206.1424         8.6250        67.7791        21.0461         5.2770         5.4753     
 2206.2948         8.6250        68.7371        21.4319         5.2704         5.4172     
