~Version Information Section
VERS.          2.0                                     : CWLS LOG ASCII Standard
WRAP.          NO                                      : One line per depth step
CREA.          18/09/15                                : LAS Creation Date
~Well Information Section
STRT.m         811.6824                                : Start Depth
STOP.m         2310.6888                               : Stop Depth
STEP.m         0.1524                                  : Step
NULL.          -999.2500                               : Null Value
COMP.          BP PET DEV                              : Company
WELL.          15/13a-4Z                               : Well
FLD .          EXPLORATION                             : Field
LOC .          NORTH SEA                               : Location
LOC1.          358107.875mE 6493463.000mN              : Location (UTM)
CTRY.          UK                                      : Country
PROV.          UKCS                                    : Province
UWI .          18761                                   : UWI Number
API .                                                  : API Number
SECT.                                                  : Section
TOWN.                                                  : Township
RNGE.                                                  : Range
PDAT.          MSL                                     : Perm Datum
EPD .m         0.00                                    : Elevation
LMF .          DF                                      : Log Measured From
DMF .          DF                                      : Drill Measured From
APD .m         25.00                                   : Above Perm Datum
EKB .m         25.30                                   : Elev-Kelly Bushing
EDF .m         25.00                                   : Elev-Drill Floor
EGL .m         -147.00                                 : Elev-Ground Level (Water Depth)
TDD .m         2329.00                                 : Total Depth (Driller)
SRVC.          SCHLUMBERGER                            : Service Company
LATI.          58 33 25.58 N                           : Latitude
LONG.          00 33 40.64 E                           : Longitude
DATE.          04-19-AUG-1987                          : Logging Date
PROJ.          UKCS                                    : Project
SET .          COMP WIRE                               : Set
~Curve Information Section
DEPTH.m                                                : Depth Curve
CALI.in                                                : Caliper
DT.us/ft                                               : Delta-T
GR.gAPI                                                : Gamma Ray
ILD.ohmm                                               : Deep Induction Standard Processed Resistivity
ILM.ohmm                                               : Medium Induction Standard Processed Resistivity
~ASCII Log Data Section
# ...
 1307.8968        13.0803       142.7632        66.5508         1.0748         1.1126     
 1308.0492        13.1457       145.1934        64.8907         1.0654         1.1116     
 1308.2016        13.0219       144.8694        62.4177         1.0577         1.1034     
 1308.3540        12.9674       141.4996        65.9132         1.0438         1.0901     
 1308.5064        13.0365       140.7207        67.7417         1.0226         1.0810     
 1308.6588        13.1405       137.6889        66.6248         0.9928         1.0650     
 1308.8112        13.3205       148.0088        62.1163         0.9638         1.0377     
 1308.9636        13.7593       163.1764        56.1642         0.9516         1.0057     
 1309.1160        13.3327       165.5062        51.5325         0.9720         0.9904     
 1309.2684        13.0605       163.4582        51.0446         0.9825         1.0069     
 1309.4208        13.1003       152.2734        56.2057         0.9732         1.0377     
 1309.5732        13.0772       142.1827        64.7281         0.9635         1.0431     
 1309.7256        13.0295       139.2204        69.2166         0.9707         1.0298     
 1309.8780        12.9855       136.6860        66.8909         0.9953         1.0320     
 1310.0304        12.9542       137.7285        63.4408         1.0219         1.0475     
 1310.1828        13.3059       137.4479        62.7892         1.0351         1.0703     
 1310.3352        13.0369       137.4053        63.9580         1.0500         1.0939     
 1310.4876        12.9232       137.9834        64.2226         1.0693         1.1268     
 1310.6400        13.0297       137.4521        62.9499         1.0882         1.1661     
 1310.7924        13.1899       129.7207        62.6954         1.1048         1.1983     
 1310.9448        12.9599       119.7423        61.2548         1.1229         1.2183     
 1311.0972        12.8906       117.9270        58.9020         1.1468         1.2205     
 1311.2496        12.8906       119.6655        58.7938         1.1594         1.2130     
 1311.4020        12.9103       127.5066        59.6752         1.1597         1.2013     
 1311.5544        13.1609       135.9955        60.5811         1.1548         1.1936     
 1311.7068        13.7459       138.3972        59.9159         1.1458         1.1917     
 1311.8592        14.2479       139.2194        57.2648         1.1264         1.1828     
 1312.0116        14.1913       139.5032        54.3359         1.0923         1.1498     
 1312.1640        13.2961       139.8583        52.9684         1.0662         1.1221     
 1312.3164        13.0432       140.5820        56.1918         1.0572         1.1090     
 1312.4688        13.1313       141.7863        57.6411         1.0400         1.0998     
 1312.6212        13.1462       142.5253        58.9401         1.0148         1.0823     
 1312.7736        13.0421       142.5334        58.1085         0.9945         1.0543     
 1312.9260        13.0195       140.8111        59.8990         0.9613         1.0314     
 1313.0784        13.1072       153.9797        61.1213         0.9124         1.0049     
 1313.2308        13.5760       162.5563        59.7763         0.8909         0.9560     
 1313.3832        13.3278       162.9414        54.9844         0.9146         0.9289     
 1313.5356        13.2154       163.7600        49.5967         0.9122         0.9551     
 1313.6880        15.1843       157.3059        46.5868         0.8778         0.9851     
 1313.8404        16.8776       145.9586        47.7018         0.8526         0.9667     
 1313.9928        13.9787       145.2989        49.4192         0.8623         0.9333     
 1314.1452        13.0993       145.6797        50.7692         0.9042         0.9384     
 1314.2976        13.3473       142.8500        53.2714         0.9192         0.9586     
 1314.4500        14.0138       142.3716        56.0512         0.9129         0.9691     
 1314.6024        13.7050       144.8045        57.5270         0.8985         0.9756     
 1314.7548        13.6610       143.6866        57.0975         0.8947         0.9802     
 1314.9072        13.1746       143.1045        57.2881         0.9024         0.9792     
 1315.0596        13.0215       142.6518        59.7412         0.9291         0.9783     
 1315.2120        13.0178       142.9156        62.6786         0.9580         0.9941     
 1315.3644        13.0557       143.0755        60.5727         0.9693         1.0174     
 1315.5168        13.2567       142.7325        61.5197         0.9705         1.0301     
 1315.6692        13.6501       141.7162        63.4107         0.9737         1.0318     
 1315.8216        13.1869       141.3227        67.9934         0.9834         1.0223     
 1315.9740        13.0369       141.6158        68.4691         0.9941         1.0230     
 1316.1264        13.0641       142.3895        66.9532         0.9948         1.0365     
 1316.2788        13.0884       143.1624        68.4859         0.9907         1.0454     
 1316.4312        13.1430       143.8690        68.6600         0.9835         1.0425     
 1316.5836        13.0877       144.0845        67.9204         0.9782         1.0293     
 1316.7360        13.0703       143.8956        64.6147         0.9774         1.0153     
 1316.8884        13.0741       143.5093        63.7394         0.9763         1.0092     
 1317.0408        13.1149       142.7697        62.9230         0.9741         1.0072     
 1317.1932        13.1266       142.3782        62.3408         0.9691         1.0070     
 1317.3456        13.1451       141.8149        60.9137         0.9668         1.0089     
 1317.4980        13.1612       141.1388        60.8291         0.9669         1.0094     
 1317.6504        13.1646       140.9915        60.3290         0.9658         1.0092     
 1317.8028        13.1699       140.9153        66.7280         0.9679         1.0072     
 1317.9552        13.1655       141.1043        70.2428         0.9689         1.0049     
 1318.1076        13.1635       141.4053        72.2239         0.9691         1.0057     
 1318.2600        13.1572       141.1942        69.2667         0.9709         1.0061     
 1318.4124        13.1509       141.1250        68.9309         0.9702         1.0067     
 1318.5648        13.1612       141.1166        70.0930         0.9675         1.0068     
 1318.7172        13.1614       141.0485        70.2983         0.9630         1.0054     
 1318.8696        13.1285       141.3481        71.6374         0.9581         0.9967     
 1319.0220        13.0799       141.8849        71.7327         0.9472         0.9891     
 1319.1744        13.0645       142.0253        70.5713         0.9426         0.9794     
 1319.3268        13.0673       142.2724        65.8181         0.9399         0.9704     
 1319.4792        13.0512       141.9668        64.6959         0.9291         0.9693     
 1319.6316        13.0469       141.8335        64.9844         0.9165         0.9636     
 1319.7840        13.0479       141.2727        67.0650         0.9144         0.9605     
 1319.9364        13.0602       140.1272        65.9264         0.9160         0.9616     
 1320.0888        13.0689       139.8332        65.0112         0.9164         0.9728     
 1320.2412        13.0708       139.3479        64.1874         0.9174         0.9745     
 1320.3936        13.0762       138.9960        67.5768         0.9271         0.9763     
 1320.5460        13.0738       138.2963        69.8982         0.9392         0.9872     
 1320.6984        13.0989       137.1349        70.7605         0.9465         1.0004     
 1320.8508        13.1378       136.8703        69.9704         0.9577         1.0076     
 1321.0032        13.1198       135.6794        70.8498         0.9699         1.0189     
 1321.1556        13.0804       135.4444        71.7171         0.9840         1.0380     
