~Version Information Section
VERS.          2.0                                     : CWLS LOG ASCII Standard
WRAP.          NO                                      : One line per depth step
CREA.          18/09/15                                : LAS Creation Date
~Well Information Section
STRT.m         811.6824                                : Start Depth
STOP.m         2310.6888                               : Stop Depth
STEP.m         0.1524                                  : Step
NULL.          -999.2500                               : Null Value
COMP.          BP PET DEV                              : Company
WELL.          15/13a-4Z                               : Well
FLD .          EXPLORATION                             : Field
LOC .          NORTH SEA                               : Location
LOC1.          358107.875mE 6493463.000mN              : Location (UTM)
CTRY.          UK                                      : Country
PROV.          UKCS                                    : Province
UWI .          18761                                   : UWI Number
API .                                                  : API Number
SECT.                                                  : Section
TOWN.                                                  : Township
RNGE.                                                  : Range
PDAT.          MSL                                     : Perm Datum
EPD .m         0.00                                    : Elevation
LMF .          DF                                      : Log Measured From
DMF .          DF                                      : Drill Measured From
APD .m         25.00                                   : Above Perm Datum
EKB .m         25.30                                   : Elev-Kelly Bushing
EDF .m         25.00                                   : Elev-Drill Floor
EGL .m         -147.00                                 : Elev-Ground Level (Water Depth)
TDD .m         2329.00                                 : Total Depth (Driller)
SRVC.          SCHLUMBERGER                            : Service Company
LATI.          58 33 25.58 N                           : Latitude
LONG.          00 33 40.64 E                           : Longitude
DATE.          04-19-AUG-1987                          : Logging Date
PROJ.          UKCS                                    : Project
SET .          COMP WIRE                               : Set
~Curve Information Section
DEPTH.m                                                : Depth Curve
CALI.in                                                : Caliper
DT.us/ft                                               : Delta-T
GR.gAPI                                                : Gamma Ray
ILD.ohmm                                               : Deep Induction Standard Processed Resistivity
ILM.ohmm                                               : Medium Induction Standard Processed Resistivity
~ASCII Log Data Section
# ...
 1884.5784        11.9620       107.5809        39.8664         0.4405         0.5051     
 1884.7308        11.9338       107.7604        39.7410         0.4399         0.5044     
 1884.8832        11.9441       107.8168        41.5667         0.4386         0.5007     
 1885.0356        11.9649       108.3897        43.5802         0.4377         0.4971     
 1885.1880        11.9717       108.8360        44.5117         0.4361         0.4955     
 1885.3404        11.9334       108.7258        44.1733         0.4328         0.4947     
 1885.4928        11.8733       108.5544        44.5075         0.4281         0.4917     
 1885.6452        11.8663       108.2220        45.4915         0.4228         0.4845     
 1885.7976        11.8787       108.2585        44.1495         0.4195         0.4788     
 1885.9500        11.9319       108.0872        42.1799         0.4209         0.4772     
 1886.1024        11.9384       107.7820        39.8818         0.4218         0.4801     
 1886.2548        11.8677       107.4419        40.9167         0.4216         0.4852     
 1886.4072        11.8343       107.2833        41.8775         0.4209         0.4881     
 1886.5596        11.8488       106.8067        44.1097         0.4217         0.4892     
 1886.7120        11.8751       106.1610        44.2560         0.4242         0.4907     
 1886.8644        11.9199       105.6761        44.2497         0.4295         0.4906     
 1887.0168        11.8731       105.2890        43.5145         0.4321         0.4882     
 1887.1692        11.8467       105.3990        43.1441         0.4319         0.4851     
 1887.3216        11.8443       105.5985        41.2718         0.4298         0.4834     
 1887.4740        11.8501       106.2384        39.2875         0.4274         0.4824     
 1887.6264        11.8579       106.6142        40.4302         0.4258         0.4806     
 1887.7788        11.9149       107.0120        42.8931         0.4225         0.4768     
 1887.9312        11.8673       106.8540        42.5887         0.4194         0.4740     
 1888.0836        11.8452       106.1109        41.0525         0.4180         0.4715     
 1888.2360        11.8489       105.9235        38.1260         0.4162         0.4699     
 1888.3884        11.9024       106.3121        37.0096         0.4132         0.4685     
 1888.5408        11.9313       106.8210        37.2192         0.4091         0.4670     
 1888.6932        11.9202       107.8802        39.0268         0.4028         0.4651     
 1888.8456        11.9507       108.6205        40.0852         0.3956         0.4607     
 1888.9980        12.1692       108.3464        37.7447         0.3862         0.4501     
 1889.1504        12.5230       109.1332        34.3880         0.3736         0.4374     
 1889.3028        12.1204       109.2742        31.5999         0.3641         0.4265     
 1889.4552        12.0610       108.8325        31.0251         0.3578         0.4170     
 1889.6076        12.0101       109.4269        31.5409         0.3523         0.4087     
 1889.7600        11.8691       109.0425        33.1703         0.3470         0.4032     
 1889.9124        11.8434       109.0087        34.5947         0.3426         0.4009     
 1890.0648        11.8643       108.7603        35.2575         0.3401         0.4007     
 1890.2172        11.9531       107.6983        34.8788         0.3395         0.4021     
 1890.3696        12.0111       107.4149        33.5041         0.3399         0.4031     
 1890.5220        11.8755       107.2067        33.0535         0.3418         0.4033     
 1890.6744        11.8469       107.3649        35.2251         0.3451         0.4043     
 1890.8268        11.8557       107.3171        36.7452         0.3514         0.4071     
 1890.9792        12.0998       107.5413        39.4741         0.3591         0.4110     
 1891.1316        12.2477       106.9335        38.6525         0.3634         0.4167     
 1891.2840        11.9307       106.3464        40.5206         0.3630         0.4207     
 1891.4364        11.8253       106.6169        40.2426         0.3639         0.4200     
 1891.5888        11.8329       106.4232        39.5278         0.3669         0.4200     
 1891.7412        11.9247       106.0991        38.3314         0.3711         0.4233     
 1891.8936        12.1990       105.7551        37.7159         0.3754         0.4271     
 1892.0460        12.0679       105.0966        37.6257         0.3736         0.4267     
 1892.1984        11.9533       104.4797        37.2649         0.3699         0.4263     
 1892.3508        11.8777       104.2947        36.0176         0.3680         0.4242     
 1892.5032        11.9680       104.9946        35.3130         0.3669         0.4236     
 1892.6556        12.2439       105.1682        33.8091         0.3653         0.4235     
 1892.8080        12.6653       105.5827        32.6791         0.3622         0.4224     
 1892.9604        12.8825       106.6937        31.8398         0.3595         0.4189     
 1893.1128        12.8208       106.6829        31.9567         0.3570         0.4144     
 1893.2652        12.3944       107.3765        32.5117         0.3555         0.4121     
 1893.4176        12.1078       106.1322        35.0874         0.3566         0.4117     
 1893.5700        12.0429       105.2781        36.8312         0.3583         0.4141     
 1893.7224        12.0294       104.7986        37.3613         0.3599         0.4187     
 1893.8748        12.0032       103.8888        35.1361         0.3631         0.4231     
 1894.0272        12.0980       104.0597        33.0483         0.3662         0.4274     
 1894.1796        12.1214       103.9159        34.7202         0.3695         0.4313     
 1894.3320        12.1423       103.6940        35.5687         0.3763         0.4353     
 1894.4844        12.0657       103.8568        38.1662         0.3842         0.4393     
 1894.6368        11.8969       103.6437        36.5662         0.3890         0.4426     
 1894.7892        11.8530       103.1149        35.7283         0.3936         0.4465     
 1894.9416        11.8593       102.4441        34.4188         0.3966         0.4517     
 1895.0940        11.9322       102.2153        33.8668         0.3989         0.4562     
 1895.2464        11.8811       102.2206        33.6556         0.4005         0.4580     
 1895.3988        12.0058       102.0904        32.5851         0.4000         0.4591     
 1895.5512        11.8860       102.5695        32.8587         0.3997         0.4587     
 1895.7036        11.9505       103.3365        32.8005         0.3998         0.4582     
 1895.8560        12.2218       103.5482        33.7256         0.3999         0.4589     
 1896.0084        12.0687       104.0067        36.2884         0.3995         0.4600     
 1896.1608        12.1212       103.5429        38.7708         0.4006         0.4593     
 1896.3132        12.1324       103.0351        39.2454         0.4000         0.4621     
 1896.4656        11.8974       103.0233        38.5278         0.3976         0.4656     
 1896.6180        11.8801       103.4155        39.7174         0.3958         0.4659     
 1896.7704        12.1686       103.6797        40.8294         0.3949         0.4632     
 1896.9228        12.4066       104.5537        39.9623         0.3938         0.4606     
 1897.0752        12.3260       104.9111        37.3114         0.3937         0.4594     
 1897.2276        12.0340       105.0609        35.8966         0.3933         0.4580     
 1897.3800        12.1963       105.3169        34.4621         0.3940         0.4565     
 1897.5324        12.0588       105.3317        34.7950         0.4017         0.4599     
 1897.6848        12.2799       105.0338        37.6117         0.4165         0.4779     
 1897.8372        12.4070       106.8591        45.4556         0.4312         0.5031     
