~Version Information Section
VERS.          2.0                                     : CWLS LOG ASCII Standard
WRAP.          NO                                      : One line per depth step
CREA.          18/09/15                                : LAS Creation Date
~Well Information Section
STRT.m         811.6824                                : Start Depth
STOP.m         2310.6888                               : Stop Depth
STEP.m         0.1524                                  : Step
NULL.          -999.2500                               : Null Value
COMP.          BP PET DEV                              : Company
WELL.          15/13a-4Z                               : Well
FLD .          EXPLORATION                             : Field
LOC .          NORTH SEA                               : Location
LOC1.          358107.875mE 6493463.000mN              : Location (UTM)
CTRY.          UK                                      : Country
PROV.          UKCS                                    : Province
UWI .          18761                                   : UWI Number
API .                                                  : API Number
SECT.                                                  : Section
TOWN.                                                  : Township
RNGE.                                                  : Range
PDAT.          MSL                                     : Perm Datum
EPD .m         0.00                                    : Elevation
LMF .          DF                                      : Log Measured From
DMF .          DF                                      : Drill Measured From
APD .m         25.00                                   : Above Perm Datum
EKB .m         25.30                                   : Elev-Kelly Bushing
EDF .m         25.00                                   : Elev-Drill Floor
EGL .m         -147.00                                 : Elev-Ground Level (Water Depth)
TDD .m         2329.00                                 : Total Depth (Driller)
SRVC.          SCHLUMBERGER                            : Service Company
LATI.          58 33 25.58 N                           : Latitude
LONG.          00 33 40.64 E                           : Longitude
DATE.          04-19-AUG-1987                          : Logging Date
PROJ.          UKCS                                    : Project
SET .          COMP WIRE                               : Set
~Curve Information Section
DEPTH.m                                                : Depth Curve
CALI.in                                                : Caliper
DT.us/ft                                               : Delta-T
GR.gAPI                                                : Gamma Ray
ILD.ohmm                                               : Deep Induction Standard Processed Resistivity
ILM.ohmm                                               : Medium Induction Standard Processed Resistivity
~ASCII Log Data Section
# ...
 1978.4568        11.7862       105.0079        35.0136         0.3746         0.4301     
 1978.6092        11.7750       106.0096        35.9941         0.3855         0.4356     
 1978.7616        11.8075       108.6394        36.9622         0.3993         0.4477     
 1978.9140        11.8193       109.9775        38.2557         0.4210         0.4627     
 1979.0664        11.8200       110.0462        34.9735         0.4411         0.4826     
 1979.2188        11.7999       108.5191        34.7506         0.4503         0.4922     
 1979.3712        11.7969       106.8764        35.6991         0.4542         0.4924     
 1979.5236        11.7971       105.2051        37.1255         0.4566         0.4896     
 1979.6760        11.8106       103.9640        37.9743         0.4553         0.4856     
 1979.8284        11.8193       103.4677        38.7078         0.4467         0.4788     
 1979.9808        11.8196       102.3336        40.0317         0.4300         0.4681     
 1980.1332        11.7798       101.0998        41.8430         0.4164         0.4593     
 1980.2856        11.7809       100.7479        40.7802         0.4078         0.4560     
 1980.4380        11.8152       102.0896        40.9500         0.4013         0.4591     
 1980.5904        11.8269       104.9593        38.6381         0.3988         0.4619     
 1980.7428        11.8207       108.1380        38.7791         0.3991         0.4633     
 1980.8952        11.7865       109.2990        39.6280         0.3968         0.4642     
 1981.0476        11.7815       108.4887        39.8017         0.3944         0.4587     
 1981.2000        11.7953       106.9168        40.8390         0.3918         0.4493     
 1981.3524        11.8240       104.2511        37.6341         0.3859         0.4434     
 1981.5048        11.8341       103.2135        38.0602         0.3828         0.4410     
 1981.6572        11.8024       104.8928        38.2656         0.3841         0.4412     
 1981.8096        11.8035       107.3398        41.4310         0.3869         0.4454     
 1981.9620        11.7984       110.1211        43.3791         0.3955         0.4530     
 1982.1144        11.8168       111.1509        43.2337         0.4060         0.4658     
 1982.2668        11.8067       109.1739        42.6110         0.4169         0.4808     
 1982.4192        11.7980       107.3341        43.1784         0.4296         0.4967     
 1982.5716        11.7969       105.7512        45.7174         0.4470         0.5130     
 1982.7240        11.7974       106.5192        47.9702         0.4658         0.5275     
 1982.8764        11.8172       108.7454        48.1516         0.4821         0.5439     
 1983.0288        11.8290       111.8868        46.3301         0.4857         0.5524     
 1983.1812        11.9027       113.6738        44.9053         0.4817         0.5480     
 1983.3336        11.9379       112.5755        42.7198         0.4733         0.5352     
 1983.4860        11.8380       111.6591        42.5476         0.4575         0.5214     
 1983.6384        11.8203       110.9124        41.0671         0.4466         0.5032     
 1983.7908        11.8205       110.5717        38.8735         0.4430         0.4859     
 1983.9432        11.8260       109.6286        36.1481         0.4370         0.4830     
 1984.0956        11.7948       108.7243        34.6024         0.4273         0.4868     
 1984.2480        11.7958       107.7332        36.3655         0.4197         0.4876     
 1984.4004        11.7963       106.4921        39.6800         0.4152         0.4863     
 1984.5528        11.7779       106.0702        42.1992         0.4205         0.4920     
 1984.7052        11.8071       106.7589        43.7259         0.4346         0.5035     
 1984.8576        11.8185       105.4635        42.9753         0.4460         0.5110     
 1985.0100        11.7996       104.3717        44.3120         0.4534         0.5160     
 1985.1624        11.7773       105.2219        44.9134         0.4569         0.5209     
 1985.3148        11.7872       107.6287        44.9938         0.4578         0.5249     
 1985.4672        11.8029       110.1332        42.5005         0.4552         0.5304     
 1985.6196        11.8167       110.6567        39.5363         0.4505         0.5272     
 1985.7720        11.7800       110.5468        35.8895         0.4445         0.5126     
 1985.9244        11.7675       109.5357        34.1154         0.4393         0.4986     
 1986.0768        11.7859       108.9869        35.2314         0.4295         0.4854     
 1986.2292        11.7955       108.4406        35.4431         0.4189         0.4715     
 1986.3816        11.7904       106.4894        34.7154         0.4100         0.4602     
 1986.5340        11.7948       106.8332        33.6729         0.3990         0.4525     
 1986.6864        11.7700       107.3771        34.4817         0.3916         0.4457     
 1986.8388        11.7590       107.8711        36.7947         0.3883         0.4408     
 1986.9912        11.7590       109.4925        37.0212         0.3861         0.4407     
 1987.1436        11.7911       108.7863        36.1078         0.3838         0.4403     
 1987.2960        11.7961       105.4583        35.4514         0.3795         0.4349     
 1987.4484        11.7759       105.0607        35.1861         0.3710         0.4262     
 1987.6008        11.7474       105.8333        38.5341         0.3670         0.4168     
 1987.7532        11.7562       108.0775        41.7510         0.3656         0.4133     
 1987.9056        11.7783       111.6682        41.6588         0.3620         0.4128     
 1988.0580        11.7935       112.4299        38.7573         0.3562         0.4116     
 1988.2104        11.7701       111.6483        37.4541         0.3474         0.4055     
 1988.3628        11.7592       111.4056        38.4614         0.3407         0.3964     
 1988.5152        11.7653       110.3394        38.4247         0.3367         0.3883     
 1988.6676        11.7858       109.2731        37.8514         0.3345         0.3842     
 1988.8200        11.7957       108.7494        38.4887         0.3324         0.3816     
 1988.9724        11.7960       107.3281        40.4379         0.3303         0.3794     
 1989.1248        11.7762       106.0855        40.0884         0.3274         0.3781     
 1989.2772        11.7533       106.3918        38.5473         0.3244         0.3768     
 1989.4296        11.7445       107.4418        38.1854         0.3226         0.3763     
 1989.5820        11.7695       108.8705        36.6091         0.3231         0.3766     
 1989.7344        11.7924       111.1443        36.2745         0.3252         0.3772     
 1989.8868        11.7750       112.0950        35.3927         0.3287         0.3784     
 1990.0392        11.7280       111.3327        34.8497         0.3336         0.3799     
 1990.1916        11.7398       110.6934        36.4063         0.3385         0.3814     
 1990.3440        11.7686       109.1053        36.2093         0.3436         0.3853     
 1990.4964        11.7716       108.8870        36.3421         0.3473         0.3913     
 1990.6488        11.7338       109.3191        34.9102         0.3501         0.3961     
 1990.8012        11.7266       108.7174        33.5572         0.3519         0.3979     
 1990.9536        11.7263       107.8620        34.5274         0.3523         0.3968     
 1991.1060        11.7190       107.2277        34.9248         0.3515         0.3946     
 1991.2584        11.7005       107.2230        35.7027         0.3498         0.3930     
 1991.4108        11.7289       107.1143        33.2036         0.3472         0.3920     
 1991.5632        11.7463       107.5343        30.5070         0.3442         0.3918     
 1991.7156        11.7255       107.5822        30.1692         0.3411         0.3919     
