~Version Information Section
VERS.          2.0                                     : CWLS LOG ASCII Standard
WRAP.          NO                                      : One line per depth step
CREA.          18/09/15                                : LAS Creation Date
~Well Information Section
STRT.m         811.6824                                : Start Depth
STOP.m         2310.6888                               : Stop Depth
STEP.m         0.1524                                  : Step
NULL.          -999.2500                               : Null Value
COMP.          BP PET DEV                              : Company
WELL.          15/13a-4Z                               : Well
FLD .          EXPLORATION                             : Field
LOC .          NORTH SEA                               : Location
LOC1.          358107.875mE 6493463.000mN              : Location (UTM)
CTRY.          UK                                      : Country
PROV.          UKCS                                    : Province
UWI .          18761                                   : UWI Number
API .                                                  : API Number
SECT.                                                  : Section
TOWN.                                                  : Township
RNGE.                                                  : Range
PDAT.          MSL                                     : Perm Datum
EPD .m         0.00                                    : Elevation
LMF .          DF                                      : Log Measured From
DMF .          DF                                      : Drill Measured From
APD .m         25.00                                   : Above Perm Datum
EKB .m         25.30                                   : Elev-Kelly Bushing
EDF .m         25.00                                   : Elev-Drill Floor
EGL .m         -147.00                                 : Elev-Ground Level (Water Depth)
TDD .m         2329.00                                 : Total Depth (Driller)
SRVC.          SCHLUMBERGER                            : Service Company
LATI.          58 33 25.58 N                           : Latitude
LONG.          00 33 40.64 E                           : Longitude
DATE.          04-19-AUG-1987                          : Logging Date
PROJ.          UKCS                                    : Project
SET .          COMP WIRE                               : Set
~Curve Information Section
DEPTH.m                                                : Depth Curve
CALI.in                                                : Caliper
DT.us/ft                                               : Delta-T
GR.gAPI                                                : Gamma Ray
ILD.ohmm                                               : Deep Induction Standard Processed Resistivity
ILM.ohmm                                               : Medium Induction Standard Processed Resistivity
~ASCII Log Data Section
# ...
 1696.8216        12.8306       137.7164        64.4299         0.7109         0.7714     
 1696.9740        12.9802       137.0851        61.1073         0.7117         0.7766     
 1697.1264        13.6893       136.7668        60.4937         0.7143         0.7791     
 1697.2788        13.0279       136.1940        62.6631         0.7200         0.7807     
 1697.4312        12.8770       135.4504        65.6706         0.7222         0.7819     
 1697.5836        12.8957       134.4067        66.5894         0.7209         0.7833     
 1697.7360        12.9181       133.9232        62.4723         0.7192         0.7817     
 1697.8884        12.9144       133.6414        61.1510         0.7173         0.7788     
 1698.0408        12.8934       133.1027        62.1192         0.7184         0.7797     
 1698.1932        12.8718       133.2251        63.6608         0.7214         0.7815     
 1698.3456        12.8950       133.5471        63.2221         0.7245         0.7893     
 1698.4980        12.9321       133.1082        58.7628         0.7255         0.7938     
 1698.6504        12.9496       133.3264        59.3043         0.7249         0.7962     
 1698.8028        12.9249       133.5822        58.4425         0.7214         0.7972     
 1698.9552        12.8830       133.5554        60.7206         0.7215         0.7937     
 1699.1076        12.8954       134.3469        60.2810         0.7257         0.7896     
 1699.2600        12.9137       134.4726        62.6419         0.7310         0.7909     
 1699.4124        12.9586       133.8378        63.1113         0.7407         0.7961     
 1699.5648        12.9274       133.0552        62.1625         0.7501         0.8075     
 1699.7172        12.8814       131.5931        60.5728         0.7527         0.8272     
 1699.8696        12.8561       130.6592        61.8298         0.7512         0.8444     
 1700.0220        12.8761       131.1332        62.6024         0.7436         0.8421     
 1700.1744        12.9758       133.5785        61.0058         0.7413         0.8189     
 1700.3268        12.8941       136.7460        57.1930         0.7396         0.8008     
 1700.4792        12.8684       137.7214        55.1628         0.7358         0.7895     
 1700.6316        12.8675       138.7954        54.8079         0.7258         0.7789     
 1700.7840        12.8738       138.7841        55.5915         0.7050         0.7660     
 1700.9364        12.8756       138.6693        57.8205         0.6888         0.7530     
 1701.0888        12.8876       139.1572        58.4760         0.6803         0.7399     
 1701.2412        12.8768       139.3301        60.4625         0.6769         0.7334     
 1701.3936        12.8625       138.8384        60.3977         0.6789         0.7358     
 1701.5460        12.8735       138.5344        60.6670         0.6817         0.7404     
 1701.6984        12.8944       138.3896        59.2090         0.6844         0.7460     
 1701.8508        12.8909       138.2491        62.5246         0.6885         0.7530     
 1702.0032        12.8706       137.7825        65.7219         0.6937         0.7569     
 1702.1556        12.8616       136.8293        66.5161         0.6969         0.7585     
 1702.3080        12.8801       137.1717        63.8834         0.6969         0.7553     
 1702.4604        12.9018       137.6917        64.4307         0.6963         0.7499     
 1702.6128        12.8925       138.2383        65.9408         0.6936         0.7461     
 1702.7652        12.8775       139.5718        65.3918         0.6882         0.7435     
 1702.9176        12.8760       138.9757        63.9694         0.6816         0.7406     
 1703.0700        12.8954       137.7204        64.2142         0.6769         0.7351     
 1703.2224        12.9112       137.4945        66.1142         0.6746         0.7304     
 1703.3748        12.9061       137.3732        64.2967         0.6764         0.7302     
 1703.5272        12.8800       136.9939        63.3813         0.6808         0.7350     
 1703.6796        12.8753       137.5428        61.7824         0.6830         0.7398     
 1703.8320        12.8826       136.4756        66.8094         0.6807         0.7431     
 1703.9844        12.9021       135.9637        71.1389         0.6774         0.7407     
 1704.1368        12.8993       136.4102        72.4164         0.6745         0.7358     
 1704.2892        12.8912       136.7541        69.4078         0.6730         0.7298     
 1704.4416        12.8779       137.5875        65.2859         0.6712         0.7232     
 1704.5940        12.8826       137.7500        65.4322         0.6692         0.7197     
 1704.7464        12.9032       137.7326        64.3795         0.6663         0.7204     
 1704.8988        12.9186       137.4419        61.2824         0.6644         0.7229     
 1705.0512        12.9073       137.4796        57.2152         0.6644         0.7256     
 1705.2036        12.8809       137.5352        56.5960         0.6677         0.7284     
 1705.3560        12.8895       138.1150        60.9697         0.6723         0.7317     
 1705.5084        12.9156       138.0352        64.6655         0.6771         0.7368     
 1705.6608        12.9016       137.9253        66.1331         0.6794         0.7399     
 1705.8132        12.8843       138.4030        66.5185         0.6807         0.7395     
 1705.9656        12.8632       138.6044        68.3415         0.6788         0.7378     
 1706.1180        12.8590       138.6189        70.6153         0.6780         0.7356     
 1706.2704        12.8529       138.5326        67.9081         0.6766         0.7347     
 1706.4228        12.8516       138.6468        66.2294         0.6762         0.7332     
 1706.5752        12.8485       137.6534        64.7433         0.6772         0.7338     
 1706.7276        12.8006       136.4749        67.4046         0.6799         0.7364     
 1706.8800        12.8101       134.8359        68.5214         0.6822         0.7412     
 1707.0324        12.8385       133.1271        69.4634         0.6844         0.7456     
 1707.1848        12.8434       130.5547        69.9507         0.6898         0.7488     
 1707.3372        12.8353       129.3360        70.8461         0.6990         0.7536     
 1707.4896        12.8046       129.9417        68.1219         0.7043         0.7616     
 1707.6420        12.8176       131.6018        66.6731         0.7072         0.7662     
 1707.7944        12.8402       134.2065        67.4539         0.7093         0.7661     
 1707.9468        12.8503       135.6781        71.2626         0.7102         0.7650     
 1708.0992        12.8499       136.1154        72.4848         0.7077         0.7630     
 1708.2516        12.8268       136.7145        70.5635         0.7006         0.7574     
 1708.4040        12.8406       137.8931        70.8549         0.6925         0.7483     
 1708.5564        12.8575       138.1506        71.3005         0.6854         0.7384     
 1708.7088        12.8724       138.5800        72.6058         0.6804         0.7299     
 1708.8612        12.8730       139.2352        70.5952         0.6789         0.7261     
 1709.0136        12.8430       139.0685        68.8499         0.6809         0.7278     
 1709.1660        12.8433       137.4558        67.1354         0.6854         0.7356     
 1709.3184        12.8571       135.4202        65.5840         0.6893         0.7452     
 1709.4708        12.8667       133.9344        68.1601         0.6954         0.7573     
 1709.6232        12.8776       131.5031        67.9315         0.6998         0.7672     
 1709.7756        12.8418       131.3014        68.8926         0.7016         0.7674     
 1709.9280        12.8035       132.7289        66.5322         0.7021         0.7612     
 1710.0804        12.7977       133.2991        65.9230         0.7030         0.7532     
