~Version Information Section
VERS.          2.0                                     : CWLS LOG ASCII Standard
WRAP.          NO                                      : One line per depth step
CREA.          18/09/15                                : LAS Creation Date
~Well Information Section
STRT.m         811.6824                                : Start Depth
STOP.m         2310.6888                               : Stop Depth
STEP.m         0.1524                                  : Step
NULL.          -999.2500                               : Null Value
COMP.          BP PET DEV                              : Company
WELL.          15/13a-4Z                               : Well
FLD .          EXPLORATION                             : Field
LOC .          NORTH SEA                               : Location
LOC1.          358107.875mE 6493463.000mN              : Location (UTM)
CTRY.          UK                                      : Country
PROV.          UKCS                                    : Province
UWI .          18761                                   : UWI Number
API .                                                  : API Number
SECT.                                                  : Section
TOWN.                                                  : Township
RNGE.                                                  : Range
PDAT.          MSL                                     : Perm Datum
EPD .m         0.00                                    : Elevation
LMF .          DF                                      : Log Measured From
DMF .          DF                                      : Drill Measured From
APD .m         25.00                                   : Above Perm Datum
EKB .m         25.30                                   : Elev-Kelly Bushing
EDF .m         25.00                                   : Elev-Drill Floor
EGL .m         -147.00                                 : Elev-Ground Level (Water Depth)
TDD .m         2329.00                                 : Total Depth (Driller)
SRVC.          SCHLUMBERGER                            : Service Company
LATI.          58 33 25.58 N                           : Latitude
LONG.          00 33 40.64 E                           : Longitude
DATE.          04-19-AUG-1987                          : Logging Date
PROJ.          UKCS                                    : Project
SET .          COMP WIRE                               : Set
~Curve Information Section
DEPTH.m                                                : Depth Curve
CALI.in                                                : Caliper
DT.us/ft                                               : Delta-T
GR.gAPI                                                : Gamma Ray
ILD.ohmm                                               : Deep Induction Standard Processed Resistivity
ILM.ohmm                                               : Medium Induction Standard Processed Resistivity
~ASCII Log Data Section
# ...
 2085.7464        12.9026        68.5201        27.0814         3.2025         3.4010     
 2085.8988        12.8441        72.1982        31.8063         3.2035         3.4501     
 2086.0512        12.6221        76.6538        34.4243         3.1853         3.4659     
 2086.2036        12.5662        79.0635        40.3983         3.1486         3.4552     
 2086.3560        12.6384        79.6987        39.3082         3.0868         3.4022     
 2086.5084        12.7037        80.1369        40.4994         2.9251         3.2218     
 2086.6608        12.7799        81.1809        36.8795         2.6715         2.9741     
 2086.8132        12.7408        84.8438        37.0923         2.4439         2.6807     
 2086.9656        12.5965        88.4018        38.2356         2.2190         2.3608     
 2087.1180        12.6196        92.0732        40.4198         1.9435         1.9923     
 2087.2704        12.5490       100.2925        45.2193         1.6976         1.7673     
 2087.4228        12.5253       105.1205        47.1370         1.5349         1.6261     
 2087.5752        12.6890       106.0665        50.8170         1.3889         1.4713     
 2087.7276        12.7109       107.5047        53.4888         1.2491         1.3285     
 2087.8800        12.7800       107.3006        60.4698         1.1456         1.2134     
 2088.0324        12.5821       107.5259        66.0072         1.0274         1.1185     
 2088.1848        12.5271       105.7413        71.9231         0.9018         1.0083     
 2088.3372        12.6269       109.5831        68.1557         0.7984         0.8862     
 2088.4896        12.6752       115.3200        60.5989         0.6947         0.7873     
 2088.6420        12.7073       118.0420        51.4644         0.6176         0.7012     
 2088.7944        12.6971       119.8578        47.4500         0.5692         0.6337     
 2088.9468        12.9781       120.2832        43.1173         0.5378         0.5998     
 2089.0992        12.9604       111.9120        43.0635         0.5164         0.5831     
 2089.2516        14.5351       102.6883        47.5187         0.5130         0.5770     
 2089.4040        13.4314       107.9165        51.7638         0.5236         0.5904     
 2089.5564        13.0440       109.7434        50.4288         0.5381         0.6246     
 2089.7088        12.9328       111.0340        48.0352         0.5624         0.6649     
 2089.8612        13.0048       114.2836        48.0817         0.6021         0.7020     
 2090.0136        13.2364       106.9595        51.3542         0.6425         0.7232     
 2090.1660        13.4795       104.1163        52.8298         0.6560         0.7299     
 2090.3184        13.7079       104.8684        55.7282         0.6628         0.7212     
 2090.4708        13.7275       105.7739        56.7018         0.6667         0.7164     
 2090.6232        14.3198       105.7646        58.2990         0.6672         0.7163     
 2090.7756        13.5292       105.4189        57.6722         0.6664         0.7232     
 2090.9280        13.2209       104.8231        56.5139         0.6569         0.7352     
 2091.0804        13.3197       106.4636        54.2468         0.6375         0.7276     
 2091.2328        13.2669       108.4560        48.2486         0.6361         0.7128     
 2091.3852        13.1750       111.4470        46.0375         0.6403         0.6888     
 2091.5376        12.9502       112.0884        42.9745         0.6546         0.6815     
 2091.6900        14.1562       110.9113        41.7663         0.6768         0.6994     
 2091.8424        15.5293       108.6498        40.3851         0.7048         0.7199     
 2091.9948        13.2730       104.7877        42.3435         0.7039         0.7529     
 2092.1472        12.8428       101.1122        46.7081         0.6957         0.7847     
 2092.2996        12.7799       102.8390        45.7053         0.6812         0.7869     
 2092.4520        12.8840       105.2252        42.7919         0.6520         0.7661     
 2092.6044        12.5121       107.7076        43.1274         0.6173         0.7125     
 2092.7568        12.4747       111.2561        43.7430         0.5942         0.6461     
 2092.9092        12.4904       112.4601        44.5575         0.5731         0.5730     
 2093.0616        12.8999       111.8990        44.8498         0.5408         0.5408     
 2093.2140        12.3589       110.1542        49.1314         0.5070         0.5352     
 2093.3664        12.4675       107.5092        51.1776         0.4979         0.5414     
 2093.5188        12.3335       104.7040        50.9611         0.5054         0.5701     
 2093.6712        12.2849       102.6093        48.1198         0.5318         0.6253     
 2093.8236        12.5230       100.8828        50.4857         0.5632         0.6738     
 2093.9760        12.5823        98.2592        54.2931         0.5956         0.7038     
 2094.1284        12.3169       100.3106        59.7997         0.6181         0.7303     
 2094.2808        12.2813       101.8389        57.3788         0.6186         0.7288     
 2094.4332        12.3089       104.2660        55.7805         0.5988         0.7000     
 2094.5856        12.0710       108.2050        53.8865         0.5772         0.6548     
 2094.7380        12.5496       109.4049        56.3053         0.5575         0.6167     
 2094.8904        12.6793       111.1004        59.0017         0.5391         0.5988     
 2095.0428        12.3350       110.2067        56.1611         0.5242         0.5944     
 2095.1952        12.4757       108.5697        52.3498         0.5201         0.6001     
 2095.3476        12.3620       108.9822        48.1250         0.5243         0.6122     
 2095.5000        12.3162       107.9035        46.7972         0.5379         0.6272     
 2095.6524        12.2021       106.4255        50.0816         0.5591         0.6436     
 2095.8048        12.1460       107.2450        49.5639         0.5792         0.6586     
 2095.9572        12.1682       107.1542        51.3139         0.5882         0.6682     
 2096.1096        12.0546       109.0014        49.5757         0.5879         0.6710     
 2096.2620        12.1080       110.7401        48.5950         0.5838         0.6653     
 2096.4144        12.0688       110.9375        49.1081         0.5794         0.6524     
 2096.5668        12.4557       109.7785        47.8629         0.5736         0.6387     
 2096.7192        12.8734       111.4462        50.5849         0.5688         0.6321     
 2096.8716        12.1287       111.4116        49.4790         0.5614         0.6355     
 2097.0240        12.1892       112.4803        45.9652         0.5504         0.6329     
 2097.1764        12.1419       113.7303        42.6297         0.5342         0.6241     
 2097.3288        12.1328       113.7646        41.7533         0.5165         0.6142     
 2097.4812        12.1259       112.5361        46.4880         0.5013         0.6026     
 2097.6336        12.2422       110.9958        47.4560         0.4866         0.5826     
 2097.7860        13.1352       112.9679        49.2133         0.4702         0.5664     
 2097.9384        12.2704       114.1882        49.3823         0.4616         0.5509     
 2098.0908        12.0509       115.3611        49.8993         0.4590         0.5414     
 2098.2432        12.0460       116.7693        48.9202         0.4613         0.5476     
 2098.3956        12.1160       113.7861        49.3341         0.4772         0.5743     
 2098.5480        12.4769       107.4686        48.4127         0.5040         0.6192     
 2098.7004        12.4751       103.1554        47.9225         0.5232         0.6686     
 2098.8528        12.1790        98.2172        45.7778         0.5509         0.7244     
 2099.0052        12.1268        85.2979        41.0501         0.5879         0.7780     
