~Version Information Section
VERS.          2.0                                     : CWLS LOG ASCII Standard
WRAP.          NO                                      : One line per depth step
CREA.          18/09/15                                : LAS Creation Date
~Well Information Section
STRT.m         811.6824                                : Start Depth
STOP.m         2310.6888                               : Stop Depth
STEP.m         0.1524                                  : Step
NULL.          -999.2500                               : Null Value
COMP.          BP PET DEV                              : Company
WELL.          15/13a-4Z                               : Well
FLD .          EXPLORATION                             : Field
LOC .          NORTH SEA                               : Location
LOC1.          358107.875mE 6493463.000mN              : Location (UTM)
CTRY.          UK                                      : Country
PROV.          UKCS                                    : Province
UWI .          18761                                   : UWI Number
API .                                                  : API Number
SECT.                                                  : Section
TOWN.                                                  : Township
RNGE.                                                  : Range
PDAT.          MSL                                     : Perm Datum
EPD .m         0.00                                    : Elevation
LMF .          DF                                      : Log Measured From
DMF .          DF                                      : Drill Measured From
APD .m         25.00                                   : Above Perm Datum
EKB .m         25.30                                   : Elev-Kelly Bushing
EDF .m         25.00                                   : Elev-Drill Floor
EGL .m         -147.00                                 : Elev-Ground Level (Water Depth)
TDD .m         2329.00                                 : Total Depth (Driller)
SRVC.          SCHLUMBERGER                            : Service Company
LATI.          58 33 25.58 N                           : Latitude
LONG.          00 33 40.64 E                           : Longitude
DATE.          04-19-AUG-1987                          : Logging Date
PROJ.          UKCS                                    : Project
SET .          COMP WIRE                               : Set
~Curve Information Section
DEPTH.m                                                : Depth Curve
CALI.in                                                : Caliper
DT.us/ft                                               : Delta-T
GR.gAPI                                                : Gamma Ray
ILD.ohmm                                               : Deep Induction Standard Processed Resistivity
ILM.ohmm                                               : Medium Induction Standard Processed Resistivity
~ASCII Log Data Section
# ...
  918.9720        15.4755       148.1819        22.0116         0.5781         0.6478     
  919.1244        15.3927       149.4671        23.5757         0.5838         0.6542     
  919.2768        15.8176       149.6179        22.4418         0.5916         0.6607     
  919.4292        16.4109       148.9649        22.7778         0.5890         0.6700     
  919.5816        16.7980       148.4280        21.3139         0.5845         0.6678     
  919.7340        16.7712       147.3722        20.7516         0.5855         0.6646     
  919.8864        16.3134       145.2828        20.6758         0.5903         0.6666     
  920.0388        16.1677       145.3359        20.6631         0.6028         0.6771     
  920.1912        16.1290       146.2480        19.6505         0.6042         0.6919     
  920.3436        16.1388       145.9391        20.2280         0.5967         0.6978     
  920.4960        16.1551       146.2173        18.7905         0.5892         0.6859     
  920.6484        16.2672       148.1096        19.8010         0.5906         0.6732     
  920.8008        16.4732       147.7172        18.6998         0.5948         0.6699     
  920.9532        16.4848       147.7309        19.3228         0.5990         0.6761     
  921.1056        16.2371       147.0832        19.0106         0.6040         0.6970     
  921.2580        16.1757       145.5585        18.7170         0.6080         0.7016     
  921.4104        16.1722       142.7363        18.1604         0.6144         0.6962     
  921.5628        16.2410       142.0479        17.0201         0.6224         0.6959     
  921.7152        16.3467       142.7696        16.6043         0.6275         0.7136     
  921.8676        16.4696       142.6589        17.8438         0.6276         0.7195     
  922.0200        16.5124       143.9526        18.4895         0.6263         0.7133     
  922.1724        16.7088       146.3391        20.6376         0.6243         0.7046     
  922.3248        16.8718       151.4751        19.4077         0.6214         0.6938     
  922.4772        16.6976       152.1244        20.0848         0.6191         0.6812     
  922.6296        16.6164       151.6833        19.9559         0.6132         0.6649     
  922.7820        16.3058       151.1835        20.9153         0.6046         0.6545     
  922.9344        15.6997       147.5912        20.7432         0.5975         0.6458     
  923.0868        15.0035       147.2355        20.1507         0.5914         0.6393     
  923.2392        14.3768       147.2500        18.2428         0.5875         0.6399     
  923.3916        14.2150       146.4772        17.9586         0.5858         0.6413     
  923.5440        14.2100       146.2646        17.4286         0.5904         0.6457     
  923.6964        14.2316       144.8144        21.5144         0.6032         0.6628     
  923.8488        14.2344       144.6250        23.8846         0.6200         0.6976     
  924.0012        14.2344       144.0728        24.3873         0.6384         0.7247     
  924.1536        14.2137       148.0860        24.7118         0.6564         0.7487     
  924.3060        14.2178       152.4897        23.5078         0.6699         0.7616     
  924.4584        13.9910       154.7665        24.8895         0.6753         0.7715     
  924.6108        13.9471       155.4417        25.5769         0.6718         0.7667     
  924.7632        13.9315       153.7331        25.5992         0.6604         0.7326     
  924.9156        13.9573       151.6227        24.0477         0.6439         0.6937     
  925.0680        13.8505       149.1671        21.2633         0.6231         0.6643     
  925.2204        13.7186       146.4463        21.6946         0.6011         0.6428     
  925.3728        13.6893       146.1250        22.8180         0.5781         0.6241     
  925.5252        13.6875       145.1312        22.7599         0.5620         0.6091     
  925.6776        13.3355       144.1165        21.9890         0.5501         0.6036     
  925.8300        13.6549       145.7669        19.5715         0.5422         0.6011     
  925.9824        14.3312       147.5461        19.1966         0.5374         0.6000     
  926.1348        14.5728       147.5291        20.1951         0.5367         0.5973     
  926.2872        14.4902       147.3896        22.1225         0.5420         0.5964     
  926.4396        14.3524       145.7188        21.1035         0.5487         0.6038     
  926.5920        14.1496       145.0583        19.8884         0.5520         0.6133     
  926.7444        13.8213       145.1104        19.7362         0.5555         0.6214     
  926.8968        13.5466       146.0085        21.2252         0.5593         0.6251     
  927.0492        13.4328       148.2225        21.6841         0.5628         0.6304     
  927.2016        13.3046       149.8247        21.5118         0.5702         0.6377     
  927.3540        13.2960       149.8896        21.7880         0.5773         0.6447     
  927.5064        13.3383       150.4271        21.3588         0.5787         0.6472     
  927.6588        13.3230       151.0521        21.8076         0.5770         0.6481     
  927.8112        13.3341       150.1311        21.5989         0.5763         0.6481     
  927.9636        13.3497       148.5644        23.8678         0.5760         0.6468     
  928.1160        13.5931       148.2646        24.1719         0.5764         0.6473     
  928.2684        13.8527       151.0105        25.1933         0.5811         0.6564     
  928.4208        13.9518       154.2457        23.7134         0.5899         0.6718     
  928.5732        13.8574       156.9441        23.2377         0.5991         0.6925     
  928.7256        13.8852       157.8022        22.5267         0.6065         0.7057     
  928.8780        13.5938       155.0038        23.2934         0.6155         0.7086     
  929.0304        13.4029       151.0924        21.3640         0.6244         0.7054     
  929.1828        13.3483       148.1963        21.7837         0.6316         0.6988     
  929.3352        13.3438       144.1207        19.7632         0.6375         0.6946     
  929.4876        13.5232       141.7478        21.2649         0.6397         0.6949     
  929.6400        13.7470       140.6166        19.4158         0.6383         0.6981     
  929.7924        13.7803       141.4938        18.9060         0.6342         0.7000     
  929.9448        13.7467       142.7293        19.3996         0.6306         0.6986     
  930.0972        13.8733       142.1021        19.7310         0.6325         0.6958     
  930.2496        14.1183       142.3312        20.5109         0.6384         0.6947     
  930.4020        14.1277       142.3750        19.3256         0.6432         0.6988     
  930.5544        14.2768       141.8228        20.5229         0.6476         0.7023     
  930.7068        14.1588       144.2899        20.7445         0.6482         0.7050     
  930.8592        14.6583       146.3919        20.5291         0.6428         0.7038     
  931.0116        14.9404       147.3977        20.6794         0.6388         0.7013     
  931.1640        14.9894       147.6104        20.4133         0.6356         0.6969     
  931.3164        15.1854       145.3062        19.0638         0.6341         0.6904     
  931.4688        15.2385       142.5707        17.8830         0.6339         0.6841     
  931.6212        15.4492       140.1520        18.2331         0.6337         0.6848     
  931.7736        15.5387       141.5313        20.3949         0.6327         0.6984     
  931.9260        15.1052       143.7377        20.7271         0.6284         0.7173     
  932.0784        14.0117       148.7481        20.5273         0.6220         0.7252     
  932.2308        13.9647       152.4665        20.9968         0.6120         0.7179     
