~Version Information Section
VERS.          2.0                                     : CWLS LOG ASCII Standard
WRAP.          NO                                      : One line per depth step
CREA.          18/09/15                                : LAS Creation Date
~Well Information Section
STRT.m         811.6824                                : Start Depth
STOP.m         2310.6888                               : Stop Depth
STEP.m         0.1524                                  : Step
NULL.          -999.2500                               : Null Value
COMP.          BP PET DEV                              : Company
WELL.          15/13a-4Z                               : Well
FLD .          EXPLORATION                             : Field
LOC .          NORTH SEA                               : Location
LOC1.          358107.875mE 6493463.000mN              : Location (UTM)
CTRY.          UK                                      : Country
PROV.          UKCS                                    : Province
UWI .          18761                                   : UWI Number
API .                                                  : API Number
SECT.                                                  : Section
TOWN.                                                  : Township
RNGE.                                                  : Range
PDAT.          MSL                                     : Perm Datum
EPD .m         0.00                                    : Elevation
LMF .          DF                                      : Log Measured From
DMF .          DF                                      : Drill Measured From
APD .m         25.00                                   : Above Perm Datum
EKB .m         25.30                                   : Elev-Kelly Bushing
EDF .m         25.00                                   : Elev-Drill Floor
EGL .m         -147.00                                 : Elev-Ground Level (Water Depth)
TDD .m         2329.00                                 : Total Depth (Driller)
SRVC.          SCHLUMBERGER                            : Service Company
LATI.          58 33 25.58 N                           : Latitude
LONG.          00 33 40.64 E                           : Longitude
DATE.          04-19-AUG-1987                          : Logging Date
PROJ.          UKCS                                    : Project
SET .          COMP WIRE                               : Set
~Curve Information Section
DEPTH.m                                                : Depth Curve
CALI.in                                                : Caliper
DT.us/ft                                               : Delta-T
GR.gAPI                                                : Gamma Ray
ILD.ohmm                                               : Deep Induction Standard Processed Resistivity
ILM.ohmm                                               : Medium Induction Standard Processed Resistivity
~ASCII Log Data Section
# ...
 2286.9144         8.4894       107.5029        89.7869         0.9745         0.9920     
 2287.0668         8.3942       111.2786        97.4421         0.8796         0.9164     
 2287.2192         8.3047       119.3197       105.9195         0.8030         0.8499     
 2287.3716         8.2891       123.3503       104.1496         0.7612         0.8095     
 2287.5240         8.2891       122.0890       101.1008         0.7486         0.7966     
 2287.6764         8.2885       120.8076        96.2773         0.7500         0.8018     
 2287.8288         8.2697       115.6339        99.2484         0.7560         0.8192     
 2287.9812         8.2592       111.3460        99.5789         0.7665         0.8403     
 2288.1336         8.2578       111.5035        97.8002         0.7843         0.8585     
 2288.2860         8.2578       114.6131        92.1345         0.8106         0.8761     
 2288.4384         8.2578       115.9312        91.6067         0.8402         0.8932     
 2288.5908         8.2578       116.1588        90.8556         0.8630         0.9073     
 2288.7432         8.2576       114.8387        92.6199         0.8744         0.9157     
 2288.8956         8.2516       114.0997        95.1417         0.8810         0.9203     
 2289.0480         8.2564       110.3097        94.1077         0.8893         0.9243     
 2289.2004         8.2578       101.6553        93.5582         0.9005         0.9301     
 2289.3528         8.2576        97.5241        87.8200         0.9114         0.9360     
 2289.5052         8.2510        92.9696        84.1816         0.9213         0.9394     
 2289.6576         8.2375        89.3391        79.7413         0.9301         0.9408     
 2289.8100         8.2403        95.5568        79.0031         0.9336         0.9413     
 2289.9624         8.2295       104.0355        83.0853         0.9323         0.9409     
 2290.1148         8.2261       111.9980        89.6585         0.9261         0.9379     
 2290.2672         8.2062       118.5683        98.0191         0.9120         0.9300     
 2290.4196         7.9799       120.0012        99.9543         0.8943         0.9198     
 2290.5720         7.4489       120.0470       101.6832         0.8844         0.9124     
 2290.7244         7.1981       118.8358       102.5515         0.8841         0.9098     
 2290.8768         7.0227       118.2340       102.0502         0.8881         0.9154     
 2291.0292         6.9089       117.2500        98.1761         0.8968         0.9340     
 2291.1816         6.8680       115.1029        87.2710         0.9144         0.9641     
 2291.3340         6.8492       113.1101        76.0605         0.9450         1.0054     
 2291.4864         6.8085       113.1656        67.1302         0.9899         1.0621     
 2291.6388         6.7708       109.0933        65.0281         1.0444         1.1253     
 2291.7912         6.7252       101.5641        65.7193         1.0892         1.1802     
 2291.9436         6.6550        96.8253        64.2288         1.1136         1.2126     
 2292.0960         6.6275        94.4446        63.1614         1.1246         1.2241     
 2292.2484         6.6114        96.2936        61.8011         1.1326         1.2255     
 2292.4008         6.5854        97.6906        61.5941         1.1410         1.2222     
 2292.5532         6.5374        96.5127        61.5199         1.1457         1.2158     
 2292.7056         6.5175        96.2660        63.1338         1.1447         1.2066     
 2292.8580         6.5023        98.9124        62.6086         1.1394         1.1955     
 2293.0104         6.4097       103.6249        63.6599         1.1295         1.1902     
 2293.1628         6.3279       105.0602        66.5162         1.1164         1.1885     
 2293.3152         6.2479       106.5960        68.9235         1.1019         1.1849     
 2293.4676         6.1785       108.0257        72.6037         1.0864         1.1733     
 2293.6200         6.1156       110.4446        71.9108         1.0708         1.1462     
 2293.7724         6.0587       112.4220        73.2088         1.0562         1.1131     
 2293.9248         5.9875       111.8588        73.8462         1.0465         1.0864     
 2294.0772      -999.2500       109.2755        76.6454         1.0427         1.0701     
 2294.2296      -999.2500       108.6325        80.0661         1.0467         1.0647     
 2294.3820      -999.2500       109.7324        82.0098         1.0650         1.0761     
 2294.5344      -999.2500       109.3919        84.8799         1.1040         1.1150     
 2294.6868      -999.2500       108.8260        89.3785         1.1582         1.1782     
 2294.8392      -999.2500       105.6645        93.5405         1.2207         1.2566     
 2294.9916      -999.2500        95.2586        98.9798         1.2900         1.3510     
 2295.1440      -999.2500        85.9809        97.4171         1.3650         1.4512     
 2295.2964      -999.2500        80.3546        89.2156         1.4427         1.5413     
 2295.4488      -999.2500        77.5871        73.4635         1.5204         1.6197     
 2295.6012      -999.2500        79.7232        65.2794         1.6066         1.6940     
 2295.7536      -999.2500        84.3513        64.7758         1.7006         1.7589     
 2295.9060      -999.2500        87.6687        69.5824         1.7742         1.8075     
 2296.0584      -999.2500        89.0487        77.7269         1.8059         1.8392     
 2296.2108      -999.2500        90.1622        89.4864         1.8105         1.8672     
 2296.3632      -999.2500        89.9454       101.6821         1.8090         1.9041     
 2296.5156      -999.2500        88.5638       103.2190         1.8087         1.9441     
 2296.6680      -999.2500        87.2763       104.6137         1.8110         1.9710     
 2296.8204      -999.2500        86.1415       108.9655         1.8122         1.9809     
 2296.9728      -999.2500        87.1123       117.4415         1.8091         1.9767     
 2297.1252      -999.2500        91.9652       120.0967         1.8026         1.9544     
 2297.2776      -999.2500        99.2304       111.8131         1.7915         1.9133     
 2297.4300      -999.2500       100.0915       102.8764         1.7724         1.8681     
 2297.5824      -999.2500       101.4669        91.1192         1.7443         1.8318     
 2297.7348      -999.2500       103.6093        82.7562         1.7045         1.8030     
 2297.8872      -999.2500       102.8661        77.2732         1.6556         1.7723     
 2298.0396      -999.2500       101.7014        73.1091         1.6076         1.7354     
 2298.1920      -999.2500       101.6662        73.6412         1.5688         1.6941     
 2298.3444      -999.2500       103.3019        74.0986         1.5422         1.6533     
 2298.4968      -999.2500       105.3289        75.9031         1.5234         1.6190     
 2298.6492      -999.2500       105.6953        76.2099         1.5090         1.5964     
 2298.8016      -999.2500       104.9270        73.0930         1.4954         1.5840     
 2298.9540      -999.2500       109.3753        70.7000         1.4844         1.5781     
 2299.1064      -999.2500      -999.2500        67.0845         1.4793         1.5767     
 2299.2588      -999.2500      -999.2500        64.1148         1.4777         1.5832     
 2299.4112      -999.2500      -999.2500        62.7951         1.4775         1.6003     
 2299.5636      -999.2500      -999.2500        60.7391         1.4775         1.6170     
 2299.7160      -999.2500      -999.2500        58.2459         1.4776         1.6232     
 2299.8684      -999.2500      -999.2500        54.6741         1.4784         1.6223     
 2300.0208      -999.2500      -999.2500        54.9487         1.4795         1.6199     
 2300.1732      -999.2500      -999.2500        56.1186         1.4846         1.6230     
