~Version Information Section
VERS.          2.0                                     : CWLS LOG ASCII Standard
WRAP.          NO                                      : One line per depth step
CREA.          18/09/15                                : LAS Creation Date
~Well Information Section
STRT.m         811.6824                                : Start Depth
STOP.m         2310.6888                               : Stop Depth
STEP.m         0.1524                                  : Step
NULL.          -999.2500                               : Null Value
COMP.          BP PET DEV                              : Company
WELL.          15/13a-4Z                               : Well
FLD .          EXPLORATION                             : Field
LOC .          NORTH SEA                               : Location
LOC1.          358107.875mE 6493463.000mN              : Location (UTM)
CTRY.          UK                                      : Country
PROV.          UKCS                                    : Province
UWI .          18761                                   : UWI Number
API .                                                  : API Number
SECT.                                                  : Section
TOWN.                                                  : Township
RNGE.                                                  : Range
PDAT.          MSL                                     : Perm Datum
EPD .m         0.00                                    : Elevation
LMF .          DF                                      : Log Measured From
DMF .          DF                                      : Drill Measured From
APD .m         25.00                                   : Above Perm Datum
EKB .m         25.30                                   : Elev-Kelly Bushing
EDF .m         25.00                                   : Elev-Drill Floor
EGL .m         -147.00                                 : Elev-Ground Level (Water Depth)
TDD .m         2329.00                                 : Total Depth (Driller)
SRVC.          SCHLUMBERGER                            : Service Company
LATI.          58 33 25.58 N                           : Latitude
LONG.          00 33 40.64 E                           : Longitude
DATE.          04-19-AUG-1987                          : Logging Date
PROJ.          UKCS                                    : Project
SET .          COMP WIRE                               : Set
~Curve Information Section
DEPTH.m                                                : Depth Curve
CALI.in                                                : Caliper
DT.us/ft                                               : Delta-T
GR.gAPI                                                : Gamma Ray
ILD.ohmm                                               : Deep Induction Standard Processed Resistivity
ILM.ohmm                                               : Medium Induction Standard Processed Resistivity
~ASCII Log Data Section
# ...
 1401.7752        12.9931       137.7322        45.6111         0.8436         0.8902     
 1401.9276        12.9874       138.3703        47.2435         0.8442         0.8910     
 1402.0800        13.0581       137.5182        41.2746         0.8562         0.9002     
 1402.2324        13.0632       136.8377        37.6734         0.8684         0.9243     
 1402.3848        13.0491       136.7824        37.9940         0.8720         0.9358     
 1402.5372        13.0473       137.9466        39.1098         0.8729         0.9315     
 1402.6896        13.0616       138.6561        45.5735         0.8758         0.9245     
 1402.8420        13.1087       138.5039        45.3389         0.8833         0.9235     
 1402.9944        13.0902       137.4512        50.1825         0.8808         0.9246     
 1403.1468        13.0790       138.1081        49.6310         0.8762         0.9206     
 1403.2992        13.0724       138.2728        46.2675         0.8743         0.9187     
 1403.4516        13.1044       139.0166        44.2334         0.8768         0.9187     
 1403.6040        13.1290       139.6570        41.6632         0.8795         0.9253     
 1403.7564        13.1182       139.6565        41.5171         0.8812         0.9288     
 1403.9088        13.0768       140.0732        39.8606         0.8812         0.9274     
 1404.0612        13.0638       140.7635        38.1079         0.8804         0.9277     
 1404.2136        13.0692       140.7440        42.1787         0.8798         0.9272     
 1404.3660        13.0703       139.9771        43.8324         0.8784         0.9265     
 1404.5184        13.0703       139.1126        47.6252         0.8837         0.9285     
 1404.6708        13.0703       138.5155        46.2243         0.8877         0.9362     
 1404.8232        13.0703       136.8061        43.9775         0.8889         0.9405     
 1404.9756        13.0688       136.9197        40.9999         0.8902         0.9424     
 1405.1280        13.0236       136.8091        37.3378         0.8865         0.9463     
 1405.2804        13.0138       137.4683        35.7814         0.8839         0.9439     
 1405.4328        12.9623       139.7357        36.7534         0.8769         0.9286     
 1405.5852        12.9529       140.0563        41.8118         0.8752         0.9159     
 1405.7376        12.9453       141.0583        44.8109         0.8914         0.9117     
 1405.8900        12.9118       140.9139        45.9325         0.9207         0.9247     
 1406.0424        12.8974       137.0508        43.1852         0.9530         0.9624     
 1406.1948        12.8383       121.6964        38.4140         1.0286         1.0298     
 1406.3472        12.8202       104.5850        31.6917         1.1391         1.1431     
 1406.4996        12.7871       101.1662        26.2580         1.2072         1.2643     
 1406.6520        12.7797       107.3541        27.6667         1.2239         1.3889     
 1406.8044        12.7416       122.4845        28.9861         1.2240         1.3503     
 1406.9568        12.7445       135.1836        31.3477         1.2469         1.2677     
 1407.1092        12.8354       138.3129        31.2501         1.2747         1.2211     
 1407.2616        12.8590       139.4213        33.5082         1.2121         1.1401     
 1407.4140        12.8798       138.8018        36.6619         1.1039         1.0404     
 1407.5664        12.8966       139.2012        38.1701         0.9899         0.9770     
 1407.7188        12.9125       137.9686        41.7377         0.8875         0.9275     
 1407.8712        12.9345       139.5291        43.0648         0.8222         0.8907     
 1408.0236        12.9540       139.8127        46.9167         0.8023         0.8667     
 1408.1760        13.0321       140.7876        45.5683         0.7975         0.8586     
 1408.3284        13.0342       140.4656        42.6695         0.8021         0.8564     
 1408.4808        13.0448       140.2959        42.1953         0.8116         0.8615     
 1408.6332        13.0532       140.8538        38.8523         0.8158         0.8695     
 1408.7856        13.0484       140.2825        39.2700         0.8208         0.8767     
 1408.9380        13.0540       140.6582        38.0403         0.8245         0.8812     
 1409.0904        13.0676       140.8416        42.9581         0.8254         0.8885     
 1409.2428        13.0637       140.5813        49.3162         0.8321         0.8942     
 1409.3952        13.0625       140.9048        50.9498         0.8397         0.8980     
 1409.5476        13.0619       138.1180        49.2081         0.8567         0.9034     
 1409.7000        13.0493       131.9802        43.1771         0.8886         0.9146     
 1409.8524        13.0469       129.0952        37.3447         0.9134         0.9335     
 1410.0048        13.0457       128.7029        34.5470         0.9198         0.9669     
 1410.1572        13.0205       130.2054        34.2018         0.9088         0.9889     
 1410.3096        13.0162       136.9861        37.3596         0.8982         0.9674     
 1410.4620        13.0285       140.4299        41.8556         0.8917         0.9392     
 1410.6144        13.0247       140.5979        43.5834         0.8981         0.9128     
 1410.7668        13.0244       141.3483        44.6671         0.8834         0.8933     
 1410.9192        13.0432       141.5955        44.5456         0.8524         0.8815     
 1411.0716        13.0466       141.4604        48.9545         0.8313         0.8711     
 1411.2240        13.0400       142.2034        49.2435         0.8193         0.8633     
 1411.3764        13.0341       140.0588        49.0126         0.8168         0.8614     
 1411.5288        13.0638       139.1626        46.9441         0.8213         0.8674     
 1411.6812        13.0641       138.2838        48.1417         0.8204         0.8792     
 1411.8336        13.0691       138.2459        49.8259         0.8171         0.8783     
 1411.9860        13.0706       140.5426        49.2261         0.8151         0.8691     
 1412.1384        13.0795       141.0532        49.2867         0.8125         0.8595     
 1412.2908        13.1317       141.9448        48.1969         0.8109         0.8507     
 1412.4432        13.1607       139.9967        47.3648         0.8060         0.8422     
 1412.5956        13.1710       136.8547        45.3130         0.8082         0.8439     
 1412.7480        13.1788       137.0563        46.0601         0.8142         0.8590     
 1412.9004        13.1866       136.6153        46.0654         0.8126         0.8771     
 1413.0528        13.1941       136.6013        47.1510         0.8096         0.8791     
 1413.2052        13.1943       140.2262        45.8013         0.8069         0.8684     
 1413.3576        13.1757       140.4702        47.9523         0.8084         0.8609     
 1413.5100        13.1719       140.3205        49.7865         0.8055         0.8522     
 1413.6624        13.1722       141.2263        51.4220         0.7869         0.8361     
 1413.8148        13.1788       142.0088        52.3820         0.7699         0.8193     
 1413.9672        13.1859       142.2925        52.4819         0.7627         0.8070     
 1414.1196        13.1810       143.4127        53.8923         0.7589         0.8017     
 1414.2720        13.1793       143.8401        54.5869         0.7537         0.8030     
 1414.4244        13.1724       144.0089        53.8166         0.7560         0.8003     
 1414.5768        13.1567       144.4482        50.7161         0.7648         0.8000     
 1414.7292        13.1156       142.9003        48.2303         0.7825         0.8134     
 1414.8816        13.0851       136.3481        43.7805         0.8052         0.8363     
 1415.0340        13.1119       132.1211        40.3554         0.8282         0.8573     
