~Version Information Section
VERS.          2.0                                     : CWLS LOG ASCII Standard
WRAP.          NO                                      : One line per depth step
CREA.          18/09/15                                : LAS Creation Date
~Well Information Section
STRT.m         811.6824                                : Start Depth
STOP.m         2310.6888                               : Stop Depth
STEP.m         0.1524                                  : Step
NULL.          -999.2500                               : Null Value
COMP.          BP PET DEV                              : Company
WELL.          15/13a-4Z                               : Well
FLD .          EXPLORATION                             : Field
LOC .          NORTH SEA                               : Location
LOC1.          358107.875mE 6493463.000mN              : Location (UTM)
CTRY.          UK                                      : Country
PROV.          UKCS                                    : Province
UWI .          18761                                   : UWI Number
API .                                                  : API Number
SECT.                                                  : Section
TOWN.                                                  : Township
RNGE.                                                  : Range
PDAT.          MSL                                     : Perm Datum
EPD .m         0.00                                    : Elevation
LMF .          DF                                      : Log Measured From
DMF .          DF                                      : Drill Measured From
APD .m         25.00                                   : Above Perm Datum
EKB .m         25.30                                   : Elev-Kelly Bushing
EDF .m         25.00                                   : Elev-Drill Floor
EGL .m         -147.00                                 : Elev-Ground Level (Water Depth)
TDD .m         2329.00                                 : Total Depth (Driller)
SRVC.          SCHLUMBERGER                            : Service Company
LATI.          58 33 25.58 N                           : Latitude
LONG.          00 33 40.64 E                           : Longitude
DATE.          04-19-AUG-1987                          : Logging Date
PROJ.          UKCS                                    : Project
SET .          COMP WIRE                               : Set
~Curve Information Section
DEPTH.m                                                : Depth Curve
CALI.in                                                : Caliper
DT.us/ft                                               : Delta-T
GR.gAPI                                                : Gamma Ray
ILD.ohmm                                               : Deep Induction Standard Processed Resistivity
ILM.ohmm                                               : Medium Induction Standard Processed Resistivity
~ASCII Log Data Section
# ...
 1602.9432        12.8007       135.8844        71.1203         0.8069         0.8552     
 1603.0956        12.7922       135.1321        72.6539         0.8157         0.8679     
 1603.2480        12.8081       134.8628        73.7027         0.8278         0.8787     
 1603.4004        12.8059       134.4692        75.0362         0.8358         0.8858     
 1603.5528        12.7408       134.5443        77.6807         0.8389         0.8895     
 1603.7052        12.7706       136.3925        78.8486         0.8366         0.8890     
 1603.8576        12.7934       137.8277        76.1917         0.8310         0.8818     
 1604.0100        12.7905       138.6667        73.1383         0.8307         0.8735     
 1604.1624        12.7869       138.2878        72.4900         0.8260         0.8717     
 1604.3148        12.7637       137.3356        74.4031         0.8186         0.8708     
 1604.4672        12.7523       137.1162        75.5366         0.8164         0.8667     
 1604.6196        12.6949       136.9970        74.8360         0.8152         0.8694     
 1604.7720        12.6855       136.5980        74.7416         0.8145         0.8749     
 1604.9244        12.6817       135.5072        71.7170         0.8164         0.8741     
 1605.0768        12.6860       135.2061        68.5972         0.8149         0.8734     
 1605.2292        12.6908       134.6889        65.9959         0.8126         0.8750     
 1605.3816        12.7278       133.9370        66.7502         0.8126         0.8683     
 1605.5340        12.7642       133.5119        71.4648         0.8072         0.8651     
 1605.6864        12.8121       139.1307        74.1226         0.8023         0.8647     
 1605.8388        12.7773       140.2936        77.2213         0.8038         0.8594     
 1605.9912        12.7635       139.9884        78.0341         0.8051         0.8563     
 1606.1436        12.7424       139.7638        81.2465         0.8108         0.8671     
 1606.2960        12.7598       133.3402        82.4541         0.8253         0.8825     
 1606.4484        12.7667       132.4236        80.8857         0.8367         0.8932     
 1606.6008        12.7767       133.4998        79.7980         0.8513         0.9040     
 1606.7532        12.7605       133.5811        76.5702         0.8594         0.9154     
 1606.9056        12.7393       133.9158        76.0242         0.8598         0.9172     
 1607.0580        12.7413       134.0760        75.1657         0.8665         0.9168     
 1607.2104        12.7496       133.8196        74.2347         0.8722         0.9201     
 1607.3628        12.7606       133.7243        73.0139         0.8747         0.9242     
 1607.5152        12.7364       133.4963        73.6917         0.8705         0.9254     
 1607.6676        12.6909       133.9773        78.3181         0.8664         0.9241     
 1607.8200        12.6935       134.1265        75.9560         0.8599         0.9194     
 1607.9724        12.7059       135.2903        71.8387         0.8507         0.9103     
 1608.1248        12.6855       136.3315        69.8876         0.8426         0.8980     
 1608.2772        12.6765       136.6613        73.1362         0.8369         0.8885     
 1608.4296        12.6362       136.1214        74.1564         0.8325         0.8859     
 1608.5820        12.5680       134.5706        72.5658         0.8296         0.8880     
 1608.7344        12.5419       132.8205        71.7582         0.8290         0.8931     
 1608.8868        12.5391       132.2281        70.5891         0.8281         0.8999     
 1609.0392        12.5380       132.7345        73.1358         0.8275         0.9032     
 1609.1916        12.5263       135.1143        74.7610         0.8288         0.8967     
 1609.3440        12.5261       136.1096        75.4430         0.8338         0.8890     
 1609.4964        12.5532       135.8090        75.2037         0.8382         0.8877     
 1609.6488        12.5365       134.1336        71.6712         0.8341         0.8895     
 1609.8012        12.5249       132.4727        69.3003         0.8305         0.8888     
 1609.9536        12.5234       131.5739        65.1251         0.8298         0.8913     
 1610.1060        12.5240       134.2838        65.3955         0.8293         0.8960     
 1610.2584        12.5293       137.3162        62.5314         0.8404         0.8924     
 1610.4108        12.5243       139.3541        61.1509         0.8643         0.8969     
 1610.5632        12.5191       141.5858        58.9986         0.8888         0.9191     
 1610.7156        12.5370       141.2935        59.8454         0.8883         0.9497     
 1610.8680        12.5264       139.7611        56.7005         0.8745         0.9529     
 1611.0204        12.8804       138.3420        51.3451         0.8621         0.9286     
 1611.1728        13.1405       132.8504        47.2109         0.8641         0.9090     
 1611.3252        12.6505       128.6850        46.9715         0.8761         0.9036     
 1611.4776        12.4675       127.7099        50.7900         0.8780         0.9109     
 1611.6300        12.4707       127.9195        58.2806         0.8613         0.9312     
 1611.7824        12.4574       129.2049        63.4764         0.8542         0.9347     
 1611.9348        12.4506       131.7076        68.8782         0.8622         0.9351     
 1612.0872        12.4176       131.0182        68.9983         0.8875         0.9438     
 1612.2396        12.3663       129.0848        70.5032         0.9011         0.9496     
 1612.3920        12.3210       126.7620        71.3420         0.8904         0.9471     
 1612.5444        12.3135       124.2947        69.7591         0.8730         0.9452     
 1612.6968        12.3258       123.2400        68.5719         0.8594         0.9387     
 1612.8492        12.3350       124.8493        62.9378         0.8436         0.9278     
 1613.0016        12.3413       134.8577        63.8730         0.8250         0.9093     
 1613.1540        12.3320       139.4215        63.5060         0.8248         0.8806     
 1613.3064        12.3594       142.1078        66.5271         0.8110         0.8704     
 1613.4588        12.5721       144.4458        68.7145         0.7908         0.8639     
 1613.6112        12.5239       138.0272        71.0565         0.7733         0.8417     
 1613.7636        12.5005       136.2100        75.4669         0.7575         0.8218     
 1613.9160        12.5059       136.4869        76.2442         0.7499         0.8117     
 1614.0684        12.5014       134.9630        75.4795         0.7441         0.8086     
 1614.2208        12.5010       136.4488        71.9176         0.7437         0.8049     
 1614.3732        12.5059       137.1350        66.4927         0.7514         0.8162     
 1614.5256        12.4279       136.5559        62.7342         0.7631         0.8390     
 1614.6780        12.4260       135.1453        58.8530         0.7894         0.8589     
 1614.8304        12.3576       130.8379        61.7567         0.8308         0.8813     
 1614.9828        12.3067       128.5195        63.1263         0.8627         0.9235     
 1615.1352        12.3137       126.2216        62.8550         0.8872         0.9732     
 1615.2876        12.2897       123.2923        58.6882         0.9109         0.9908     
 1615.4400        12.3000       122.1510        54.2250         0.9510         0.9938     
 1615.5924        12.2983       120.8798        52.6891         0.9765         1.0086     
 1615.7448        12.2974       119.1719        53.3587         0.9850         1.0292     
 1615.8972        12.3038       118.4377        54.1181         0.9738         1.0294     
 1616.0496        12.3154       119.5451        57.5392         0.9461         1.0193     
 1616.2020        12.3746       123.2875        57.2094         0.9234         0.9980     
