~Version Information Section
VERS.          2.0                                     : CWLS LOG ASCII Standard
WRAP.          NO                                      : One line per depth step
CREA.          18/09/15                                : LAS Creation Date
~Well Information Section
STRT.m         811.6824                                : Start Depth
STOP.m         2310.6888                               : Stop Depth
STEP.m         0.1524                                  : Step
NULL.          -999.2500                               : Null Value
COMP.          BP PET DEV                              : Company
WELL.          15/13a-4Z                               : Well
FLD .          EXPLORATION                             : Field
LOC .          NORTH SEA                               : Location
LOC1.          358107.875mE 6493463.000mN              : Location (UTM)
CTRY.          UK                                      : Country
PROV.          UKCS                                    : Province
UWI .          18761                                   : UWI Number
API .                                                  : API Number
SECT.                                                  : Section
TOWN.                                                  : Township
RNGE.                                                  : Range
PDAT.          MSL                                     : Perm Datum
EPD .m         0.00                                    : Elevation
LMF .          DF                                      : Log Measured From
DMF .          DF                                      : Drill Measured From
APD .m         25.00                                   : Above Perm Datum
EKB .m         25.30                                   : Elev-Kelly Bushing
EDF .m         25.00                                   : Elev-Drill Floor
EGL .m         -147.00                                 : Elev-Ground Level (Water Depth)
TDD .m         2329.00                                 : Total Depth (Driller)
SRVC.          SCHLUMBERGER                            : Service Company
LATI.          58 33 25.58 N                           : Latitude
LONG.          00 33 40.64 E                           : Longitude
DATE.          04-19-AUG-1987                          : Logging Date
PROJ.          UKCS                                    : Project
SET .          COMP WIRE                               : Set
~Curve Information Section
DEPTH.m                                                : Depth Curve
CALI.in                                                : Caliper
DT.us/ft                                               : Delta-T
GR.gAPI                                                : Gamma Ray
ILD.ohmm                                               : Deep Induction Standard Processed Resistivity
ILM.ohmm                                               : Medium Induction Standard Processed Resistivity
~ASCII Log Data Section
# ...
 1214.0184        13.2969       142.5438        49.1899         1.1687         1.1917     
 1214.1708        13.5040       142.5000        51.7997         1.1688         1.1851     
 1214.3232        13.3932       141.8372        50.1606         1.1745         1.1801     
 1214.4756        13.4302       141.0877        47.0365         1.1797         1.1898     
 1214.6280        13.2165       142.8781        43.5353         1.1870         1.1973     
 1214.7804        13.2427       141.5796        39.5374         1.1974         1.2054     
 1214.9328        13.1464       125.2454        38.1234         1.2197         1.2267     
 1215.0852        13.1190       116.8329        39.6834         1.2363         1.2584     
 1215.2376        13.1586       114.3428        44.4358         1.2510         1.3063     
 1215.3900        13.1779       118.6509        45.0864         1.2567         1.3363     
 1215.5424        13.2142       129.1929        45.5357         1.2636         1.3277     
 1215.6948        13.4947       138.6696        44.6553         1.2665         1.3112     
 1215.8472        15.9482       139.5290        45.1113         1.2625         1.2971     
 1215.9996        17.8940       139.0584        47.7543         1.2351         1.2708     
 1216.1520        15.4853       139.2210        47.2375         1.1990         1.2360     
 1216.3044        13.7735       138.9185        47.5669         1.1587         1.1867     
 1216.4568        13.3040       140.4204        49.4464         1.1398         1.1639     
 1216.6092        13.3001       140.1831        51.0132         1.1268         1.1519     
 1216.7616        13.5324       140.4562        50.5251         1.1209         1.1430     
 1216.9140        13.7213       140.6105        46.7638         1.1156         1.1401     
 1217.0664        13.6663       140.2938        48.0200         1.1106         1.1427     
 1217.2188        13.5112       140.5815        50.6531         1.1097         1.1403     
 1217.3712        13.3197       140.8458        47.8776         1.1096         1.1305     
 1217.5236        13.0690       141.4274        48.1317         1.1068         1.1265     
 1217.6760        12.7769       142.4936        47.6115         1.1023         1.1225     
 1217.8284        12.5281       142.5145        52.6418         1.0960         1.1147     
 1217.9808        12.3895       143.6049        54.1135         1.0879         1.1093     
 1218.1332        12.2784       143.6396        52.6180         1.0671         1.1016     
 1218.2856        12.1482       144.2879        50.8594         1.0529         1.0884     
 1218.4380        12.3260       144.5958        48.6139         1.0448         1.0757     
 1218.5904        12.5242       144.5145        50.2497         1.0411         1.0684     
 1218.7428        12.7332       144.1688        51.3280         1.0398         1.0643     
 1218.8952        12.7026       144.0145        50.2774         1.0377         1.0630     
 1219.0476        12.6539       144.3311        48.9107         1.0342         1.0645     
 1219.2000        12.5449       143.8226        49.7167         1.0299         1.0664     
 1219.3524        12.5037       144.5227        54.9768         1.0286         1.0666     
 1219.5048        12.6036       143.1888        55.2696         1.0287         1.0683     
 1219.6572        12.7483       141.7857        51.7691         1.0310         1.0744     
 1219.8096        12.8071       141.8459        47.7220         1.0437         1.0786     
 1219.9620        12.8746       141.4331        47.6643         1.0567         1.0842     
 1220.1144        12.8621       141.4854        47.5256         1.0765         1.1023     
 1220.2668        12.8594       130.2314        43.8266         1.0948         1.1367     
 1220.4192        12.7628       119.9189        42.7918         1.1219         1.1582     
 1220.5716        12.6050       117.3138        38.7968         1.1468         1.1825     
 1220.7240        12.4962       117.3458        40.9858         1.1439         1.2092     
 1220.8764        12.5741       122.8988        42.5314         1.1365         1.1926     
 1221.0288        12.7722       139.5225        45.6131         1.1324         1.1630     
 1221.1812        12.7969       142.2879        46.1657         1.1398         1.1384     
 1221.3336        12.7486       141.3814        44.3659         1.1298         1.1291     
 1221.4860        12.8251       140.5871        46.4176         1.0979         1.1182     
 1221.6384        12.8014       141.4936        45.2560         1.0713         1.1016     
 1221.7908        12.7209       141.4040        43.7643         1.0632         1.0970     
 1221.9432        12.3312       141.7064        40.2794         1.0616         1.1010     
 1222.0956        12.3020       140.6460        42.7693         1.0666         1.1034     
 1222.2480        13.0021       141.3839        45.5317         1.0725         1.1001     
 1222.4004        12.4663       140.6174        47.6641         1.0870         1.1040     
 1222.5528        12.4864       141.1629        45.4479         1.1075         1.1172     
 1222.7052        13.4591       139.7044        46.2290         1.1245         1.1460     
 1222.8576        13.7793       139.9419        43.8062         1.1420         1.1691     
 1223.0100        13.1423       140.5520        42.4200         1.1578         1.1837     
 1223.1624        12.4263       143.9396        41.5078         1.1750         1.2189     
 1223.3148        13.2062       153.8684        43.0621         1.1754         1.2635     
 1223.4672        14.4665       154.9041        43.2536         1.1692         1.2653     
 1223.6196        14.6379       149.7971        41.5942         1.1570         1.2314     
 1223.7720        14.8685       149.8983        41.8169         1.1451         1.1953     
 1223.9244        13.0011       140.1754        41.0747         1.1232         1.1430     
 1224.0768        12.3568       138.5439        43.5074         1.0981         1.1022     
 1224.2292        12.4980       139.7152        42.9047         1.0780         1.0686     
 1224.3816        12.2820       141.4204        47.5831         1.0576         1.0557     
 1224.5340        12.2707       144.3869        46.0368         1.0318         1.0497     
 1224.6864        12.3907       142.7630        49.9724         1.0137         1.0371     
 1224.8388        12.4822       141.3952        46.2227         1.0114         1.0246     
 1224.9912        12.4922       141.2500        44.4972         1.0249         1.0278     
 1225.1436        12.3334       140.2557        39.9799         1.0539         1.0410     
 1225.2960        12.4436       140.8978        42.9390         1.0675         1.0589     
 1225.4484        12.3021       143.7622        43.8206         1.0752         1.0693     
 1225.6008        12.2743       145.5602        44.9238         1.0799         1.0729     
 1225.7532        12.2734       133.5964        43.3776         1.0827         1.0792     
 1225.9056        12.1215       129.1276        44.1229         1.0821         1.0860     
 1226.0580        12.2464       126.6526        47.0373         1.0701         1.0765     
 1226.2104        12.5556       130.6836        45.9148         1.0458         1.0497     
 1226.3628        12.5041       140.5235        47.4023         1.0178         1.0259     
 1226.5152        12.6994       143.9597        44.3932         0.9873         1.0058     
 1226.6676        12.8646       144.6916        46.9495         0.9713         0.9875     
 1226.8200        13.0071       145.0815        46.9294         0.9633         0.9740     
 1226.9724        13.1338       144.6834        48.9174         0.9587         0.9718     
 1227.1248        13.2865       143.5201        47.7788         0.9551         0.9845     
 1227.2772        13.3668       144.3686        46.9038         0.9533         0.9970     
