~Version Information Section
VERS.          2.0                                     : CWLS LOG ASCII Standard
WRAP.          NO                                      : One line per depth step
CREA.          18/09/15                                : LAS Creation Date
~Well Information Section
STRT.m         811.6824                                : Start Depth
STOP.m         2310.6888                               : Stop Depth
STEP.m         0.1524                                  : Step
NULL.          -999.2500                               : Null Value
COMP.          BP PET DEV                              : Company
WELL.          15/13a-4Z                               : Well
FLD .          EXPLORATION                             : Field
LOC .          NORTH SEA                               : Location
LOC1.          358107.875mE 6493463.000mN              : Location (UTM)
CTRY.          UK                                      : Country
PROV.          UKCS                                    : Province
UWI .          18761                                   : UWI Number
API .                                                  : API Number
SECT.                                                  : Section
TOWN.                                                  : Township
RNGE.                                                  : Range
PDAT.          MSL                                     : Perm Datum
EPD .m         0.00                                    : Elevation
LMF .          DF                                      : Log Measured From
DMF .          DF                                      : Drill Measured From
APD .m         25.00                                   : Above Perm Datum
EKB .m         25.30                                   : Elev-Kelly Bushing
EDF .m         25.00                                   : Elev-Drill Floor
EGL .m         -147.00                                 : Elev-Ground Level (Water Depth)
TDD .m         2329.00                                 : Total Depth (Driller)
SRVC.          SCHLUMBERGER                            : Service Company
LATI.          58 33 25.58 N                           : Latitude
LONG.          00 33 40.64 E                           : Longitude
DATE.          04-19-AUG-1987                          : Logging Date
PROJ.          UKCS                                    : Project
SET .          COMP WIRE                               : Set
~Curve Information Section
DEPTH.m                                                : Depth Curve
CALI.in                                                : Caliper
DT.us/ft                                               : Delta-T
GR.gAPI                                                : Gamma Ray
ILD.ohmm                                               : Deep Induction Standard Processed Resistivity
ILM.ohmm                                               : Medium Induction Standard Processed Resistivity
~ASCII Log Data Section
# ...
 1120.1400        14.3627       125.5520        16.6446         0.6452         0.7580     
 1120.2924        14.3277       126.1469        17.6980         0.6469         0.7582     
 1120.4448        14.4965       126.1599        18.4629         0.6479         0.7540     
 1120.5972        14.4260       126.4667        18.6260         0.6481         0.7388     
 1120.7496        14.5258       127.0575        19.2667         0.6469         0.7330     
 1120.9020        14.8527       127.7460        17.6823         0.6480         0.7318     
 1121.0544        15.0237       127.6541        17.7210         0.6496         0.7347     
 1121.2068        15.0258       127.4305        16.3770         0.6494         0.7373     
 1121.3592        14.9955       127.6904        17.2634         0.6486         0.7392     
 1121.5116        14.9623       127.6649        17.2006         0.6491         0.7394     
 1121.6640        15.0096       126.0900        16.4676         0.6486         0.7390     
 1121.8164        14.9726       126.2024        17.3584         0.6482         0.7377     
 1121.9688        14.9894       126.8804        17.8885         0.6446         0.7356     
 1122.1212        14.9123       127.0108        18.4486         0.6387         0.7287     
 1122.2736        14.8306       127.1553        18.7249         0.6310         0.7210     
 1122.4260        14.3679       126.0803        17.0392         0.6228         0.7075     
 1122.5784        13.2464       123.6918        16.3559         0.6147         0.6928     
 1122.7308        12.6454       123.2106        14.4407         0.6074         0.6830     
 1122.8832        12.4879       122.5276        16.0186         0.6045         0.6791     
 1123.0356        12.4378       122.6697        17.5261         0.6033         0.6801     
 1123.1880        12.9982       124.2755        21.2237         0.6042         0.6852     
 1123.3404        12.9838       125.9783        23.0517         0.6054         0.6910     
 1123.4928        13.0055       126.5336        22.0991         0.6084         0.6971     
 1123.6452        13.0394       127.7981        20.6007         0.6125         0.7005     
 1123.7976        13.4504       126.9627        19.1906         0.6149         0.7006     
 1123.9500        13.5755       126.4646        18.6934         0.6179         0.6994     
 1124.1024        13.3227       125.1058        18.6268         0.6235         0.6971     
 1124.2548        12.9728       124.2476        18.6540         0.6226         0.6951     
 1124.4072        12.8658       124.1662        19.3665         0.6194         0.6918     
 1124.5596        12.7988       124.8983        19.8232         0.6167         0.6889     
 1124.7120        12.5431       125.7133        21.5423         0.6176         0.6850     
 1124.8644        12.4819       125.5499        21.8327         0.6258         0.6851     
 1125.0168        12.4191       125.2308        20.6962         0.6381         0.6898     
 1125.1692        12.4063       124.2372        21.0779         0.6641         0.7140     
 1125.3216        12.4151       124.5769        23.4474         0.7102         0.7490     
 1125.4740        12.5554       125.6369        25.3942         0.7505         0.8037     
 1125.6264        12.6007       127.0324        26.1525         0.7959         0.8730     
 1125.7788        13.0351       127.7280        28.8905         0.8454         0.9412     
 1125.9312        13.0639       127.2011        30.3259         0.8925         0.9937     
 1126.0836        13.0704       128.0186        30.2502         0.9275         1.0208     
 1126.2360        12.7314       129.5990        26.8232         0.9387         1.0214     
 1126.3884        12.6824       131.8979        25.3141         0.9270         0.9871     
 1126.5408        12.7967       134.8923        24.2677         0.8941         0.9494     
 1126.6932        12.9358       134.8545        25.0730         0.8413         0.9072     
 1126.8456        13.2842       135.8624        25.5801         0.7907         0.8612     
 1126.9980        13.8512       134.4224        25.6619         0.7585         0.8210     
 1127.1504        13.5407       134.7086        25.2891         0.7265         0.7976     
 1127.3028        13.1860       134.5953        23.5258         0.7053         0.7836     
 1127.4552        12.7928       134.9810        23.2574         0.6991         0.7797     
 1127.6076        12.7428       134.4881        24.2047         0.7044         0.7857     
 1127.7600        13.0180       134.1083        24.3824         0.7153         0.7981     
 1127.9124        13.2916       133.1570        23.6815         0.7259         0.8103     
 1128.0648        13.8586       132.4875        21.3335         0.7338         0.8179     
 1128.2172        14.3163       132.5254        21.7504         0.7379         0.8233     
 1128.3696        14.4768       133.1801        20.8328         0.7397         0.8270     
 1128.5220        14.1774       132.7016        21.2373         0.7379         0.8287     
 1128.6744        14.2389       133.2764        24.4170         0.7353         0.8321     
 1128.8268        13.9008       132.7575        28.2751         0.7334         0.8327     
 1128.9792        13.3599       133.8553        30.7064         0.7346         0.8313     
 1129.1316        13.4361       134.2694        29.6463         0.7400         0.8318     
 1129.2840        13.4611       134.8719        29.9449         0.7458         0.8434     
 1129.4364        13.3239       134.8908        29.4699         0.7407         0.8584     
 1129.5888        13.1563       133.2668        26.9176         0.7225         0.8623     
 1129.7412        12.9543       131.7719        21.8821         0.6977         0.8364     
 1129.8936        12.9361       130.1612        19.7649         0.6674         0.7940     
 1130.0460        12.9707       128.2061        20.2380         0.6451         0.7434     
 1130.1984        12.8977       127.2948        22.9269         0.6315         0.7061     
 1130.3508        12.8401       126.3395        22.6503         0.6124         0.6814     
 1130.5032        12.7848       126.4424        20.6507         0.5953         0.6680     
 1130.6556        12.8752       126.6741        18.7354         0.5820         0.6585     
 1130.8080        12.9894       127.6020        20.4778         0.5639         0.6524     
 1130.9604        13.1276       127.1333        23.5017         0.5552         0.6496     
 1131.1128        13.2190       128.0793        23.5980         0.5543         0.6522     
 1131.2652        13.2315       127.8654        22.9329         0.5596         0.6551     
 1131.4176        13.2818       127.8248        21.8973         0.5665         0.6542     
 1131.5700        13.3524       127.6052        21.5937         0.5675         0.6514     
 1131.7224        13.5319       129.4176        20.1489         0.5672         0.6514     
 1131.8748        13.7149       129.5217        19.6399         0.5699         0.6568     
 1132.0272        13.4900       128.8810        20.4311         0.5738         0.6634     
 1132.1796        13.5127       128.6115        20.0962         0.5779         0.6701     
 1132.3320        13.4330       126.7175        19.6124         0.5829         0.6823     
 1132.4844        13.1164       125.4016        18.2436         0.5884         0.6957     
 1132.6368        12.9773       125.9795        16.6101         0.5951         0.6958     
 1132.7892        12.8767       126.5667        16.8756         0.5986         0.6889     
 1132.9416        12.8387       127.0670        18.0181         0.6015         0.6870     
 1133.0940        12.9054       127.5741        21.3928         0.6028         0.6852     
 1133.2464        13.0084       128.0730        20.8293         0.6016         0.6830     
 1133.3988        13.0949       127.3009        21.7681         0.5986         0.6830     
