~Version Information Section
VERS.          2.0                                     : CWLS LOG ASCII Standard
WRAP.          NO                                      : One line per depth step
CREA.          09/01/14                                : LAS Creation Date
~Well Information Section
STRT.ft        1491.5000                               : Start Depth
STOP.ft        9915.0000                               : Stop Depth
STEP.ft        0.5000                                  : Step
NULL.          -999.2500                               : Null Value
COMP.          BURMAH                                  : Company
WELL.          15/12-1                                 : Well
FLD .          WILDCAT                                 : Field
LOC .          OFFSHORE                                : Location
LOC1.                                                  : Location 
PROV.          UKCS                                    : Province
UWI .          2657                                    : UWI Number
API .                                                  : API Number
SECT.                                                  : Section
TOWN.                                                  : Township
RNGE.                                                  : Range
PDAT.          MSL                                     : Perm Datum
EPD .ft        0.00                                    : Elevation
LMF .          RKB                                     : Log Measured From
DMF .          RKB                                     : Drill Measured From
APD .ft        78.00                                   : Above Perm Datum
EKB .ft        78.00                                   : Elev-Kelly Bushing
EDF .ft        77.00                                   : Elev-Drill Floor
TDD .ft        9930.00                                 : Total Depth (Driller)
EGL .ft        -470.00                                 : Elev-Ground Level (Water Depth)
LATI.          58 30 10 N                              : Latitude
LONG.          00 18 30 E                              : Longitude
SRVC.          SCHLUMBERGER                            : Service Company
DATE.          MAY-JUN-1973                            : Logging Date
SET .          COMP WIRE                               : Set
~Curve Information Section
DEPTH.ft                                               : Depth Curve
CALI.in                                                : Caliper
DRHO.g/cc                                              : Delta Rho
DT.us/ft                                               : Delta-T
GR.gAPI                                                : ISF Gamma Ray
GRD.gAPI                                               : FDC Gamma Ray
ILD.ohmm                                               : Deep Induction Resistivity
NPHI.%                                                 : Neutron Porosity
RHOB.g/cc                                              : Bulk Density
SFLU.ohmm                                              : Spherically Focused log Resistivity (Unaveraged)
SP.mV                                                  : Spontaneous Potential
~ASCII Log Data Section
# ...
 1565.0000      -999.2500      -999.2500       154.8660        22.3109      -999.2500         1.4373      -999.2500      -999.2500         1.0164       -24.5308     
 1565.5000      -999.2500      -999.2500       147.4767        22.3257      -999.2500         1.4834      -999.2500      -999.2500         0.9783       -26.0947     
 1566.0000      -999.2500      -999.2500       149.8602        20.9439      -999.2500         1.4877      -999.2500      -999.2500         0.9346       -27.8652     
 1566.5000      -999.2500      -999.2500       147.2562        19.5782      -999.2500         1.4403      -999.2500      -999.2500         0.9465       -29.0232     
 1567.0000      -999.2500      -999.2500       143.0198        18.9926      -999.2500         1.3611      -999.2500      -999.2500         0.9746       -30.2498     
 1567.5000      -999.2500      -999.2500       109.1346        18.5355      -999.2500         1.2681      -999.2500      -999.2500         0.8591       -31.8991     
 1568.0000      -999.2500      -999.2500       110.3512        17.9199      -999.2500         1.2164      -999.2500      -999.2500         0.7367       -32.5741     
 1568.5000      -999.2500      -999.2500       156.8914        17.1791      -999.2500         1.1751      -999.2500      -999.2500         0.6652       -32.9669     
 1569.0000      -999.2500      -999.2500       176.1980        18.5880      -999.2500         1.1462      -999.2500      -999.2500         0.6210       -32.9753     
 1569.5000      -999.2500      -999.2500       195.3065        20.9212      -999.2500         1.1294      -999.2500      -999.2500         0.6062       -32.6478     
 1570.0000      -999.2500      -999.2500       199.2921        23.1154      -999.2500         1.1275      -999.2500      -999.2500         0.6090       -32.4235     
 1570.5000      -999.2500      -999.2500       197.4712        25.1247      -999.2500         1.1482      -999.2500      -999.2500         0.6021       -32.2560     
 1571.0000      -999.2500      -999.2500       197.6236        27.2004      -999.2500         1.1791      -999.2500      -999.2500         0.5949       -32.3007     
 1571.5000      -999.2500      -999.2500       197.4305        29.1546      -999.2500         1.2239      -999.2500      -999.2500         0.6053       -32.7672     
 1572.0000      -999.2500      -999.2500       197.9455        31.1508      -999.2500         1.2986      -999.2500      -999.2500         0.6420       -33.3670     
 1572.5000      -999.2500      -999.2500       197.9734        32.4858      -999.2500         1.4080      -999.2500      -999.2500         0.6805       -34.2857     
 1573.0000      -999.2500      -999.2500       195.5377        33.1910      -999.2500         1.5193      -999.2500      -999.2500         0.7169       -34.5395     
 1573.5000      -999.2500      -999.2500       191.6901        33.4363      -999.2500         1.6238      -999.2500      -999.2500         0.7312       -34.1069     
 1574.0000      -999.2500      -999.2500       188.9373        32.9969      -999.2500         1.6890      -999.2500      -999.2500         0.7354       -32.9522     
 1574.5000      -999.2500      -999.2500       189.2758        32.4153      -999.2500         1.6785      -999.2500      -999.2500         0.7326       -32.5803     
 1575.0000      -999.2500      -999.2500       189.7179        32.3192      -999.2500         1.6363      -999.2500      -999.2500         0.7415       -32.5031     
 1575.5000      -999.2500      -999.2500       185.7275        32.5341      -999.2500         1.5940      -999.2500      -999.2500         0.7497       -32.1006     
 1576.0000      -999.2500      -999.2500       180.4127        33.2707      -999.2500         1.5550      -999.2500      -999.2500         0.7400       -31.8914     
 1576.5000      -999.2500      -999.2500       173.7579        34.4095      -999.2500         1.5309      -999.2500      -999.2500         0.7365       -32.6823     
 1577.0000      -999.2500      -999.2500       169.7299        35.1627      -999.2500         1.5226      -999.2500      -999.2500         0.7464       -33.5898     
 1577.5000      -999.2500      -999.2500       168.9839        34.4494      -999.2500         1.5259      -999.2500      -999.2500         0.7611       -34.2968     
 1578.0000      -999.2500      -999.2500       167.7450        32.5260      -999.2500         1.5465      -999.2500      -999.2500         0.7666       -34.4876     
 1578.5000      -999.2500      -999.2500       165.8091        31.5840      -999.2500         1.5643      -999.2500      -999.2500         0.7578       -34.2896     
 1579.0000      -999.2500      -999.2500       164.8004        31.4884      -999.2500         1.5765      -999.2500      -999.2500         0.7430       -33.7917     
 1579.5000      -999.2500      -999.2500       164.8079        31.8862      -999.2500         1.5772      -999.2500      -999.2500         0.7296       -33.2399     
 1580.0000      -999.2500      -999.2500       165.0461        32.4476      -999.2500         1.5716      -999.2500      -999.2500         0.7260       -32.9922     
 1580.5000      -999.2500      -999.2500       164.7906        33.0070      -999.2500         1.5580      -999.2500      -999.2500         0.7318       -32.8550     
 1581.0000      -999.2500      -999.2500       163.3011        33.4917      -999.2500         1.5552      -999.2500      -999.2500         0.7437       -32.7912     
 1581.5000      -999.2500      -999.2500       159.4048        33.9566      -999.2500         1.5578      -999.2500      -999.2500         0.7593       -32.9183     
 1582.0000      -999.2500      -999.2500       157.7645        34.5170      -999.2500         1.5664      -999.2500      -999.2500         0.7644       -33.2575     
 1582.5000      -999.2500      -999.2500       163.7104        35.8865      -999.2500         1.5954      -999.2500      -999.2500         0.7554       -34.0055     
 1583.0000      -999.2500      -999.2500       165.7105        35.8363      -999.2500         1.6121      -999.2500      -999.2500         0.7469       -34.7460     
 1583.5000      -999.2500      -999.2500       168.4269        35.3427      -999.2500         1.6137      -999.2500      -999.2500         0.7452       -34.6305     
 1584.0000      -999.2500      -999.2500       170.5413        35.3822      -999.2500         1.6087      -999.2500      -999.2500         0.7522       -34.0376     
 1584.5000      -999.2500      -999.2500       166.1363        34.7969      -999.2500         1.5853      -999.2500      -999.2500         0.7592       -33.4285     
 1585.0000      -999.2500      -999.2500       163.2208        34.0697      -999.2500         1.5413      -999.2500      -999.2500         0.7543       -33.0242     
 1585.5000      -999.2500      -999.2500       161.5316        33.8610      -999.2500         1.4945      -999.2500      -999.2500         0.7398       -32.5092     
 1586.0000      -999.2500      -999.2500       159.1513        33.9163      -999.2500         1.4816      -999.2500      -999.2500         0.7250       -32.7181     
 1586.5000      -999.2500      -999.2500       164.0916        33.7804      -999.2500         1.4847      -999.2500      -999.2500         0.7181       -33.9561     
 1587.0000      -999.2500      -999.2500       167.4434        33.4019      -999.2500         1.4897      -999.2500      -999.2500         0.7124       -34.6258     
 1587.5000      -999.2500      -999.2500       170.0538        32.7728      -999.2500         1.4828      -999.2500      -999.2500         0.7070       -34.7931     
 1588.0000      -999.2500      -999.2500       173.6378        31.8978      -999.2500         1.4475      -999.2500      -999.2500         0.7068       -35.0070     
 1588.5000      -999.2500      -999.2500       177.6834        30.9507      -999.2500         1.4225      -999.2500      -999.2500         0.7128       -35.4444     
 1589.0000      -999.2500      -999.2500       170.0791        30.4988      -999.2500         1.4156      -999.2500      -999.2500         0.7196       -36.1773     
