~Version Information Section
VERS.          2.0                                     : CWLS LOG ASCII Standard
WRAP.          NO                                      : One line per depth step
CREA.          09/01/14                                : LAS Creation Date
~Well Information Section
STRT.ft        1491.5000                               : Start Depth
STOP.ft        9915.0000                               : Stop Depth
STEP.ft        0.5000                                  : Step
NULL.          -999.2500                               : Null Value
COMP.          BURMAH                                  : Company
WELL.          15/12-1                                 : Well
FLD .          WILDCAT                                 : Field
LOC .          OFFSHORE                                : Location
LOC1.                                                  : Location 
PROV.          UKCS                                    : Province
UWI .          2657                                    : UWI Number
API .                                                  : API Number
SECT.                                                  : Section
TOWN.                                                  : Township
RNGE.                                                  : Range
PDAT.          MSL                                     : Perm Datum
EPD .ft        0.00                                    : Elevation
LMF .          RKB                                     : Log Measured From
DMF .          RKB                                     : Drill Measured From
APD .ft        78.00                                   : Above Perm Datum
EKB .ft        78.00                                   : Elev-Kelly Bushing
EDF .ft        77.00                                   : Elev-Drill Floor
TDD .ft        9930.00                                 : Total Depth (Driller)
EGL .ft        -470.00                                 : Elev-Ground Level (Water Depth)
LATI.          58 30 10 N                              : Latitude
LONG.          00 18 30 E                              : Longitude
SRVC.          SCHLUMBERGER                            : Service Company
DATE.          MAY-JUN-1973                            : Logging Date
SET .          COMP WIRE                               : Set
~Curve Information Section
DEPTH.ft                                               : Depth Curve
CALI.in                                                : Caliper
DRHO.g/cc                                              : Delta Rho
DT.us/ft                                               : Delta-T
GR.gAPI                                                : ISF Gamma Ray
GRD.gAPI                                               : FDC Gamma Ray
ILD.ohmm                                               : Deep Induction Resistivity
NPHI.%                                                 : Neutron Porosity
RHOB.g/cc                                              : Bulk Density
SFLU.ohmm                                              : Spherically Focused log Resistivity (Unaveraged)
SP.mV                                                  : Spontaneous Potential
~ASCII Log Data Section
# ...
 7641.0000        14.1970         0.0587        67.4763        16.6099        14.7472         5.1385        10.6219         2.5523         3.5329       -14.6105     
 7641.5000        14.1978         0.0345        66.4982        15.4864        12.8291         5.2557         8.7965         2.5786         3.9660       -14.7365     
 7642.0000        14.1988         0.0267        66.1372        14.7653        11.2021         5.3471         7.5664         2.5970         4.1388       -15.0045     
 7642.5000        14.2027         0.0227        66.3769        14.4410        10.2157         5.4049         7.1062         2.6078         4.1157       -15.1489     
 7643.0000        14.2070         0.0283        67.2911        14.3134         9.8855         5.4527         6.9580         2.5987         4.1439       -15.0591     
 7643.5000        14.2097         0.0645        68.5144        14.3239        10.9122         5.5115         7.1949         2.6224         4.0613       -14.8491     
 7644.0000        14.2018         0.0915        69.4319        14.3301        12.1492         5.5598         8.0740         2.6275         3.6746       -14.6846     
 7644.5000        14.1873         0.0662        69.4874        14.1444        13.0941         5.5616         9.0117         2.5813         3.3212       -14.7026     
 7645.0000        14.1919         0.0465        68.6945        13.9577        13.5560         5.5520         9.5809         2.5711         3.4295       -14.8007     
 7645.5000        14.2003         0.0294        67.9062        13.6638        13.0640         5.6671         9.1262         2.5756         3.7014       -14.8300     
 7646.0000        14.2029         0.0247        66.9380        13.1785        12.3553         5.9557         8.0578         2.5845         3.8965       -14.7893     
 7646.5000        14.2032         0.0278        65.4761        12.9714        11.3977         6.3570         7.4676         2.5905         4.1426       -14.7550     
 7647.0000        14.2147         0.0172        64.0235        13.1617        10.9454         6.6960         6.9876         2.5953         4.4719       -14.8439     
 7647.5000        14.2263         0.0109        63.0847        13.4133        11.0313         6.8324         6.5386         2.6007         4.7960       -15.0523     
 7648.0000        14.2374         0.0168        63.0331        13.5449        11.5714         6.7805         6.2240         2.6161         4.9862       -15.2551     
 7648.5000        14.2417         0.0110        64.6296        13.8256        11.9255         6.5370         6.2747         2.6207         4.9744       -15.2754     
 7649.0000        14.2548         0.0084        67.6809        14.4210        12.2788         6.1309         6.8751         2.6144         4.6796       -15.0021     
 7649.5000        14.2769         0.0094        70.6705        15.2025        14.0011         5.6542         8.3190         2.6092         3.9947       -14.7062     
 7650.0000        14.2837         0.0196        72.8642        15.7987        15.5243         5.1443        10.4403         2.6091         3.3155       -14.5485     
 7650.5000        14.2814         0.0278        74.3985        16.0704        15.9302         4.6386        12.1623         2.5900         3.1218       -14.4582     
 7651.0000        14.2814         0.0354        75.4206        16.3429        16.2352         4.2585        12.8900         2.5810         3.1059       -14.3512     
 7651.5000        14.2871         0.0506        75.9023        17.2481        17.3696         4.1084        12.8535         2.6088         2.9069       -14.2914     
 7652.0000        14.2878         0.0656        74.7560        18.2665        17.9004         4.0938        12.4753         2.6337         2.6987       -14.5375     
 7652.5000        14.2845         0.0485        71.1775        18.4160        16.6745         4.0458        12.0409         2.6304         2.7838       -15.0247     
 7653.0000        14.2778         0.0449        68.0729        17.5219        14.5753         3.9624        11.5414         2.6277         3.2030       -15.2548     
 7653.5000        14.2776         0.0170        67.7626        16.1075        13.0891         3.9230        10.8536         2.6271         3.7432       -14.9211     
 7654.0000        14.2798         0.0161        70.4921        15.2560        13.3011         3.9803         9.9816         2.6008         3.7346       -14.4717     
 7654.5000        14.2752         0.0405        74.5715        15.4873        14.7113         4.1032         9.8525         2.6058         3.1839       -14.3261     
 7655.0000        14.2674         0.0321        75.5810        16.4318        16.9795         4.2146        11.0653         2.5851         2.8184       -14.3684     
 7655.5000        14.2651         0.0254        74.0800        17.1268        18.4146         4.2239        12.3403         2.5707         2.6847       -14.2434     
 7656.0000        14.2639         0.0157        72.4353        17.0354        17.5010         4.0387        12.9295         2.5761         2.5659       -13.9108     
 7656.5000        14.2627         0.0198        71.3340        16.6633        15.9680         3.7244        12.9642         2.5828         2.6981       -13.7893     
 7657.0000        14.2617         0.0216        71.7139        17.0156        15.1798         3.4355        12.3007         2.5870         3.1973       -13.9916     
 7657.5000        14.2606         0.0239        74.9943        17.8461        15.9877         3.3387        11.3861         2.5924         3.4080       -14.1050     
 7658.0000        14.2603         0.0535        79.1788        18.2747        18.4008         3.4348        11.6260         2.6070         2.8940       -13.9826     
 7658.5000        14.2647         0.0803        80.6329        18.1045        20.1055         3.6131        13.4517         2.5977         2.3145       -13.9185     
 7659.0000        14.2741         0.0918        79.1298        17.4966        19.2094         3.7509        15.4993         2.5814         2.1300       -13.7810     
 7659.5000        14.2868         0.0607        75.6319        16.0049        17.8257         3.7789        16.0072         2.5523         2.3800       -13.5945     
 7660.0000        14.3201         0.0352        71.1490        14.0016        16.7030         3.7331        14.5038         2.5437         2.8954       -13.8007     
 7660.5000        14.1659         0.0158        68.2564        12.8624        15.4789         3.7200        12.1833         2.5620         3.4331       -14.2203     
 7661.0000        14.0890         0.0110        68.9307        13.1522        14.7105         3.8187        10.3915         2.6020         3.8110       -14.3969     
 7661.5000        14.0766         0.0058        71.4815        14.3271        14.6256         3.9816         9.5176         2.6008         3.8000       -14.3022     
 7662.0000        14.0859         0.0024        73.7662        15.3034        15.4460         4.1307         9.8405         2.5769         3.2745       -14.0669     
 7662.5000        14.0951         0.0116        75.0917        15.6457        16.4366         4.2290        11.0620         2.5741         2.7250       -13.9042     
 7663.0000        14.1056         0.0240        75.1059        15.5891        17.2953         4.2708        12.1204         2.5869         2.6354       -14.0425     
 7663.5000        14.1172         0.0096        73.9257        15.4720        17.5921         4.2474        12.3216         2.5879         2.6961       -14.4010     
 7664.0000        14.1239         0.0062        72.5972        15.3205        17.5191         4.1643        11.7891         2.6011         2.7298       -14.7609     
 7664.5000        14.1203         0.0187        71.0752        15.3484        17.1676         4.0914        11.5215         2.6158         2.9883       -14.9968     
 7665.0000        14.0966         0.0216        69.1918        15.8391        16.3542         4.0637        11.3651         2.6122         3.3951       -15.0542     
