~Version Information Section
VERS.          2.0                                     : CWLS LOG ASCII Standard
WRAP.          NO                                      : One line per depth step
CREA.          09/01/14                                : LAS Creation Date
~Well Information Section
STRT.ft        1491.5000                               : Start Depth
STOP.ft        9915.0000                               : Stop Depth
STEP.ft        0.5000                                  : Step
NULL.          -999.2500                               : Null Value
COMP.          BURMAH                                  : Company
WELL.          15/12-1                                 : Well
FLD .          WILDCAT                                 : Field
LOC .          OFFSHORE                                : Location
LOC1.                                                  : Location 
PROV.          UKCS                                    : Province
UWI .          2657                                    : UWI Number
API .                                                  : API Number
SECT.                                                  : Section
TOWN.                                                  : Township
RNGE.                                                  : Range
PDAT.          MSL                                     : Perm Datum
EPD .ft        0.00                                    : Elevation
LMF .          RKB                                     : Log Measured From
DMF .          RKB                                     : Drill Measured From
APD .ft        78.00                                   : Above Perm Datum
EKB .ft        78.00                                   : Elev-Kelly Bushing
EDF .ft        77.00                                   : Elev-Drill Floor
TDD .ft        9930.00                                 : Total Depth (Driller)
EGL .ft        -470.00                                 : Elev-Ground Level (Water Depth)
LATI.          58 30 10 N                              : Latitude
LONG.          00 18 30 E                              : Longitude
SRVC.          SCHLUMBERGER                            : Service Company
DATE.          MAY-JUN-1973                            : Logging Date
SET .          COMP WIRE                               : Set
~Curve Information Section
DEPTH.ft                                               : Depth Curve
CALI.in                                                : Caliper
DRHO.g/cc                                              : Delta Rho
DT.us/ft                                               : Delta-T
GR.gAPI                                                : ISF Gamma Ray
GRD.gAPI                                               : FDC Gamma Ray
ILD.ohmm                                               : Deep Induction Resistivity
NPHI.%                                                 : Neutron Porosity
RHOB.g/cc                                              : Bulk Density
SFLU.ohmm                                              : Spherically Focused log Resistivity (Unaveraged)
SP.mV                                                  : Spontaneous Potential
~ASCII Log Data Section
# ...
 2128.5000      -999.2500      -999.2500       146.5385        16.5438      -999.2500         0.9678      -999.2500      -999.2500         0.7679       -36.4772     
 2129.0000      -999.2500      -999.2500       147.1985        16.2448      -999.2500         0.9642      -999.2500      -999.2500         0.7464       -36.7920     
 2129.5000      -999.2500      -999.2500       148.1768        16.4437      -999.2500         0.9592      -999.2500      -999.2500         0.7230       -37.1215     
 2130.0000      -999.2500      -999.2500       149.4363        17.0279      -999.2500         0.9523      -999.2500      -999.2500         0.7060       -37.4029     
 2130.5000      -999.2500      -999.2500       150.4152        17.7321      -999.2500         0.9455      -999.2500      -999.2500         0.6981       -37.6733     
 2131.0000      -999.2500      -999.2500       151.2346        18.2330      -999.2500         0.9412      -999.2500      -999.2500         0.6962       -37.8668     
 2131.5000      -999.2500      -999.2500       152.0035        18.4434      -999.2500         0.9403      -999.2500      -999.2500         0.6987       -38.0291     
 2132.0000      -999.2500      -999.2500       151.4380        18.3570      -999.2500         0.9423      -999.2500      -999.2500         0.7049       -38.1277     
 2132.5000      -999.2500      -999.2500       149.8568        17.9239      -999.2500         0.9460      -999.2500      -999.2500         0.7178       -38.1485     
 2133.0000      -999.2500      -999.2500       149.1113        17.1901      -999.2500         0.9519      -999.2500      -999.2500         0.7327       -38.0448     
 2133.5000      -999.2500      -999.2500       148.6110        16.3605      -999.2500         0.9566      -999.2500      -999.2500         0.7422       -37.8066     
 2134.0000      -999.2500      -999.2500       148.5717        15.6506      -999.2500         0.9590      -999.2500      -999.2500         0.7475       -37.5179     
 2134.5000      -999.2500      -999.2500       148.7836        14.9307      -999.2500         0.9590      -999.2500      -999.2500         0.7445       -37.2111     
 2135.0000      -999.2500      -999.2500       149.0355        14.3177      -999.2500         0.9563      -999.2500      -999.2500         0.7381       -36.8641     
 2135.5000      -999.2500      -999.2500       149.2688        14.0520      -999.2500         0.9483      -999.2500      -999.2500         0.7314       -36.5325     
 2136.0000      -999.2500      -999.2500       149.5501        14.4317      -999.2500         0.9383      -999.2500      -999.2500         0.7216       -36.4218     
 2136.5000      -999.2500      -999.2500       150.1603        15.2281      -999.2500         0.9268      -999.2500      -999.2500         0.7077       -36.7420     
 2137.0000      -999.2500      -999.2500       151.1174        16.5969      -999.2500         0.9195      -999.2500      -999.2500         0.6957       -37.0632     
 2137.5000      -999.2500      -999.2500       152.2692        18.0330      -999.2500         0.9170      -999.2500      -999.2500         0.6854       -37.1857     
 2138.0000      -999.2500      -999.2500       153.5558        19.4638      -999.2500         0.9166      -999.2500      -999.2500         0.6782       -37.0889     
 2138.5000      -999.2500      -999.2500       154.7499        20.4032      -999.2500         0.9170      -999.2500      -999.2500         0.6721       -36.7639     
 2139.0000      -999.2500      -999.2500       154.5232        20.9675      -999.2500         0.9162      -999.2500      -999.2500         0.6678       -36.4812     
 2139.5000      -999.2500      -999.2500       152.6282        21.2617      -999.2500         0.9142      -999.2500      -999.2500         0.6715       -36.4091     
 2140.0000      -999.2500      -999.2500       150.1511        21.2271      -999.2500         0.9098      -999.2500      -999.2500         0.6885       -36.4903     
 2140.5000      -999.2500      -999.2500       147.9202        20.7709      -999.2500         0.9028      -999.2500      -999.2500         0.7121       -36.5426     
 2141.0000      -999.2500      -999.2500       146.7435        20.0977      -999.2500         0.8967      -999.2500      -999.2500         0.7278       -36.5958     
 2141.5000      -999.2500      -999.2500       148.1615        19.5945      -999.2500         0.8916      -999.2500      -999.2500         0.7295       -36.6910     
 2142.0000      -999.2500      -999.2500       150.1642        20.3025      -999.2500         0.8877      -999.2500      -999.2500         0.7081       -36.8062     
 2142.5000      -999.2500      -999.2500       151.9187        21.6610      -999.2500         0.8858      -999.2500      -999.2500         0.6862       -36.9005     
 2143.0000      -999.2500      -999.2500       152.5558        22.0746      -999.2500         0.8842      -999.2500      -999.2500         0.6678       -37.0009     
 2143.5000      -999.2500      -999.2500       151.6960        21.2324      -999.2500         0.8827      -999.2500      -999.2500         0.6571       -37.0128     
 2144.0000      -999.2500      -999.2500       150.3336        20.0258      -999.2500         0.8807      -999.2500      -999.2500         0.6502       -36.8669     
 2144.5000      -999.2500      -999.2500       149.5296        19.4799      -999.2500         0.8757      -999.2500      -999.2500         0.6469       -36.9279     
 2145.0000      -999.2500      -999.2500       149.5480        19.5278      -999.2500         0.8704      -999.2500      -999.2500         0.6454       -37.1821     
 2145.5000      -999.2500      -999.2500       150.6599        19.4785      -999.2500         0.8697      -999.2500      -999.2500         0.6450       -37.5267     
 2146.0000      -999.2500      -999.2500       152.1992        19.0868      -999.2500         0.8710      -999.2500      -999.2500         0.6463       -37.6654     
 2146.5000      -999.2500      -999.2500       152.4643        19.0234      -999.2500         0.8779      -999.2500      -999.2500         0.6481       -37.4441     
 2147.0000      -999.2500      -999.2500       151.9223        19.5328      -999.2500         0.8880      -999.2500      -999.2500         0.6518       -37.2138     
 2147.5000      -999.2500      -999.2500       150.7364        19.6405      -999.2500         0.8973      -999.2500      -999.2500         0.6575       -37.0445     
 2148.0000      -999.2500      -999.2500       149.3727        18.9726      -999.2500         0.9058      -999.2500      -999.2500         0.6681       -36.9749     
 2148.5000      -999.2500      -999.2500       148.4547        18.0549      -999.2500         0.9130      -999.2500      -999.2500         0.6814       -36.9579     
 2149.0000      -999.2500      -999.2500       147.7591        17.3843      -999.2500         0.9183      -999.2500      -999.2500         0.6963       -37.0162     
 2149.5000      -999.2500      -999.2500       147.3353        17.0163      -999.2500         0.9211      -999.2500      -999.2500         0.7067       -37.4146     
 2150.0000      -999.2500      -999.2500       147.4752        16.6521      -999.2500         0.9196      -999.2500      -999.2500         0.7113       -37.7808     
 2150.5000      -999.2500      -999.2500       148.8182        16.1445      -999.2500         0.9168      -999.2500      -999.2500         0.7068       -37.9084     
 2151.0000      -999.2500      -999.2500       149.6537        15.6565      -999.2500         0.9121      -999.2500      -999.2500         0.6959       -37.8681     
 2151.5000      -999.2500      -999.2500       150.4080        15.5455      -999.2500         0.9042      -999.2500      -999.2500         0.6842       -37.8087     
 2152.0000      -999.2500      -999.2500       150.9730        15.8136      -999.2500         0.8959      -999.2500      -999.2500         0.6784       -37.7571     
 2152.5000      -999.2500      -999.2500       151.9456        15.8505      -999.2500         0.8915      -999.2500      -999.2500         0.6789       -37.6973     
