~Version Information Section
VERS.          2.0                                     : CWLS LOG ASCII Standard
WRAP.          NO                                      : One line per depth step
CREA.          09/01/14                                : LAS Creation Date
~Well Information Section
STRT.ft        1491.5000                               : Start Depth
STOP.ft        9915.0000                               : Stop Depth
STEP.ft        0.5000                                  : Step
NULL.          -999.2500                               : Null Value
COMP.          BURMAH                                  : Company
WELL.          15/12-1                                 : Well
FLD .          WILDCAT                                 : Field
LOC .          OFFSHORE                                : Location
LOC1.                                                  : Location 
PROV.          UKCS                                    : Province
UWI .          2657                                    : UWI Number
API .                                                  : API Number
SECT.                                                  : Section
TOWN.                                                  : Township
RNGE.                                                  : Range
PDAT.          MSL                                     : Perm Datum
EPD .ft        0.00                                    : Elevation
LMF .          RKB                                     : Log Measured From
DMF .          RKB                                     : Drill Measured From
APD .ft        78.00                                   : Above Perm Datum
EKB .ft        78.00                                   : Elev-Kelly Bushing
EDF .ft        77.00                                   : Elev-Drill Floor
TDD .ft        9930.00                                 : Total Depth (Driller)
EGL .ft        -470.00                                 : Elev-Ground Level (Water Depth)
LATI.          58 30 10 N                              : Latitude
LONG.          00 18 30 E                              : Longitude
SRVC.          SCHLUMBERGER                            : Service Company
DATE.          MAY-JUN-1973                            : Logging Date
SET .          COMP WIRE                               : Set
~Curve Information Section
DEPTH.ft                                               : Depth Curve
CALI.in                                                : Caliper
DRHO.g/cc                                              : Delta Rho
DT.us/ft                                               : Delta-T
GR.gAPI                                                : ISF Gamma Ray
GRD.gAPI                                               : FDC Gamma Ray
ILD.ohmm                                               : Deep Induction Resistivity
NPHI.%                                                 : Neutron Porosity
RHOB.g/cc                                              : Bulk Density
SFLU.ohmm                                              : Spherically Focused log Resistivity (Unaveraged)
SP.mV                                                  : Spontaneous Potential
~ASCII Log Data Section
# ...
 4333.5000      -999.2500      -999.2500       125.1413        32.4097      -999.2500         0.5825      -999.2500      -999.2500         0.5851       -32.3747     
 4334.0000      -999.2500      -999.2500       125.3222        33.5871      -999.2500         0.5836      -999.2500      -999.2500         0.5840       -32.0070     
 4334.5000      -999.2500      -999.2500       125.2738        34.6515      -999.2500         0.5972      -999.2500      -999.2500         0.5944       -31.9473     
 4335.0000      -999.2500      -999.2500       125.1872        35.5421      -999.2500         0.6171      -999.2500      -999.2500         0.6161       -32.1813     
 4335.5000      -999.2500      -999.2500       125.5620        36.9865      -999.2500         0.6393      -999.2500      -999.2500         0.6462       -32.4896     
 4336.0000      -999.2500      -999.2500       125.5917        38.8512      -999.2500         0.6636      -999.2500      -999.2500         0.6748       -32.5749     
 4336.5000      -999.2500      -999.2500       125.4836        40.1782      -999.2500         0.6891      -999.2500      -999.2500         0.6966       -31.6126     
 4337.0000      -999.2500      -999.2500       127.7576        40.5742      -999.2500         0.7165      -999.2500      -999.2500         0.7018       -30.4705     
 4337.5000      -999.2500      -999.2500       130.5849        40.4589      -999.2500         0.7463      -999.2500      -999.2500         0.6997       -29.6880     
 4338.0000      -999.2500      -999.2500       131.7610        40.3663      -999.2500         0.7491      -999.2500      -999.2500         0.6988       -29.4807     
 4338.5000      -999.2500      -999.2500       130.5807        40.3081      -999.2500         0.7156      -999.2500      -999.2500         0.7042       -29.4526     
 4339.0000      -999.2500      -999.2500       128.9580        39.6032      -999.2500         0.6717      -999.2500      -999.2500         0.7113       -29.6277     
 4339.5000      -999.2500      -999.2500       128.5393        37.7766      -999.2500         0.6422      -999.2500      -999.2500         0.7006       -30.4076     
 4340.0000      -999.2500      -999.2500       129.1667        35.2611      -999.2500         0.6156      -999.2500      -999.2500         0.6713       -31.5588     
 4340.5000      -999.2500      -999.2500       129.6283        33.3062      -999.2500         0.5887      -999.2500      -999.2500         0.6309       -32.7660     
 4341.0000      -999.2500      -999.2500       129.5222        31.8045      -999.2500         0.5623      -999.2500      -999.2500         0.6025       -33.1153     
 4341.5000      -999.2500      -999.2500       129.3821        31.0129      -999.2500         0.5403      -999.2500      -999.2500         0.5901       -32.6648     
 4342.0000      -999.2500      -999.2500       128.9350        31.8661      -999.2500         0.5320      -999.2500      -999.2500         0.5769       -31.8275     
 4342.5000      -999.2500      -999.2500       128.1497        33.6931      -999.2500         0.5334      -999.2500      -999.2500         0.5910       -30.9545     
 4343.0000      -999.2500      -999.2500       127.3825        35.7143      -999.2500         0.5396      -999.2500      -999.2500         0.6067       -30.0819     
 4343.5000      -999.2500      -999.2500       127.8462        37.0070      -999.2500         0.5545      -999.2500      -999.2500         0.6179       -29.4573     
 4344.0000      -999.2500      -999.2500       130.0912        37.8345      -999.2500         0.5791      -999.2500      -999.2500         0.6359       -29.0418     
 4344.5000      -999.2500      -999.2500       132.2257        38.3463      -999.2500         0.6037      -999.2500      -999.2500         0.6615       -29.2028     
 4345.0000      -999.2500      -999.2500       133.5568        38.5334      -999.2500         0.6231      -999.2500      -999.2500         0.6865       -29.8947     
 4345.5000      -999.2500      -999.2500       133.1609        38.4287      -999.2500         0.6355      -999.2500      -999.2500         0.6919       -31.0724     
 4346.0000      -999.2500      -999.2500       130.2390        38.0630      -999.2500         0.6374      -999.2500      -999.2500         0.6740       -32.2225     
 4346.5000      -999.2500      -999.2500       125.9949        37.6621      -999.2500         0.6330      -999.2500      -999.2500         0.6590       -32.8490     
 4347.0000      -999.2500      -999.2500       121.5542        37.6273      -999.2500         0.6237      -999.2500      -999.2500         0.6625       -32.7756     
 4347.5000      -999.2500      -999.2500       121.4109        38.0081      -999.2500         0.6114      -999.2500      -999.2500         0.6606       -32.3729     
 4348.0000      -999.2500      -999.2500       123.6328        38.6355      -999.2500         0.6007      -999.2500      -999.2500         0.6426       -31.6593     
 4348.5000      -999.2500      -999.2500       126.3228        39.3033      -999.2500         0.5978      -999.2500      -999.2500         0.6312       -30.8278     
 4349.0000      -999.2500      -999.2500       127.8436        39.4828      -999.2500         0.6029      -999.2500      -999.2500         0.6310       -30.1720     
 4349.5000      -999.2500      -999.2500       128.6365        39.2160      -999.2500         0.6144      -999.2500      -999.2500         0.6304       -29.9139     
 4350.0000      -999.2500      -999.2500       129.7610        39.4378      -999.2500         0.6304      -999.2500      -999.2500         0.6346       -29.9051     
 4350.5000      -999.2500      -999.2500       132.0844        40.5573      -999.2500         0.6565      -999.2500      -999.2500         0.6530       -29.6022     
 4351.0000      -999.2500      -999.2500       134.3320        41.4468      -999.2500         0.6905      -999.2500      -999.2500         0.6853       -29.4573     
 4351.5000      -999.2500      -999.2500       134.4754        41.1109      -999.2500         0.7339      -999.2500      -999.2500         0.7245       -29.6059     
 4352.0000      -999.2500      -999.2500       132.7550        40.8429      -999.2500         0.7969      -999.2500      -999.2500         0.7694       -29.5068     
 4352.5000      -999.2500      -999.2500       130.5279        41.1509      -999.2500         0.8651      -999.2500      -999.2500         0.8133       -29.0529     
 4353.0000      -999.2500      -999.2500       128.4298        41.9428      -999.2500         0.9415      -999.2500      -999.2500         0.8477       -28.4676     
 4353.5000      -999.2500      -999.2500       126.6738        43.2846      -999.2500         1.0230      -999.2500      -999.2500         0.8691       -27.4759     
 4354.0000      -999.2500      -999.2500       125.0579        44.9817      -999.2500         1.0827      -999.2500      -999.2500         0.8824       -26.0554     
 4354.5000      -999.2500      -999.2500       123.5801        45.9582      -999.2500         1.0898      -999.2500      -999.2500         0.8978       -25.1166     
 4355.0000      -999.2500      -999.2500       122.4444        44.9202      -999.2500         1.0565      -999.2500      -999.2500         0.9158       -24.7857     
 4355.5000      -999.2500      -999.2500       122.0466        42.9420      -999.2500         1.0029      -999.2500      -999.2500         0.9257       -24.7946     
 4356.0000      -999.2500      -999.2500       122.3884        40.8252      -999.2500         0.9414      -999.2500      -999.2500         0.8998       -25.5425     
 4356.5000      -999.2500      -999.2500       123.5812        39.4923      -999.2500         0.8979      -999.2500      -999.2500         0.8371       -26.7529     
 4357.0000      -999.2500      -999.2500       125.6037        39.8385      -999.2500         0.8796      -999.2500      -999.2500         0.7844       -27.3194     
 4357.5000      -999.2500      -999.2500       127.5248        41.6689      -999.2500         0.8672      -999.2500      -999.2500         0.7618       -27.2832     
