~Version Information Section
VERS.          2.0                                     : CWLS LOG ASCII Standard
WRAP.          NO                                      : One line per depth step
CREA.          09/01/14                                : LAS Creation Date
~Well Information Section
STRT.ft        1491.5000                               : Start Depth
STOP.ft        9915.0000                               : Stop Depth
STEP.ft        0.5000                                  : Step
NULL.          -999.2500                               : Null Value
COMP.          BURMAH                                  : Company
WELL.          15/12-1                                 : Well
FLD .          WILDCAT                                 : Field
LOC .          OFFSHORE                                : Location
LOC1.                                                  : Location 
PROV.          UKCS                                    : Province
UWI .          2657                                    : UWI Number
API .                                                  : API Number
SECT.                                                  : Section
TOWN.                                                  : Township
RNGE.                                                  : Range
PDAT.          MSL                                     : Perm Datum
EPD .ft        0.00                                    : Elevation
LMF .          RKB                                     : Log Measured From
DMF .          RKB                                     : Drill Measured From
APD .ft        78.00                                   : Above Perm Datum
EKB .ft        78.00                                   : Elev-Kelly Bushing
EDF .ft        77.00                                   : Elev-Drill Floor
TDD .ft        9930.00                                 : Total Depth (Driller)
EGL .ft        -470.00                                 : Elev-Ground Level (Water Depth)
LATI.          58 30 10 N                              : Latitude
LONG.          00 18 30 E                              : Longitude
SRVC.          SCHLUMBERGER                            : Service Company
DATE.          MAY-JUN-1973                            : Logging Date
SET .          COMP WIRE                               : Set
~Curve Information Section
DEPTH.ft                                               : Depth Curve
CALI.in                                                : Caliper
DRHO.g/cc                                              : Delta Rho
DT.us/ft                                               : Delta-T
GR.gAPI                                                : ISF Gamma Ray
GRD.gAPI                                               : FDC Gamma Ray
ILD.ohmm                                               : Deep Induction Resistivity
NPHI.%                                                 : Neutron Porosity
RHOB.g/cc                                              : Bulk Density
SFLU.ohmm                                              : Spherically Focused log Resistivity (Unaveraged)
SP.mV                                                  : Spontaneous Potential
~ASCII Log Data Section
# ...
 4872.5000        12.1019         0.0290       154.7166        53.4544        55.5179         0.9917        49.6685         2.0532         0.7839       -14.3075     
 4873.0000        12.1176         0.0339       155.2274        53.6621        55.4394         0.9875        50.2377         2.0628         0.7959       -14.0528     
 4873.5000        12.1885         0.0339       155.5046        53.6107        56.4435         0.9857        51.3762         2.0659         0.8033       -13.9482     
 4874.0000        12.2853         0.0379       155.2979        53.1824        58.0460         0.9869        52.0478         2.0734         0.8025       -13.9512     
 4874.5000        12.4242         0.0470       155.0298        52.3099        59.4929         0.9909        50.8543         2.0886         0.7922       -14.0020     
 4875.0000        12.5130         0.0504       155.0709        51.5166        58.7981         0.9997        50.0634         2.0971         0.7857       -14.0800     
 4875.5000        12.4655         0.0382       155.1157        51.0873        56.3329         1.0101        49.5626         2.0904         0.7947       -14.1094     
 4876.0000        12.3733         0.0242       154.7972        51.1686        54.6005         1.0187        50.2214         2.0842         0.8168       -14.0529     
 4876.5000        12.3156         0.0181       153.6825        51.9471        54.2162         1.0260        49.7782         2.0829         0.8366       -13.9129     
 4877.0000        12.3161         0.0184       150.6772        53.5431        55.1005         1.0307        49.1298         2.0875         0.8396       -13.7507     
 4877.5000        12.3036         0.0222       144.5055        54.8838        56.7817         1.0325        48.6056         2.0936         0.8327       -13.7502     
 4878.0000        12.2885         0.0262       139.8443        54.3978        57.2716         1.0323        48.2546         2.0964         0.8248       -13.9373     
 4878.5000        12.3581         0.0299       139.7432        52.5871        56.9478         1.0295        48.0105         2.0965         0.8176       -14.2332     
 4879.0000        12.4661         0.0333       140.8806        50.5219        56.7503         1.0225        48.5458         2.0923         0.8133       -14.5050     
 4879.5000        12.4306         0.0389       141.3380        48.6167        55.3893         1.0082        49.5925         2.1009         0.8125       -14.6802     
 4880.0000        12.3135         0.0407       138.1438        46.9905        53.4330         0.9794        49.6944         2.1142         0.8128       -14.8342     
 4880.5000        12.2342         0.0358       129.4347        45.7832        51.0387         0.9234        48.2112         2.1267         0.8086       -15.1376     
 4881.0000        12.1874         0.0205       119.3819        45.3026        48.3214         0.8296        45.4720         2.1405         0.8082       -15.8793     
 4881.5000        12.1618         0.0049       111.3513        45.4495        45.2665         0.7217        41.0689         2.1665         0.8241       -16.9402     
 4882.0000        12.1629         0.0278       107.8953        45.7007        43.1267         0.6470        37.8142         2.2017         0.8391       -17.2868     
 4882.5000        12.1686         0.0621       110.5954        45.4952        43.5959         0.6116        37.4612         2.2253         0.7951       -16.8628     
 4883.0000        12.1706         0.0734       116.3627        45.1606        46.2652         0.5939        38.8780         2.2166         0.6691       -16.4526     
 4883.5000        12.1701         0.0548       122.1177        44.9446        47.7278         0.5846        39.5713         2.1765         0.5904       -16.3180     
 4884.0000        12.1931         0.0339       127.7148        44.8703        47.5004         0.5845        38.2736         2.1657         0.6340       -16.5437     
 4884.5000        12.2571         0.0300       133.2592        44.7667        47.3595         0.6044        37.2871         2.1855         0.7510       -16.8853     
 4885.0000        12.2159         0.0496       136.5477        44.2248        46.9417         0.6599        37.8114         2.2218         0.8320       -16.9367     
 4885.5000        12.1353         0.0649       129.0681        42.9210        44.9963         0.7529        38.1968         2.2502         0.8334       -16.7990     
 4886.0000        12.1069         0.0624       113.3217        40.9974        42.7677         0.8792        35.5094         2.2862         0.8343       -16.7141     
 4886.5000        12.1487         0.0359        96.4131        38.8118        40.0644         0.9757        29.0319         2.3402         0.9253       -17.2657     
 4887.0000        12.2364         0.0203        84.6399        37.5801        38.0004         1.0130        23.5918         2.4073         1.3626       -18.8127     
 4887.5000        12.3548         0.0345        84.2559        38.3913        38.3215         1.0216        24.4858         2.4177         1.9978       -20.7409     
 4888.0000        12.2791         0.0262        95.3397        40.7114        40.9113         1.0052        29.3674         2.3318         1.8099       -22.1632     
 4888.5000        12.1622         0.0153       108.5423        43.7083        45.2089         0.9759        34.0690         2.2311         1.1843       -22.1952     
 4889.0000        12.1063         0.0243       125.7866        46.9912        49.3992         0.9339        37.6775         2.1933         0.9636       -20.7281     
 4889.5000        12.0667         0.0369       140.9355        50.2138        53.0559         0.8818        41.3443         2.1805         0.8846       -18.6218     
 4890.0000        12.0521         0.0287       148.1923        52.8379        55.8034         0.8298        44.3266         2.1519         0.7929       -17.0354     
 4890.5000        12.0790         0.0213       150.9516        54.3448        56.7159         0.7831        45.5335         2.1295         0.7462       -16.0813     
 4891.0000        12.1447         0.0327       150.9458        54.7296        56.6940         0.7509        45.2201         2.1458         0.7858       -15.2798     
 4891.5000        12.2257         0.0570       150.2171        54.3195        56.0859         0.7393        43.9187         2.1857         0.8115       -14.5523     
 4892.0000        12.2665         0.0617       150.0547        53.4934        56.2081         0.7396        43.8488         2.1842         0.7979       -13.8305     
 4892.5000        12.2645         0.0463       150.2764        52.3921        55.9681         0.7442        45.1637         2.1574         0.7810       -13.2499     
 4893.0000        12.2505         0.0290       150.1329        51.0957        55.3174         0.7509        46.2898         2.1271         0.7727       -12.9011     
 4893.5000        12.2384         0.0218       149.2797        50.0385        54.2026         0.7588        47.7196         2.1183         0.7710       -12.6588     
 4894.0000        12.2248         0.0228       147.8300        48.8851        52.3768         0.7657        48.2039         2.1242         0.7726       -12.5565     
 4894.5000        12.2088         0.0154       146.7901        47.9784        51.0373         0.7697        47.8166         2.1165         0.7752       -12.6869     
 4895.0000        12.1894         0.0081       146.8752        47.5557        49.9559         0.7708        47.3944         2.1069         0.7771       -13.0234     
 4895.5000        12.1727         0.0082       147.2129        47.3321        48.5053         0.7740        46.2041         2.1108         0.7739       -13.5416     
 4896.0000        12.1582         0.0111       146.2904        47.4212        47.3765         0.7848        44.0608         2.1194         0.7547       -14.0799     
 4896.5000        12.1481         0.0120       142.4744        48.1916        47.0433         0.8015        42.7103         2.1259         0.7142       -14.7141     
