~Version Information Section
VERS.          2.0                                     : CWLS LOG ASCII Standard
WRAP.          NO                                      : One line per depth step
CREA.          09/01/14                                : LAS Creation Date
~Well Information Section
STRT.ft        1491.5000                               : Start Depth
STOP.ft        9915.0000                               : Stop Depth
STEP.ft        0.5000                                  : Step
NULL.          -999.2500                               : Null Value
COMP.          BURMAH                                  : Company
WELL.          15/12-1                                 : Well
FLD .          WILDCAT                                 : Field
LOC .          OFFSHORE                                : Location
LOC1.                                                  : Location 
PROV.          UKCS                                    : Province
UWI .          2657                                    : UWI Number
API .                                                  : API Number
SECT.                                                  : Section
TOWN.                                                  : Township
RNGE.                                                  : Range
PDAT.          MSL                                     : Perm Datum
EPD .ft        0.00                                    : Elevation
LMF .          RKB                                     : Log Measured From
DMF .          RKB                                     : Drill Measured From
APD .ft        78.00                                   : Above Perm Datum
EKB .ft        78.00                                   : Elev-Kelly Bushing
EDF .ft        77.00                                   : Elev-Drill Floor
TDD .ft        9930.00                                 : Total Depth (Driller)
EGL .ft        -470.00                                 : Elev-Ground Level (Water Depth)
LATI.          58 30 10 N                              : Latitude
LONG.          00 18 30 E                              : Longitude
SRVC.          SCHLUMBERGER                            : Service Company
DATE.          MAY-JUN-1973                            : Logging Date
SET .          COMP WIRE                               : Set
~Curve Information Section
DEPTH.ft                                               : Depth Curve
CALI.in                                                : Caliper
DRHO.g/cc                                              : Delta Rho
DT.us/ft                                               : Delta-T
GR.gAPI                                                : ISF Gamma Ray
GRD.gAPI                                               : FDC Gamma Ray
ILD.ohmm                                               : Deep Induction Resistivity
NPHI.%                                                 : Neutron Porosity
RHOB.g/cc                                              : Bulk Density
SFLU.ohmm                                              : Spherically Focused log Resistivity (Unaveraged)
SP.mV                                                  : Spontaneous Potential
~ASCII Log Data Section
# ...
 9282.5000      -999.2500      -999.2500       109.8130        62.9971      -999.2500         0.7213      -999.2500      -999.2500         0.7383       -12.6287     
 9283.0000      -999.2500      -999.2500       110.5451        61.5199      -999.2500         0.7228      -999.2500      -999.2500         0.7177       -13.0341     
 9283.5000      -999.2500      -999.2500       111.2784        60.7379      -999.2500         0.7225      -999.2500      -999.2500         0.7017       -13.3079     
 9284.0000      -999.2500      -999.2500       112.4835        60.7786      -999.2500         0.7214      -999.2500      -999.2500         0.6943       -13.4443     
 9284.5000      -999.2500      -999.2500       114.3879        60.8400      -999.2500         0.7216      -999.2500      -999.2500         0.6977       -13.4397     
 9285.0000      -999.2500      -999.2500       116.1861        60.2331      -999.2500         0.7286      -999.2500      -999.2500         0.7117       -13.2681     
 9285.5000      -999.2500      -999.2500       117.4745        59.4566      -999.2500         0.7452      -999.2500      -999.2500         0.7344       -12.9721     
 9286.0000      -999.2500      -999.2500       119.0592        58.8958      -999.2500         0.7689      -999.2500      -999.2500         0.7515       -12.4664     
 9286.5000      -999.2500      -999.2500       119.3156        57.9313      -999.2500         0.8090      -999.2500      -999.2500         0.7627       -11.7104     
 9287.0000      -999.2500      -999.2500       115.5769        56.3351      -999.2500         0.8653      -999.2500      -999.2500         0.7759       -11.0802     
 9287.5000      -999.2500      -999.2500       108.9008        54.0954      -999.2500         0.9278      -999.2500      -999.2500         0.8320       -11.1043     
 9288.0000      -999.2500      -999.2500       104.1135        50.8287      -999.2500         0.9887      -999.2500      -999.2500         0.9500       -11.5319     
 9288.5000      -999.2500      -999.2500       102.1684        47.3099      -999.2500         1.0477      -999.2500      -999.2500         1.0660       -11.8979     
 9289.0000      -999.2500      -999.2500       101.6564        45.0062      -999.2500         1.1122      -999.2500      -999.2500         1.1423       -12.2886     
 9289.5000      -999.2500      -999.2500       104.1109        43.9676      -999.2500         1.1695      -999.2500      -999.2500         1.1855       -12.7915     
 9290.0000      -999.2500      -999.2500       106.2050        44.7376      -999.2500         1.1921      -999.2500      -999.2500         1.1640       -13.3076     
 9290.5000      -999.2500      -999.2500       103.4817        47.1999      -999.2500         1.1727      -999.2500      -999.2500         1.0761       -13.4965     
 9291.0000      -999.2500      -999.2500        97.7433        49.2695      -999.2500         1.1270      -999.2500      -999.2500         1.0371       -13.0647     
 9291.5000      -999.2500      -999.2500        97.8793        49.6640      -999.2500         1.0755      -999.2500      -999.2500         1.0689       -12.3623     
 9292.0000      -999.2500      -999.2500       100.6355        50.0546      -999.2500         1.0195      -999.2500      -999.2500         1.0276       -11.6560     
 9292.5000      -999.2500      -999.2500       103.9093        51.3581      -999.2500         0.9516      -999.2500      -999.2500         0.9441       -11.2195     
 9293.0000      -999.2500      -999.2500       106.4186        54.2800      -999.2500         0.8903      -999.2500      -999.2500         0.9178       -11.3182     
 9293.5000      -999.2500      -999.2500       107.7672        59.6527      -999.2500         0.8526      -999.2500      -999.2500         0.9407       -11.7266     
 9294.0000      -999.2500      -999.2500       108.0424        65.0643      -999.2500         0.8280      -999.2500      -999.2500         0.9349       -12.3432     
 9294.5000      -999.2500      -999.2500       107.8485        67.4060      -999.2500         0.8240      -999.2500      -999.2500         0.8717       -13.1521     
 9295.0000      -999.2500      -999.2500       106.3402        68.2339      -999.2500         0.8434      -999.2500      -999.2500         0.8003       -14.0765     
 9295.5000      -999.2500      -999.2500       103.1077        67.9044      -999.2500         0.8698      -999.2500      -999.2500         0.7944       -14.7095     
 9296.0000      -999.2500      -999.2500        99.0247        66.3697      -999.2500         0.8984      -999.2500      -999.2500         0.8755       -14.6542     
 9296.5000      -999.2500      -999.2500        94.2849        64.3372      -999.2500         0.9280      -999.2500      -999.2500         1.0431       -13.9065     
 9297.0000      -999.2500      -999.2500        89.9135        62.2804      -999.2500         0.9668      -999.2500      -999.2500         1.1532       -12.2963     
 9297.5000      -999.2500      -999.2500        88.5414        60.9832      -999.2500         1.0161      -999.2500      -999.2500         1.2490       -10.4386     
 9298.0000      -999.2500      -999.2500        91.3822        60.8069      -999.2500         1.0701      -999.2500      -999.2500         1.3963        -9.9887     
 9298.5000      -999.2500      -999.2500        95.8828        61.1864      -999.2500         1.1223      -999.2500      -999.2500         1.4171       -10.8092     
 9299.0000      -999.2500      -999.2500        98.7518        60.3646      -999.2500         1.1601      -999.2500      -999.2500         1.2152       -11.4350     
 9299.5000      -999.2500      -999.2500        99.4903        58.3220      -999.2500         1.1685      -999.2500      -999.2500         1.0796       -10.9713     
 9300.0000      -999.2500      -999.2500        99.4565        56.2258      -999.2500         1.1515      -999.2500      -999.2500         1.0670       -10.8044     
 9300.5000      -999.2500      -999.2500        98.6990        55.2659      -999.2500         1.1121      -999.2500      -999.2500         1.0825       -11.1614     
 9301.0000      -999.2500      -999.2500        95.9812        55.6979      -999.2500         1.0725      -999.2500      -999.2500         1.0954       -11.5789     
 9301.5000      -999.2500      -999.2500        88.5850        56.5259      -999.2500         1.0640      -999.2500      -999.2500         1.1079       -11.7321     
 9302.0000      -999.2500      -999.2500        79.0478        57.4473      -999.2500         1.0797      -999.2500      -999.2500         1.1080       -11.6490     
 9302.5000      -999.2500      -999.2500        81.6507        58.4641      -999.2500         1.1060      -999.2500      -999.2500         1.1486       -11.0645     
 9303.0000      -999.2500      -999.2500        93.3782        59.4568      -999.2500         1.1360      -999.2500      -999.2500         1.2148       -10.3656     
 9303.5000      -999.2500      -999.2500        94.5298        60.9129      -999.2500         1.1619      -999.2500      -999.2500         1.1989       -10.5007     
 9304.0000      -999.2500      -999.2500        95.4068        62.7032      -999.2500         1.1768      -999.2500      -999.2500         1.1680       -11.6964     
 9304.5000      -999.2500      -999.2500        96.0833        63.4295      -999.2500         1.1683      -999.2500      -999.2500         1.1876       -12.8645     
 9305.0000      -999.2500      -999.2500        96.1010        62.8041      -999.2500         1.1214      -999.2500      -999.2500         1.2267       -13.6564     
 9305.5000      -999.2500      -999.2500        96.3203        61.4718      -999.2500         1.0435      -999.2500      -999.2500         1.2294       -13.8084     
 9306.0000      -999.2500      -999.2500        96.8928        60.1264      -999.2500         0.9723      -999.2500      -999.2500         1.1874       -12.9106     
 9306.5000      -999.2500      -999.2500        98.8118        58.8831      -999.2500         0.9207      -999.2500      -999.2500         1.1019       -11.8229     
