~Version Information Section
VERS.          2.0                                     : CWLS LOG ASCII Standard
WRAP.          NO                                      : One line per depth step
CREA.          09/01/14                                : LAS Creation Date
~Well Information Section
STRT.ft        1491.5000                               : Start Depth
STOP.ft        9915.0000                               : Stop Depth
STEP.ft        0.5000                                  : Step
NULL.          -999.2500                               : Null Value
COMP.          BURMAH                                  : Company
WELL.          15/12-1                                 : Well
FLD .          WILDCAT                                 : Field
LOC .          OFFSHORE                                : Location
LOC1.                                                  : Location 
PROV.          UKCS                                    : Province
UWI .          2657                                    : UWI Number
API .                                                  : API Number
SECT.                                                  : Section
TOWN.                                                  : Township
RNGE.                                                  : Range
PDAT.          MSL                                     : Perm Datum
EPD .ft        0.00                                    : Elevation
LMF .          RKB                                     : Log Measured From
DMF .          RKB                                     : Drill Measured From
APD .ft        78.00                                   : Above Perm Datum
EKB .ft        78.00                                   : Elev-Kelly Bushing
EDF .ft        77.00                                   : Elev-Drill Floor
TDD .ft        9930.00                                 : Total Depth (Driller)
EGL .ft        -470.00                                 : Elev-Ground Level (Water Depth)
LATI.          58 30 10 N                              : Latitude
LONG.          00 18 30 E                              : Longitude
SRVC.          SCHLUMBERGER                            : Service Company
DATE.          MAY-JUN-1973                            : Logging Date
SET .          COMP WIRE                               : Set
~Curve Information Section
DEPTH.ft                                               : Depth Curve
CALI.in                                                : Caliper
DRHO.g/cc                                              : Delta Rho
DT.us/ft                                               : Delta-T
GR.gAPI                                                : ISF Gamma Ray
GRD.gAPI                                               : FDC Gamma Ray
ILD.ohmm                                               : Deep Induction Resistivity
NPHI.%                                                 : Neutron Porosity
RHOB.g/cc                                              : Bulk Density
SFLU.ohmm                                              : Spherically Focused log Resistivity (Unaveraged)
SP.mV                                                  : Spontaneous Potential
~ASCII Log Data Section
# ...
 8180.0000        12.6690         0.0125        87.9578        23.4139        24.6899         2.0982        17.5954         2.4956         2.0193        -7.5912     
 8180.5000        12.6792         0.0117        87.3360        23.1973        24.5869         2.1233        17.3444         2.5078         2.0177        -7.5717     
 8181.0000        12.6817         0.0075        86.4514        23.0979        24.0814         2.1603        17.4872         2.5061         2.0265        -7.5369     
 8181.5000        12.6834         0.0092        85.5286        23.0799        23.6227         2.1956        17.7063         2.5048         2.0743        -7.5670     
 8182.0000        12.6830         0.0130        84.4680        22.9737        23.7896         2.2643        17.8806         2.5083         2.1960        -7.8774     
 8182.5000        12.6834         0.0171        83.3954        22.7243        23.9117         2.3720        17.8403         2.5192         2.3600        -8.3177     
 8183.0000        12.6820         0.0235        82.8177        22.5510        23.7319         2.4822        17.6214         2.5298         2.4909        -8.4503     
 8183.5000        12.6760         0.0181        82.8270        22.5523        23.6481         2.5775        17.3969         2.5158         2.5725        -8.3620     
 8184.0000        12.6732         0.0147        83.2003        22.7301        22.9529         2.6368        17.1826         2.5075         2.6294        -8.3600     
 8184.5000        12.6737         0.0167        83.7301        23.2818        22.6154         2.6708        17.2117         2.5064         2.5921        -8.4810     
 8185.0000        12.6739         0.0172        84.1268        24.1973        23.3244         2.6828        17.6812         2.5084         2.4822        -8.6377     
 8185.5000        12.6707         0.0124        84.3795        25.0341        23.4835         2.6636        18.3988         2.5039         2.4271        -8.6946     
 8186.0000        12.6663         0.0079        84.5348        25.4419        23.8397         2.6266        18.8526         2.5014         2.4148        -8.6121     
 8186.5000        12.6673         0.0059        84.6134        25.3528        24.0973         2.5750        18.6684         2.4976         2.3295        -8.4055     
 8187.0000        12.6840         0.0065        84.7222        24.9608        24.5297         2.5121        18.2575         2.4972         2.2533        -8.1501     
 8187.5000        12.6976         0.0113        84.8901        24.4569        24.7632         2.4603        18.2188         2.5065         2.2445        -7.9072     
 8188.0000        12.7097         0.0135        85.0566        24.0823        24.5247         2.4198        18.6375         2.5146         2.2273        -7.7043     
 8188.5000        12.7258         0.0134        85.2479        23.9044        24.1814         2.3806        19.2767         2.5144         2.2101        -7.6064     
 8189.0000        12.7388         0.0120        85.4433        23.8654        24.2202         2.3466        19.4596         2.5065         2.1956        -7.6062     
 8189.5000        12.7425         0.0075        85.6063        24.0302        24.2020         2.3253        18.8944         2.5015         2.1775        -7.6461     
 8190.0000        12.7411         0.0072        85.6824        24.4623        24.2158         2.3118        18.3101         2.5023         2.1571        -7.7340     
 8190.5000        12.7433         0.0131        85.6187        25.0294        24.5858         2.3011        18.2389         2.5095         2.1385        -7.8747     
 8191.0000        12.7512         0.0096        85.5042        25.6210        24.6835         2.2944        18.3374         2.5038         2.1370        -8.0576     
 8191.5000        12.7634         0.0085        85.4040        26.3282        24.9275         2.2913        18.5855         2.4996         2.1556        -8.1703     
 8192.0000        12.7798         0.0140        85.2748        26.8032        25.3111         2.2880        18.9319         2.5158         2.1797        -8.1391     
 8192.5000        12.7893         0.0175        85.2516        26.7074        25.2268         2.2806        19.1360         2.5196         2.1981        -7.9775     
 8193.0000        12.7903         0.0212        85.4528        26.2530        25.5588         2.2753        19.3689         2.5180         2.1967        -7.7223     
 8193.5000        12.7861         0.0270        85.6984        26.0334        26.1637         2.2713        19.6788         2.5243         2.1497        -7.4977     
 8194.0000        12.7840         0.0300        85.7021        25.7581        26.7453         2.2726        19.8381         2.5309         2.0824        -7.3752     
 8194.5000        12.7851         0.0310        85.5096        25.2440        26.4226         2.2847        19.7895         2.5336         2.0592        -7.3374     
 8195.0000        12.7900         0.0324        85.2974        25.4130        25.7436         2.2975        19.7344         2.5279         2.0998        -7.4192     
 8195.5000        12.7857         0.0370        85.1745        26.1241        25.7424         2.3077        19.6836         2.5221         2.1614        -7.6138     
 8196.0000        12.7651         0.0278        85.3585        26.4920        26.4768         2.3219        19.5536         2.5100         2.2010        -7.8943     
 8196.5000        12.7471         0.0195        85.6837        26.7251        26.7964         2.3435        19.1287         2.4993         2.2112        -8.0439     
 8197.0000        12.7389         0.0172        85.8578        27.2191        27.0330         2.3698        18.4755         2.4929         2.1997        -7.9670     
 8197.5000        12.7465         0.0264        86.0059        28.0237        27.8919         2.3919        18.4316         2.4953         2.1750        -7.8383     
 8198.0000        12.7523         0.0281        86.1524        28.9449        27.2539         2.4066        19.0378         2.5081         2.1514        -7.6849     
 8198.5000        12.7536         0.0263        86.1769        29.5223        26.5337         2.4146        19.5322         2.5013         2.1383        -7.6328     
 8199.0000        12.7504         0.0310        86.0513        29.2208        26.1284         2.4219        19.4891         2.4849         2.1391        -7.7780     
 8199.5000        12.7537         0.0471        85.7236        28.2474        25.3459         2.4311        19.0896         2.4960         2.1507        -8.0597     
 8200.0000        12.7727         0.0391        85.2498        27.7215        26.4847         2.4382        18.6254         2.5105         2.1702        -8.3567     
 8200.5000        12.8001         0.0170        84.7223        27.9904        27.3706         2.4430        18.1526         2.5097         2.2008        -8.5970     
 8201.0000        12.8330         0.0087        84.4349        28.5989        28.1044         2.4443        17.8548         2.4983         2.2438        -8.8327     
 8201.5000        12.8606         0.0176        84.6600        28.9926        29.3860         2.4490        17.6996         2.4993         2.2837        -8.7964     
 8202.0000        12.8648         0.0198        85.2264        29.2466        30.9405         2.4706        17.6690         2.5083         2.2796        -8.3040     
 8202.5000        12.8687         0.0144        85.7410        29.0578        30.8148         2.4782        17.8784         2.5156         2.2342        -7.7273     
 8203.0000        12.8758         0.0168        85.8634        28.5825        31.0884         2.4749        18.2267         2.5202         2.1677        -7.5118     
 8203.5000        12.8765         0.0266        85.4553        28.4659        32.5010         2.4773        18.5911         2.5229         2.1198        -7.5893     
 8204.0000        12.8585         0.0423        84.7994        28.5872        32.1257         2.4520        18.8703         2.5306         2.1416        -7.6453     
