~Version Information Section
VERS.          2.0                                     : CWLS LOG ASCII Standard
WRAP.          NO                                      : One line per depth step
CREA.          09/01/14                                : LAS Creation Date
~Well Information Section
STRT.ft        1491.5000                               : Start Depth
STOP.ft        9915.0000                               : Stop Depth
STEP.ft        0.5000                                  : Step
NULL.          -999.2500                               : Null Value
COMP.          BURMAH                                  : Company
WELL.          15/12-1                                 : Well
FLD .          WILDCAT                                 : Field
LOC .          OFFSHORE                                : Location
LOC1.                                                  : Location 
PROV.          UKCS                                    : Province
UWI .          2657                                    : UWI Number
API .                                                  : API Number
SECT.                                                  : Section
TOWN.                                                  : Township
RNGE.                                                  : Range
PDAT.          MSL                                     : Perm Datum
EPD .ft        0.00                                    : Elevation
LMF .          RKB                                     : Log Measured From
DMF .          RKB                                     : Drill Measured From
APD .ft        78.00                                   : Above Perm Datum
EKB .ft        78.00                                   : Elev-Kelly Bushing
EDF .ft        77.00                                   : Elev-Drill Floor
TDD .ft        9930.00                                 : Total Depth (Driller)
EGL .ft        -470.00                                 : Elev-Ground Level (Water Depth)
LATI.          58 30 10 N                              : Latitude
LONG.          00 18 30 E                              : Longitude
SRVC.          SCHLUMBERGER                            : Service Company
DATE.          MAY-JUN-1973                            : Logging Date
SET .          COMP WIRE                               : Set
~Curve Information Section
DEPTH.ft                                               : Depth Curve
CALI.in                                                : Caliper
DRHO.g/cc                                              : Delta Rho
DT.us/ft                                               : Delta-T
GR.gAPI                                                : ISF Gamma Ray
GRD.gAPI                                               : FDC Gamma Ray
ILD.ohmm                                               : Deep Induction Resistivity
NPHI.%                                                 : Neutron Porosity
RHOB.g/cc                                              : Bulk Density
SFLU.ohmm                                              : Spherically Focused log Resistivity (Unaveraged)
SP.mV                                                  : Spontaneous Potential
~ASCII Log Data Section
# ...
 5436.0000        12.1495         0.0138       107.0075        21.7015        21.4748         0.4358        28.0183         2.2041         0.6934       -39.6711     
 5436.5000        12.1290         0.0137       107.1528        22.4925        21.8859         0.4359        27.4819         2.1979         0.7022       -39.6513     
 5437.0000        12.1281         0.0095       106.9418        23.3929        21.8397         0.4349        26.8948         2.1936         0.7011       -39.3149     
 5437.5000        12.1357         0.0073       106.4772        24.1518        21.4120         0.4331        26.7492         2.1898         0.6956       -38.9827     
 5438.0000        12.1878         0.0031       106.3729        24.4624        20.7512         0.4299        27.2217         2.1850         0.6846       -38.7074     
 5438.5000        12.3043        -0.0057       106.8743        24.1341        20.4591         0.4259        28.5762         2.1780         0.6637       -38.3616     
 5439.0000        12.4547        -0.0140       107.5890        23.3942        21.0197         0.4231        30.3371         2.1691         0.6380       -37.9507     
 5439.5000        12.5531        -0.0085       107.7684        22.5244        22.0637         0.4228        31.3354         2.1822         0.6184       -37.9067     
 5440.0000        12.5542        -0.0029       107.2034        21.7884        22.6056         0.4235        31.1291         2.2021         0.6139       -38.5088     
 5440.5000        12.5012         0.0080       106.1474        21.1259        22.4964         0.4223        29.7292         2.2201         0.6307       -39.3063     
 5441.0000        12.3648         0.0208       105.1156        20.4688        22.5461         0.4207        28.6611         2.2294         0.6497       -39.6560     
 5441.5000        12.1996         0.0197       104.6279        19.8606        22.7399         0.4208        28.7045         2.2206         0.6534       -39.7704     
 5442.0000        12.1516         0.0134       104.4201        19.7715        22.7890         0.4214        28.7531         2.2176         0.6565       -39.9201     
 5442.5000        12.1475         0.0162       104.3492        20.6585        22.9622         0.4223        28.6054         2.2174         0.6644       -40.1050     
 5443.0000        12.1459         0.0199       104.2367        22.1877        22.5563         0.4241        28.4152         2.2140         0.6661       -40.1385     
 5443.5000        12.1500         0.0177       103.9052        23.7181        21.9527         0.4282        28.3190         2.2120         0.6525       -39.9536     
 5444.0000        12.1729         0.0141       103.5921        25.0910        22.8349         0.4369        28.7680         2.2037         0.6336       -39.5961     
 5444.5000        12.2244         0.0140       103.9131        26.5191        24.4269         0.4506        29.7726         2.1930         0.6197       -39.1397     
 5445.0000        12.3156         0.0072       104.7115        27.5478        26.7573         0.4687        30.9206         2.1810         0.6159       -38.7158     
 5445.5000        12.4137        -0.0041       105.5824        28.1068        29.5278         0.4878        31.9874         2.1752         0.6362       -38.4003     
 5446.0000        12.4487         0.0004       106.3224        28.2872        31.3333         0.5052        32.4526         2.1897         0.6825       -38.1479     
 5446.5000        12.3459         0.0140       106.5427        27.9441        29.5375         0.5234        32.7393         2.2023         0.7436       -38.1196     
 5447.0000        12.2487         0.0211       106.2646        27.1707        25.9797         0.5390        32.4650         2.1993         0.7884       -38.1373     
 5447.5000        12.1936         0.0190       105.6332        26.2769        23.0520         0.5509        30.9415         2.1863         0.7911       -37.9609     
 5448.0000        12.1725         0.0170       104.8058        25.0899        21.9529         0.5573        29.1604         2.1855         0.7732       -37.6973     
 5448.5000        12.1721         0.0130       104.0660        23.7184        21.6831         0.5504        28.1529         2.1921         0.7693       -37.4765     
 5449.0000        12.1832         0.0087       103.5672        22.8800        21.4070         0.5339        28.1629         2.1982         0.7633       -37.3712     
 5449.5000        12.1952         0.0084       103.2295        22.6446        21.3768         0.5159        28.2642         2.2063         0.7466       -37.3725     
 5450.0000        12.2005         0.0124       102.9192        22.9421        21.9628         0.4966        27.8144         2.2193         0.7376       -37.4758     
 5450.5000        12.1954         0.0117       102.6729        23.3927        22.1633         0.4804        27.2708         2.2267         0.7481       -37.6969     
 5451.0000        12.1808         0.0122       102.5960        23.3014        21.6684         0.4715        27.2084         2.2322         0.7642       -38.0569     
 5451.5000        12.1710         0.0162       102.7884        22.5544        21.2488         0.4691        27.9557         2.2359         0.7658       -38.5500     
 5452.0000        12.1615         0.0244       102.9576        21.8245        20.9439         0.4706        28.2902         2.2462         0.7612       -39.0322     
 5452.5000        12.1522         0.0335       102.8199        21.5062        20.6216         0.4751        27.8061         2.2605         0.7740       -39.2999     
 5453.0000        12.1447         0.0375       102.4848        21.8640        20.1492         0.4810        27.1591         2.2558         0.8026       -39.3266     
 5453.5000        12.1386         0.0280       102.0941        22.7421        20.3071         0.4867        26.6504         2.2397         0.8187       -39.3198     
 5454.0000        12.1383         0.0282       101.8292        23.8908        21.5357         0.4917        26.3176         2.2438         0.8163       -39.4418     
 5454.5000        12.1394         0.0333       101.6956        24.8659        21.4324         0.4956        26.0747         2.2493         0.8062       -39.5951     
 5455.0000        12.1406         0.0361       101.7458        25.2740        20.7799         0.4984        26.0593         2.2517         0.7935       -39.6010     
 5455.5000        12.1407         0.0176       101.9599        25.1100        20.7075         0.5003        26.2925         2.2348         0.7832       -39.4515     
 5456.0000        12.1376         0.0089       102.1541        24.3316        21.3123         0.5006        26.6145         2.2248         0.7841       -39.2196     
 5456.5000        12.1385         0.0008       102.3043        23.3022        21.6070         0.4995        27.0853         2.2198         0.7897       -39.0434     
 5457.0000        12.1459         0.0024       102.4235        22.5373        22.4159         0.4954        27.7802         2.2253         0.7938       -38.9874     
 5457.5000        12.1604         0.0089       102.5990        22.0049        23.4413         0.4879        28.0562         2.2352         0.7933       -39.0399     
 5458.0000        12.1734         0.0202       102.8323        21.5888        23.5781         0.4821        27.6625         2.2429         0.7877       -39.2259     
 5458.5000        12.1790         0.0293       103.0991        21.3842        23.2859         0.4800        26.8631         2.2432         0.7755       -39.4347     
 5459.0000        12.1812         0.0351       103.2203        21.3859        23.2828         0.4789        26.2127         2.2412         0.7567       -39.5844     
 5459.5000        12.1863         0.0266       103.0507        21.8903        23.8501         0.4781        26.1819         2.2338         0.7396       -39.6540     
 5460.0000        12.1902         0.0317       102.7170        22.8813        24.6040         0.4797        26.3246         2.2397         0.7293       -39.6379     
