~Version Information Section
VERS.          2.0                                     : CWLS LOG ASCII Standard
WRAP.          NO                                      : One line per depth step
CREA.          09/01/14                                : LAS Creation Date
~Well Information Section
STRT.ft        1491.5000                               : Start Depth
STOP.ft        9915.0000                               : Stop Depth
STEP.ft        0.5000                                  : Step
NULL.          -999.2500                               : Null Value
COMP.          BURMAH                                  : Company
WELL.          15/12-1                                 : Well
FLD .          WILDCAT                                 : Field
LOC .          OFFSHORE                                : Location
LOC1.                                                  : Location 
PROV.          UKCS                                    : Province
UWI .          2657                                    : UWI Number
API .                                                  : API Number
SECT.                                                  : Section
TOWN.                                                  : Township
RNGE.                                                  : Range
PDAT.          MSL                                     : Perm Datum
EPD .ft        0.00                                    : Elevation
LMF .          RKB                                     : Log Measured From
DMF .          RKB                                     : Drill Measured From
APD .ft        78.00                                   : Above Perm Datum
EKB .ft        78.00                                   : Elev-Kelly Bushing
EDF .ft        77.00                                   : Elev-Drill Floor
TDD .ft        9930.00                                 : Total Depth (Driller)
EGL .ft        -470.00                                 : Elev-Ground Level (Water Depth)
LATI.          58 30 10 N                              : Latitude
LONG.          00 18 30 E                              : Longitude
SRVC.          SCHLUMBERGER                            : Service Company
DATE.          MAY-JUN-1973                            : Logging Date
SET .          COMP WIRE                               : Set
~Curve Information Section
DEPTH.ft                                               : Depth Curve
CALI.in                                                : Caliper
DRHO.g/cc                                              : Delta Rho
DT.us/ft                                               : Delta-T
GR.gAPI                                                : ISF Gamma Ray
GRD.gAPI                                               : FDC Gamma Ray
ILD.ohmm                                               : Deep Induction Resistivity
NPHI.%                                                 : Neutron Porosity
RHOB.g/cc                                              : Bulk Density
SFLU.ohmm                                              : Spherically Focused log Resistivity (Unaveraged)
SP.mV                                                  : Spontaneous Potential
~ASCII Log Data Section
# ...
 8743.5000        12.0676         0.0271        77.5050        16.0128        16.3449         0.6020        18.2242         2.3028         0.9128       -48.3960     
 8744.0000        12.0677         0.0313        77.6533        16.6923        16.2644         0.6022        17.9512         2.3082         0.9153       -48.4200     
 8744.5000        12.0678         0.0471        77.8767        17.3462        16.5220         0.6014        17.7615         2.3277         0.9208       -48.4098     
 8745.0000        12.0679         0.0445        78.1639        17.9511        16.5744         0.6010        17.7004         2.3229         0.9256       -48.4292     
 8745.5000        12.0680         0.0366        78.4088        18.3147        16.1653         0.6017        17.7939         2.3173         0.9261       -48.4907     
 8746.0000        12.0681         0.0433        78.5720        18.4659        15.7099         0.6037        17.9424         2.3263         0.9251       -48.6009     
 8746.5000        12.0682         0.0379        78.6877        18.4179        15.1907         0.6054        18.0354         2.3097         0.9203       -48.7310     
 8747.0000        12.0683         0.0263        78.8293        18.1491        15.8136         0.6049        17.8850         2.2929         0.9101       -48.7545     
 8747.5000        12.0684         0.0276        78.9547        17.6391        16.0000         0.6039        17.6201         2.2985         0.8945       -48.6260     
 8748.0000        12.0685         0.0375        79.0504        16.9792        16.0394         0.6030        17.5308         2.3095         0.8740       -48.4507     
 8748.5000        12.0686         0.0398        79.0828        16.3621        16.6235         0.6023        17.6586         2.3122         0.8512       -48.2229     
 8749.0000        12.0687         0.0393        79.0025        15.7385        16.8219         0.6033        17.8575         2.3164         0.8294       -47.9660     
 8749.5000        12.0688         0.0411        78.8478        15.2180        16.9567         0.6063        17.7870         2.3195         0.8071       -47.8001     
 8750.0000        12.0689         0.0312        78.6953        15.0771        16.8621         0.6113        17.3883         2.3111         0.8201       -47.8142     
 8750.5000        12.0690         0.0206        78.5685        15.2586        16.9333         0.6173        17.0215         2.3040         0.8685       -48.0827     
 8751.0000        12.0691         0.0190        78.4837        15.7406        16.6824         0.6232        17.2934         2.3020         0.8989       -48.4200     
 8751.5000        12.0692         0.0348        78.4414        16.4058        16.4246         0.6282        17.7660         2.3155         0.8944       -48.6317     
 8752.0000        12.0693         0.0403        78.3901        16.9430        16.7456         0.6301        18.0147         2.3199         0.8613       -48.7739     
 8752.5000        12.0694         0.0379        78.3449        17.2052        16.8809         0.6240        18.2373         2.3173         0.8391       -48.8386     
 8753.0000        12.0695         0.0282        78.3634        17.3253        16.6506         0.6121        18.6723         2.3048         0.8636       -48.7639     
 8753.5000        12.0696         0.0223        78.4553        17.5303        16.5887         0.5970        19.2322         2.2924         0.9057       -48.5770     
 8754.0000        12.0697         0.0175        78.6489        18.1452        16.8833         0.5803        19.7529         2.2830         0.9018       -48.4274     
 8754.5000        12.0698         0.0143        78.9851        19.4187        17.6738         0.5672        20.3122         2.2777         0.8264       -48.5237     
 8755.0000        12.0693         0.0183        79.4174        21.6283        19.5166         0.5611        20.9557         2.2852         0.7478       -48.7388     
 8755.5000        12.0662         0.0292        80.2883        24.4205        22.7089         0.5635        21.6961         2.2971         0.7020       -48.7295     
 8756.0000        12.0647         0.0390        81.6299        26.8225        27.0091         0.5734        22.5427         2.3042         0.6581       -48.5187     
 8756.5000        12.0604         0.0451        83.0376        29.9292        32.5659         0.5870        23.3668         2.3113         0.6164       -48.1075     
 8757.0000        12.0542         0.0418        84.1174        32.7877        37.1494         0.6003        24.0380         2.3178         0.6339       -47.4676     
 8757.5000        12.0479         0.0323        83.8636        33.1323        34.5640         0.6108        24.7193         2.3242         0.7519       -46.7762     
 8758.0000        12.0426         0.0396        82.5116        31.1747        27.0220         0.6183        25.1403         2.3488         0.9105       -46.3821     
 8758.5000        12.0386         0.0576        81.1740        28.0902        22.3511         0.6230        23.2183         2.3591         0.9910       -46.6112     
 8759.0000        12.0359         0.0492        80.4469        24.7172        20.3177         0.6252        21.9235         2.3299         0.9991       -47.1700     
 8759.5000        12.0318         0.0444        80.3338        22.2054        20.0031         0.6226        22.1539         2.3143         0.9387       -47.5916     
 8760.0000        12.0265         0.0373        80.6470        21.1493        20.0120         0.6149        22.4262         2.2919         0.8525       -47.7761     
 8760.5000        12.0210         0.0300        81.1290        20.7929        19.1776         0.6007        22.5629         2.2767         0.7904       -47.8058     
 8761.0000        12.0155         0.0235        81.4747        20.4732        18.1095         0.5786        22.5806         2.2752         0.7715       -47.8583     
 8761.5000        12.0105         0.0185        81.3244        19.8756        17.8961         0.5531        22.4503         2.2691         0.8047       -48.4288     
 8762.0000        12.0072         0.0165        80.8936        19.0958        18.2354         0.5354        22.3909         2.2663         0.8372       -48.8626     
 8762.5000        12.0051         0.0163        80.4523        18.3407        18.2941         0.5327        22.3959         2.2660         0.8303       -48.5364     
 8763.0000        12.0038         0.0174        80.0715        17.7807        17.5388         0.5367        22.3201         2.2685         0.8100       -48.3139     
 8763.5000        11.9991         0.0177        79.7683        17.4083        16.5945         0.5415        22.1639         2.2705         0.8029       -48.2470     
 8764.0000        11.9944         0.0184        79.5345        17.1014        16.4218         0.5461        21.9284         2.2738         0.8060       -48.2997     
 8764.5000        11.9917         0.0204        79.3342        16.9236        16.5113         0.5495        21.6301         2.2767         0.8118       -48.5699     
 8765.0000        11.9912         0.0242        79.1763        16.9125        16.4655         0.5526        21.3609         2.2895         0.8216       -49.0902     
 8765.5000        11.9925         0.0284        79.1066        17.0691        16.1164         0.5554        21.2618         2.2958         0.8336       -49.5034     
 8766.0000        11.9965         0.0332        79.1070        17.5038        15.9426         0.5580        21.4543         2.3008         0.8442       -49.6588     
 8766.5000        11.9995         0.0344        79.1545        18.2374        16.8823         0.5596        21.6752         2.3053         0.8530       -49.4787     
 8767.0000        12.0013         0.0319        79.2885        18.5091        16.9057         0.5589        21.6659         2.2967         0.8589       -49.1049     
 8767.5000        12.0037         0.0213        79.4798        17.9693        16.8170         0.5541        21.6089         2.2822         0.8612       -48.8013     
