~Version Information Section
VERS.          2.0                                     : CWLS LOG ASCII Standard
WRAP.          NO                                      : One line per depth step
CREA.          09/01/14                                : LAS Creation Date
~Well Information Section
STRT.ft        1491.5000                               : Start Depth
STOP.ft        9915.0000                               : Stop Depth
STEP.ft        0.5000                                  : Step
NULL.          -999.2500                               : Null Value
COMP.          BURMAH                                  : Company
WELL.          15/12-1                                 : Well
FLD .          WILDCAT                                 : Field
LOC .          OFFSHORE                                : Location
LOC1.                                                  : Location 
PROV.          UKCS                                    : Province
UWI .          2657                                    : UWI Number
API .                                                  : API Number
SECT.                                                  : Section
TOWN.                                                  : Township
RNGE.                                                  : Range
PDAT.          MSL                                     : Perm Datum
EPD .ft        0.00                                    : Elevation
LMF .          RKB                                     : Log Measured From
DMF .          RKB                                     : Drill Measured From
APD .ft        78.00                                   : Above Perm Datum
EKB .ft        78.00                                   : Elev-Kelly Bushing
EDF .ft        77.00                                   : Elev-Drill Floor
TDD .ft        9930.00                                 : Total Depth (Driller)
EGL .ft        -470.00                                 : Elev-Ground Level (Water Depth)
LATI.          58 30 10 N                              : Latitude
LONG.          00 18 30 E                              : Longitude
SRVC.          SCHLUMBERGER                            : Service Company
DATE.          MAY-JUN-1973                            : Logging Date
SET .          COMP WIRE                               : Set
~Curve Information Section
DEPTH.ft                                               : Depth Curve
CALI.in                                                : Caliper
DRHO.g/cc                                              : Delta Rho
DT.us/ft                                               : Delta-T
GR.gAPI                                                : ISF Gamma Ray
GRD.gAPI                                               : FDC Gamma Ray
ILD.ohmm                                               : Deep Induction Resistivity
NPHI.%                                                 : Neutron Porosity
RHOB.g/cc                                              : Bulk Density
SFLU.ohmm                                              : Spherically Focused log Resistivity (Unaveraged)
SP.mV                                                  : Spontaneous Potential
~ASCII Log Data Section
# ...
 6538.5000        12.1754         0.0945        98.4350        26.4727        27.2152         0.5306        26.2412         2.3062         0.8751       -40.2753     
 6539.0000        12.1806         0.1063        98.3415        26.6420        27.9146         0.5414        25.6921         2.3200         0.8702       -40.3621     
 6539.5000        12.1899         0.1117        98.4375        27.9145        28.2506         0.5451        25.1250         2.3286         0.8772       -40.2712     
 6540.0000        12.1994         0.1053        98.9029        29.7415        27.5268         0.5430        25.0591         2.3225         0.8890       -40.1045     
 6540.5000        12.2089         0.0820        99.6382        29.8852        26.6051         0.5387        25.2420         2.2962         0.8860       -40.0624     
 6541.0000        12.2190         0.0606       100.4841        28.1928        26.0901         0.5298        25.0898         2.2758         0.8464       -40.2737     
 6541.5000        12.2236         0.0503       100.9976        26.5982        26.1481         0.5163        24.7538         2.2644         0.7868       -40.4300     
 6542.0000        12.2213         0.0443       101.0207        25.5952        26.1197         0.4975        25.0687         2.2601         0.7347       -40.4871     
 6542.5000        12.2180         0.0596       100.8539        24.7721        25.7276         0.4744        25.1647         2.2758         0.7009       -40.6752     
 6543.0000        12.2140         0.0832       100.7845        24.3323        25.5307         0.4514        24.9231         2.2953         0.6821       -40.9743     
 6543.5000        12.2100         0.1052       100.8608        24.2723        25.5526         0.4344        24.9628         2.3087         0.6595       -40.8857     
 6544.0000        12.2059         0.1238       101.0606        24.5922        25.7836         0.4272        25.6544         2.3182         0.6145       -40.3254     
 6544.5000        12.2019         0.1157       101.2529        25.3116        26.4572         0.4274        27.0116         2.3088         0.5645       -39.9574     
 6545.0000        12.1979         0.1176       101.3490        26.2237        27.7311         0.4391        28.2446         2.3068         0.5377       -39.8775     
 6545.5000        12.1939         0.1459       101.3592        27.4211        30.1733         0.4642        28.8993         2.3370         0.5380       -39.4421     
 6546.0000        12.1900         0.1830       101.3900        29.7055        33.2330         0.5014        29.2298         2.3895         0.5712       -38.5454     
 6546.5000        12.1885         0.1866       101.3505        32.4207        35.9398         0.5545        28.8828         2.4196         0.6180       -37.0977     
 6547.0000        12.1949         0.1363       100.3712        35.0282        38.4473         0.6318        29.4480         2.4028         0.6498       -34.5334     
 6547.5000        12.2022         0.0946        97.9565        37.6461        42.2273         0.7493        30.3830         2.3911         0.7193       -31.7683     
 6548.0000        12.2069         0.0766        95.1001        39.3855        44.6120         0.8822        31.0402         2.4054         0.8630       -29.9556     
 6548.5000        12.2190         0.0417        92.8153        41.2801        44.5495         0.9986        30.2487         2.4065         1.0209       -28.5609     
 6549.0000        12.2508         0.0239        91.1198        43.8481        44.6062         1.0819        29.7480         2.3937         1.1438       -27.5594     
 6549.5000        12.3121         0.0521        90.5774        45.8358        45.3120         1.1288        30.9316         2.3843         1.2103       -27.2384     
 6550.0000        12.3764         0.0586        91.9322        46.7237        45.2391         1.1344        31.3101         2.3645         1.2593       -27.5606     
 6550.5000        12.3693         0.0495        95.3578        46.5200        44.0589         1.1017        29.7695         2.3422         1.3188       -28.4910     
 6551.0000        12.3112         0.0507       102.3562        45.2173        42.8493         1.0293        29.2304         2.3293         1.3011       -29.6526     
 6551.5000        12.2756         0.0431       108.9272        43.0917        41.4412         0.9192        31.0797         2.3168         1.1741       -30.5508     
 6552.0000        12.2587         0.0374       109.6226        40.7587        38.7912         0.8140        32.3226         2.3005         1.0269       -31.8945     
 6552.5000        12.2433         0.0368       106.6469        38.1103        34.9066         0.7255        30.8119         2.2772         0.9390       -34.2010     
 6553.0000        12.2269         0.0441       101.6427        35.6857        31.5060         0.6460        27.8415         2.2636         0.9168       -36.0267     
 6553.5000        12.2153         0.0565        98.1618        33.9543        30.9176         0.5795        26.7168         2.2679         0.9033       -36.8737     
 6554.0000        12.2094         0.0484        97.3291        33.0380        32.0626         0.5354        26.5149         2.2639         0.8683       -37.3746     
 6554.5000        12.2063         0.0404        97.3215        33.5002        33.6279         0.5214        27.3274         2.2579         0.8081       -37.3671     
 6555.0000        12.2060         0.0385        97.3773        36.0742        35.9449         0.5267        28.9221         2.2577         0.7287       -36.7350     
 6555.5000        12.2116         0.0318        97.3689        40.4587        39.2678         0.5428        30.0422         2.2594         0.6791       -35.5150     
 6556.0000        12.2179         0.0463        97.9747        44.1574        43.1398         0.5672        31.1725         2.2942         0.7154       -33.2322     
 6556.5000        12.2195         0.0655        99.1688        46.6836        46.6222         0.5979        32.2430         2.3375         0.8466       -30.8072     
 6557.0000        12.2209         0.0788       100.0754        48.8717        49.4631         0.6282        33.3203         2.3620         0.9739       -29.5665     
 6557.5000        12.2223         0.0936       100.3248        49.5818        50.4209         0.6689        34.4260         2.3806         1.0325       -29.2905     
 6558.0000        12.2237         0.1204       100.4763        48.3454        48.7673         0.7252        34.5206         2.3805         1.0431       -29.8631     
 6558.5000        12.2251         0.1102       101.4017        46.7816        47.3364         0.7762        33.7797         2.3367         1.0166       -30.0158     
 6559.0000        12.2268         0.0827       104.1742        46.0907        48.9594         0.8020        33.9525         2.3002         1.0008       -28.7844     
 6559.5000        12.2398         0.0827       110.7747        45.9373        51.9618         0.8051        36.6763         2.3033         1.0060       -25.4446     
 6560.0000        12.2720         0.1023       119.2201        45.6248        52.5973         0.7954        40.0888         2.3183         0.9954       -22.8161     
 6560.5000        12.3397         0.0844       123.2561        44.6524        49.7463         0.7801        42.0902         2.3203         0.9352       -22.4629     
 6561.0000        12.6555         0.0376       120.7914        42.3169        44.5817         0.7636        40.0011         2.2647         0.8794       -23.2233     
 6561.5000        12.9515         0.0210       112.7282        39.5988        39.6946         0.7453        33.8064         2.2204         0.9235       -25.0805     
 6562.0000        12.6996         0.0241       103.2462        37.8964        37.3628         0.7286        28.4457         2.2401         0.9963       -27.6617     
 6562.5000        12.2571         0.0385        97.3342        37.0236        38.3629         0.7170        26.2968         2.2662         1.0010       -29.9326     
