~Version Information Section
VERS.          2.0                                     : CWLS LOG ASCII Standard
WRAP.          NO                                      : One line per depth step
CREA.          09/01/14                                : LAS Creation Date
~Well Information Section
STRT.ft        1491.5000                               : Start Depth
STOP.ft        9915.0000                               : Stop Depth
STEP.ft        0.5000                                  : Step
NULL.          -999.2500                               : Null Value
COMP.          BURMAH                                  : Company
WELL.          15/12-1                                 : Well
FLD .          WILDCAT                                 : Field
LOC .          OFFSHORE                                : Location
LOC1.                                                  : Location 
PROV.          UKCS                                    : Province
UWI .          2657                                    : UWI Number
API .                                                  : API Number
SECT.                                                  : Section
TOWN.                                                  : Township
RNGE.                                                  : Range
PDAT.          MSL                                     : Perm Datum
EPD .ft        0.00                                    : Elevation
LMF .          RKB                                     : Log Measured From
DMF .          RKB                                     : Drill Measured From
APD .ft        78.00                                   : Above Perm Datum
EKB .ft        78.00                                   : Elev-Kelly Bushing
EDF .ft        77.00                                   : Elev-Drill Floor
TDD .ft        9930.00                                 : Total Depth (Driller)
EGL .ft        -470.00                                 : Elev-Ground Level (Water Depth)
LATI.          58 30 10 N                              : Latitude
LONG.          00 18 30 E                              : Longitude
SRVC.          SCHLUMBERGER                            : Service Company
DATE.          MAY-JUN-1973                            : Logging Date
SET .          COMP WIRE                               : Set
~Curve Information Section
DEPTH.ft                                               : Depth Curve
CALI.in                                                : Caliper
DRHO.g/cc                                              : Delta Rho
DT.us/ft                                               : Delta-T
GR.gAPI                                                : ISF Gamma Ray
GRD.gAPI                                               : FDC Gamma Ray
ILD.ohmm                                               : Deep Induction Resistivity
NPHI.%                                                 : Neutron Porosity
RHOB.g/cc                                              : Bulk Density
SFLU.ohmm                                              : Spherically Focused log Resistivity (Unaveraged)
SP.mV                                                  : Spontaneous Potential
~ASCII Log Data Section
# ...
 5975.0000        12.3078         0.0162        95.5141        28.4975        27.0177         0.4808        29.8227         2.1826         0.6892       -37.5917     
 5975.5000        12.3157         0.0192        94.1681        29.9578        27.0994         0.5058        29.6660         2.1915         0.6901       -37.6344     
 5976.0000        12.3236         0.0115        92.7244        32.8610        27.8527         0.5404        30.1083         2.1939         0.6992       -37.5381     
 5976.5000        12.3308         0.0077        92.1017        36.8298        29.6648         0.5824        30.7416         2.1964         0.7170       -37.0170     
 5977.0000        12.3375         0.0081        92.6588        40.7639        32.7612         0.6234        31.4398         2.2030         0.7470       -35.8050     
 5977.5000        12.3458         0.0070        96.4827        44.1431        37.1779         0.6628        32.4249         2.2148         0.7902       -33.8104     
 5978.0000        12.3615         0.0027       102.9525        47.2451        43.0562         0.7065        33.4713         2.2279         0.8427       -31.6376     
 5978.5000        12.3967         0.0076       110.0963        49.8476        50.8444         0.7525        35.9798         2.2501         0.8997       -29.3825     
 5979.0000        12.4608         0.0222       117.0155        51.3718        56.9837         0.7870        39.1083         2.2774         0.9332       -26.8784     
 5979.5000        12.5295         0.0293       118.6712        50.4358        55.7015         0.8032        42.2462         2.2950         0.9445       -25.3388     
 5980.0000        12.5131         0.0226       115.2682        47.1610        50.3363         0.7937        40.7315         2.2845         0.9821       -26.0425     
 5980.5000        12.4777         0.0137       110.1998        42.4307        44.1739         0.7619        36.4877         2.2656         1.0523       -28.1303     
 5981.0000        12.4775         0.0216       104.5493        36.0683        38.3578         0.7165        32.5898         2.2549         1.0450       -30.6820     
 5981.5000        12.4235         0.0310       100.7791        30.3110        34.6797         0.6701        30.6153         2.2429         0.9573       -33.3819     
 5982.0000        12.3611         0.0248       100.7424        27.6969        32.4421         0.6250        29.2396         2.2205         0.8777       -35.7206     
 5982.5000        12.3291         0.0220       101.0515        27.0372        30.9181         0.5769        28.1243         2.2161         0.8149       -37.2094     
 5983.0000        12.3069         0.0274       101.0353        27.3593        29.7586         0.5319        27.6103         2.2264         0.7678       -38.0603     
 5983.5000        12.2933         0.0314       100.5739        27.9934        29.0746         0.4943        27.9988         2.2397         0.7403       -38.6368     
 5984.0000        12.2870         0.0442       100.0962        28.1650        29.0863         0.4665        28.2948         2.2549         0.7398       -38.8757     
 5984.5000        12.2868         0.0485       100.2430        28.1726        29.4774         0.4499        28.5979         2.2500         0.7461       -38.9061     
 5985.0000        12.2886         0.0341       100.8565        28.4101        29.4534         0.4465        29.2042         2.2241         0.7217       -38.8350     
 5985.5000        12.2928         0.0240       101.4837        28.9831        28.9889         0.4554        30.1233         2.2032         0.6576       -38.6125     
 5986.0000        12.3015         0.0263       101.8724        29.9938        28.8008         0.4731        30.9184         2.2003         0.5859       -38.0741     
 5986.5000        12.3101         0.0353       101.7773        31.4696        29.7374         0.4952        31.3709         2.2123         0.5458       -37.1902     
 5987.0000        12.3127         0.0376       101.1675        33.0133        31.5694         0.5239        31.2383         2.2250         0.5977       -36.0369     
 5987.5000        12.3127         0.0336       100.2959        34.4426        33.3884         0.5564        30.8672         2.2430         0.7139       -34.6483     
 5988.0000        12.3247         0.0412        99.2407        36.5363        35.0848         0.5960        30.4020         2.2678         0.7856       -33.3759     
 5988.5000        12.3440         0.0431        98.1277        39.4368        37.1741         0.6581        30.0612         2.2922         0.8454       -32.4341     
 5989.0000        12.3613         0.0302        97.3958        43.2392        39.5443         0.7382        29.7642         2.3184         0.9620       -31.3719     
 5989.5000        12.3671         0.0226        97.4237        47.1750        41.0581         0.8278        28.9681         2.3316         1.1141       -30.2715     
 5990.0000        12.3570         0.0226        97.5794        49.4166        41.7091         0.9130        27.9174         2.3244         1.2195       -29.3650     
 5990.5000        12.3365         0.0216        97.0934        49.2918        41.7166         0.9839        28.0190         2.3210         1.2387       -29.0963     
 5991.0000        12.3174         0.0241        96.5010        48.0924        42.3994         1.0244        28.2869         2.3112         1.2115       -29.3466     
 5991.5000        12.2919         0.0271        96.7057        47.0792        44.1185         1.0217        28.4583         2.3005         1.2188       -29.6608     
 5992.0000        12.2602         0.0224        97.5891        46.1434        44.2661         0.9843        29.8988         2.2993         1.2626       -30.0941     
 5992.5000        12.2600         0.0137        98.5755        44.2657        42.0421         0.9317        31.4758         2.2967         1.2335       -30.8325     
 5993.0000        12.3077         0.0170        98.9285        41.4378        39.4449         0.8788        32.2996         2.2779         1.1195       -31.7982     
 5993.5000        12.3562         0.0196        98.1293        38.4821        36.8778         0.8267        30.8549         2.2381         1.0015       -32.7135     
 5994.0000        12.3280         0.0144        96.6287        35.7744        34.2997         0.7841        28.8881         2.2210         0.9282       -33.3273     
 5994.5000        12.2885         0.0148        95.0744        33.5953        33.4203         0.7462        27.4852         2.2296         0.8916       -33.5908     
 5995.0000        12.2566         0.0205        93.8934        32.8344        34.2262         0.7056        26.7427         2.2375         0.8761       -33.6695     
 5995.5000        12.2363         0.0222        93.1514        33.5608        34.3629         0.6670        26.7799         2.2470         0.8778       -33.6937     
 5996.0000        12.2315         0.0293        92.7446        35.0221        34.5029         0.6399        26.8761         2.2601         0.8933       -33.7740     
 5996.5000        12.2286         0.0399        92.7422        36.2381        34.7247         0.6252        26.7448         2.2624         0.9064       -33.9992     
 5997.0000        12.2289         0.0355        93.4694        37.1729        35.2332         0.6139        26.3122         2.2524         0.9014       -34.2437     
 5997.5000        12.2282         0.0224        95.1251        37.8408        35.1790         0.6040        25.8125         2.2416         0.8792       -34.3636     
 5998.0000        12.2157         0.0141        96.8763        38.1368        34.8583         0.5946        26.1543         2.2356         0.8629       -34.2617     
 5998.5000        12.1918         0.0112        98.2997        38.1452        35.0539         0.5957        27.2735         2.2349         0.8783       -33.9797     
 5999.0000        12.1694         0.0105        99.1586        38.2491        36.2097         0.6013        27.8130         2.2293         0.8951       -33.9488     
