~Version Information Section
VERS.          2.0                                     : CWLS LOG ASCII Standard
WRAP.          NO                                      : One line per depth step
CREA.          09/01/14                                : LAS Creation Date
~Well Information Section
STRT.ft        1491.5000                               : Start Depth
STOP.ft        9915.0000                               : Stop Depth
STEP.ft        0.5000                                  : Step
NULL.          -999.2500                               : Null Value
COMP.          BURMAH                                  : Company
WELL.          15/12-1                                 : Well
FLD .          WILDCAT                                 : Field
LOC .          OFFSHORE                                : Location
LOC1.                                                  : Location 
PROV.          UKCS                                    : Province
UWI .          2657                                    : UWI Number
API .                                                  : API Number
SECT.                                                  : Section
TOWN.                                                  : Township
RNGE.                                                  : Range
PDAT.          MSL                                     : Perm Datum
EPD .ft        0.00                                    : Elevation
LMF .          RKB                                     : Log Measured From
DMF .          RKB                                     : Drill Measured From
APD .ft        78.00                                   : Above Perm Datum
EKB .ft        78.00                                   : Elev-Kelly Bushing
EDF .ft        77.00                                   : Elev-Drill Floor
TDD .ft        9930.00                                 : Total Depth (Driller)
EGL .ft        -470.00                                 : Elev-Ground Level (Water Depth)
LATI.          58 30 10 N                              : Latitude
LONG.          00 18 30 E                              : Longitude
SRVC.          SCHLUMBERGER                            : Service Company
DATE.          MAY-JUN-1973                            : Logging Date
SET .          COMP WIRE                               : Set
~Curve Information Section
DEPTH.ft                                               : Depth Curve
CALI.in                                                : Caliper
DRHO.g/cc                                              : Delta Rho
DT.us/ft                                               : Delta-T
GR.gAPI                                                : ISF Gamma Ray
GRD.gAPI                                               : FDC Gamma Ray
ILD.ohmm                                               : Deep Induction Resistivity
NPHI.%                                                 : Neutron Porosity
RHOB.g/cc                                              : Bulk Density
SFLU.ohmm                                              : Spherically Focused log Resistivity (Unaveraged)
SP.mV                                                  : Spontaneous Potential
~ASCII Log Data Section
# ...
 3231.0000      -999.2500      -999.2500       158.6452        39.1921      -999.2500         0.9129      -999.2500      -999.2500         0.7581       -19.0393     
 3231.5000      -999.2500      -999.2500       159.8709        37.9900      -999.2500         0.9007      -999.2500      -999.2500         0.7517       -19.0528     
 3232.0000      -999.2500      -999.2500       161.3185        35.7757      -999.2500         0.8688      -999.2500      -999.2500         0.7466       -19.8879     
 3232.5000      -999.2500      -999.2500       159.9452        33.8522      -999.2500         0.8343      -999.2500      -999.2500         0.7380       -21.1416     
 3233.0000      -999.2500      -999.2500       156.4964        32.7064      -999.2500         0.8109      -999.2500      -999.2500         0.7250       -23.1469     
 3233.5000      -999.2500      -999.2500       155.8460        31.8142      -999.2500         0.7923      -999.2500      -999.2500         0.7079       -25.6913     
 3234.0000      -999.2500      -999.2500       159.6923        31.3780      -999.2500         0.7740      -999.2500      -999.2500         0.6856       -27.4644     
 3234.5000      -999.2500      -999.2500       166.1108        31.5506      -999.2500         0.7550      -999.2500      -999.2500         0.6686       -27.6713     
 3235.0000      -999.2500      -999.2500       165.6473        32.8389      -999.2500         0.7365      -999.2500      -999.2500         0.6579       -26.1507     
 3235.5000      -999.2500      -999.2500       165.7543        34.3987      -999.2500         0.7219      -999.2500      -999.2500         0.6536       -24.0949     
 3236.0000      -999.2500      -999.2500       165.2722        35.0511      -999.2500         0.7100      -999.2500      -999.2500         0.6555       -22.0581     
 3236.5000      -999.2500      -999.2500       161.7870        34.8442      -999.2500         0.6990      -999.2500      -999.2500         0.6568       -22.0228     
 3237.0000      -999.2500      -999.2500       162.4182        33.5300      -999.2500         0.6904      -999.2500      -999.2500         0.6562       -23.6310     
 3237.5000      -999.2500      -999.2500       161.7890        31.5858      -999.2500         0.6848      -999.2500      -999.2500         0.6524       -25.6167     
 3238.0000      -999.2500      -999.2500       156.8931        29.9649      -999.2500         0.6831      -999.2500      -999.2500         0.6463       -27.2117     
 3238.5000      -999.2500      -999.2500       150.9269        29.2468      -999.2500         0.6923      -999.2500      -999.2500         0.6418       -27.9222     
 3239.0000      -999.2500      -999.2500       150.8987        29.9768      -999.2500         0.7067      -999.2500      -999.2500         0.6364       -28.0861     
 3239.5000      -999.2500      -999.2500       153.3735        31.4227      -999.2500         0.7304      -999.2500      -999.2500         0.6422       -26.8444     
 3240.0000      -999.2500      -999.2500       156.5446        32.9141      -999.2500         0.7680      -999.2500      -999.2500         0.6591       -25.0230     
 3240.5000      -999.2500      -999.2500       158.3961        34.2641      -999.2500         0.8138      -999.2500      -999.2500         0.6846       -22.5948     
 3241.0000      -999.2500      -999.2500       159.1414        35.7358      -999.2500         0.8485      -999.2500      -999.2500         0.7064       -20.2978     
 3241.5000      -999.2500      -999.2500       159.7004        37.5515      -999.2500         0.8741      -999.2500      -999.2500         0.7184       -19.3457     
 3242.0000      -999.2500      -999.2500       161.0172        37.9489      -999.2500         0.8925      -999.2500      -999.2500         0.7247       -19.0879     
 3242.5000      -999.2500      -999.2500       162.8539        36.7921      -999.2500         0.9043      -999.2500      -999.2500         0.7302       -19.0198     
 3243.0000      -999.2500      -999.2500       164.8284        36.0275      -999.2500         0.9127      -999.2500      -999.2500         0.7350       -19.0631     
 3243.5000      -999.2500      -999.2500       165.8004        36.5247      -999.2500         0.9188      -999.2500      -999.2500         0.7392       -19.6151     
 3244.0000      -999.2500      -999.2500       166.1284        38.1395      -999.2500         0.9219      -999.2500      -999.2500         0.7376       -20.9782     
 3244.5000      -999.2500      -999.2500       165.6728        39.4555      -999.2500         0.9262      -999.2500      -999.2500         0.7358       -22.2223     
 3245.0000      -999.2500      -999.2500       164.7047        40.4607      -999.2500         0.9342      -999.2500      -999.2500         0.7375       -22.5719     
 3245.5000      -999.2500      -999.2500       163.4342        41.1235      -999.2500         0.9408      -999.2500      -999.2500         0.7410       -22.0722     
 3246.0000      -999.2500      -999.2500       162.0164        41.8672      -999.2500         0.9469      -999.2500      -999.2500         0.7440       -21.0964     
 3246.5000      -999.2500      -999.2500       160.2471        43.2872      -999.2500         0.9602      -999.2500      -999.2500         0.7472       -20.4866     
 3247.0000      -999.2500      -999.2500       158.3429        45.3598      -999.2500         0.9719      -999.2500      -999.2500         0.7474       -20.0863     
 3247.5000      -999.2500      -999.2500       156.0526        46.0037      -999.2500         0.9818      -999.2500      -999.2500         0.7478       -19.7996     
 3248.0000      -999.2500      -999.2500       154.0046        45.0753      -999.2500         0.9986      -999.2500      -999.2500         0.7517       -19.7522     
 3248.5000      -999.2500      -999.2500       152.0824        44.3856      -999.2500         1.0143      -999.2500      -999.2500         0.7639       -20.0179     
 3249.0000      -999.2500      -999.2500       150.5731        44.6690      -999.2500         1.0367      -999.2500      -999.2500         0.7824       -20.4546     
 3249.5000      -999.2500      -999.2500       149.8481        45.8104      -999.2500         1.0594      -999.2500      -999.2500         0.7964       -20.8944     
 3250.0000      -999.2500      -999.2500       149.2290        47.3339      -999.2500         1.0661      -999.2500      -999.2500         0.8050       -21.2985     
 3250.5000      -999.2500      -999.2500       149.3682        49.1204      -999.2500         1.0576      -999.2500      -999.2500         0.8074       -21.5781     
 3251.0000      -999.2500      -999.2500       149.6800        49.7164      -999.2500         1.0357      -999.2500      -999.2500         0.7937       -21.7009     
 3251.5000      -999.2500      -999.2500       149.7748        49.1367      -999.2500         0.9863      -999.2500      -999.2500         0.7746       -21.7990     
 3252.0000      -999.2500      -999.2500       149.6837        47.2626      -999.2500         0.9150      -999.2500      -999.2500         0.7541       -21.9693     
 3252.5000      -999.2500      -999.2500       149.5583        44.6045      -999.2500         0.8619      -999.2500      -999.2500         0.7306       -22.7547     
 3253.0000      -999.2500      -999.2500       148.9684        41.1329      -999.2500         0.8308      -999.2500      -999.2500         0.7038       -25.0085     
 3253.5000      -999.2500      -999.2500       146.9555        38.7510      -999.2500         0.8086      -999.2500      -999.2500         0.6741       -27.2545     
 3254.0000      -999.2500      -999.2500       145.3856        37.2124      -999.2500         0.7925      -999.2500      -999.2500         0.6591       -28.3786     
 3254.5000      -999.2500      -999.2500       143.1015        36.6794      -999.2500         0.7825      -999.2500      -999.2500         0.6582       -28.6213     
 3255.0000      -999.2500      -999.2500       141.1880        37.9316      -999.2500         0.7727      -999.2500      -999.2500         0.6973       -28.8527     
