~Version Information Section
VERS.          2.0                                     : CWLS LOG ASCII Standard
WRAP.          NO                                      : One line per depth step
CREA.          09/01/14                                : LAS Creation Date
~Well Information Section
STRT.ft        1491.5000                               : Start Depth
STOP.ft        9915.0000                               : Stop Depth
STEP.ft        0.5000                                  : Step
NULL.          -999.2500                               : Null Value
COMP.          BURMAH                                  : Company
WELL.          15/12-1                                 : Well
FLD .          WILDCAT                                 : Field
LOC .          OFFSHORE                                : Location
LOC1.                                                  : Location 
PROV.          UKCS                                    : Province
UWI .          2657                                    : UWI Number
API .                                                  : API Number
SECT.                                                  : Section
TOWN.                                                  : Township
RNGE.                                                  : Range
PDAT.          MSL                                     : Perm Datum
EPD .ft        0.00                                    : Elevation
LMF .          RKB                                     : Log Measured From
DMF .          RKB                                     : Drill Measured From
APD .ft        78.00                                   : Above Perm Datum
EKB .ft        78.00                                   : Elev-Kelly Bushing
EDF .ft        77.00                                   : Elev-Drill Floor
TDD .ft        9930.00                                 : Total Depth (Driller)
EGL .ft        -470.00                                 : Elev-Ground Level (Water Depth)
LATI.          58 30 10 N                              : Latitude
LONG.          00 18 30 E                              : Longitude
SRVC.          SCHLUMBERGER                            : Service Company
DATE.          MAY-JUN-1973                            : Logging Date
SET .          COMP WIRE                               : Set
~Curve Information Section
DEPTH.ft                                               : Depth Curve
CALI.in                                                : Caliper
DRHO.g/cc                                              : Delta Rho
DT.us/ft                                               : Delta-T
GR.gAPI                                                : ISF Gamma Ray
GRD.gAPI                                               : FDC Gamma Ray
ILD.ohmm                                               : Deep Induction Resistivity
NPHI.%                                                 : Neutron Porosity
RHOB.g/cc                                              : Bulk Density
SFLU.ohmm                                              : Spherically Focused log Resistivity (Unaveraged)
SP.mV                                                  : Spontaneous Potential
~ASCII Log Data Section
# ...
 2667.5000      -999.2500      -999.2500       148.6662        27.8473      -999.2500         1.2792      -999.2500      -999.2500         0.8098       -32.4978     
 2668.0000      -999.2500      -999.2500       146.2993        30.0650      -999.2500         1.4124      -999.2500      -999.2500         0.8751       -31.3744     
 2668.5000      -999.2500      -999.2500       144.4909        31.6474      -999.2500         1.5088      -999.2500      -999.2500         0.9235       -30.6130     
 2669.0000      -999.2500      -999.2500       143.8643        32.6960      -999.2500         1.6053      -999.2500      -999.2500         0.9422       -30.0933     
 2669.5000      -999.2500      -999.2500       144.8255        33.3071      -999.2500         1.6834      -999.2500      -999.2500         0.9396       -29.6784     
 2670.0000      -999.2500      -999.2500       144.9241        33.8740      -999.2500         1.7219      -999.2500      -999.2500         0.9345       -29.3504     
 2670.5000      -999.2500      -999.2500       144.6292        34.6388      -999.2500         1.7275      -999.2500      -999.2500         0.9388       -29.0833     
 2671.0000      -999.2500      -999.2500       147.5042        35.5320      -999.2500         1.7023      -999.2500      -999.2500         0.9378       -28.8660     
 2671.5000      -999.2500      -999.2500       149.3314        36.0085      -999.2500         1.6689      -999.2500      -999.2500         0.9373       -28.8204     
 2672.0000      -999.2500      -999.2500       148.3252        36.2090      -999.2500         1.6403      -999.2500      -999.2500         0.9375       -29.0131     
 2672.5000      -999.2500      -999.2500       149.8685        35.5137      -999.2500         1.6084      -999.2500      -999.2500         0.9234       -29.1600     
 2673.0000      -999.2500      -999.2500       151.1031        33.1791      -999.2500         1.5917      -999.2500      -999.2500         0.9044       -29.2142     
 2673.5000      -999.2500      -999.2500       151.5461        31.9157      -999.2500         1.5790      -999.2500      -999.2500         0.9041       -29.1171     
 2674.0000      -999.2500      -999.2500       151.4403        31.5990      -999.2500         1.5640      -999.2500      -999.2500         0.9084       -28.9439     
 2674.5000      -999.2500      -999.2500       151.9908        31.1950      -999.2500         1.5467      -999.2500      -999.2500         0.9079       -28.8582     
 2675.0000      -999.2500      -999.2500       153.3853        30.3816      -999.2500         1.5294      -999.2500      -999.2500         0.9006       -28.8938     
 2675.5000      -999.2500      -999.2500       155.5802        29.2657      -999.2500         1.5198      -999.2500      -999.2500         0.8896       -29.0278     
 2676.0000      -999.2500      -999.2500       158.2048        27.6091      -999.2500         1.5090      -999.2500      -999.2500         0.8760       -29.0126     
 2676.5000      -999.2500      -999.2500       161.0495        26.3190      -999.2500         1.4994      -999.2500      -999.2500         0.8649       -28.7471     
 2677.0000      -999.2500      -999.2500       164.8359        26.7517      -999.2500         1.4943      -999.2500      -999.2500         0.8576       -28.5822     
 2677.5000      -999.2500      -999.2500       166.7655        28.0348      -999.2500         1.4965      -999.2500      -999.2500         0.8549       -28.6031     
 2678.0000      -999.2500      -999.2500       160.3109        29.1938      -999.2500         1.5100      -999.2500      -999.2500         0.8574       -28.7836     
 2678.5000      -999.2500      -999.2500       158.8975        30.2324      -999.2500         1.5357      -999.2500      -999.2500         0.8647       -29.0524     
 2679.0000      -999.2500      -999.2500       158.8436        30.6593      -999.2500         1.5711      -999.2500      -999.2500         0.8766       -29.2326     
 2679.5000      -999.2500      -999.2500       154.5568        30.7242      -999.2500         1.6090      -999.2500      -999.2500         0.8911       -29.1338     
 2680.0000      -999.2500      -999.2500       150.0691        30.1188      -999.2500         1.6346      -999.2500      -999.2500         0.9087       -28.8150     
 2680.5000      -999.2500      -999.2500       148.6169        28.4591      -999.2500         1.6375      -999.2500      -999.2500         0.9312       -28.3585     
 2681.0000      -999.2500      -999.2500       148.7146        26.9862      -999.2500         1.6330      -999.2500      -999.2500         0.9412       -27.8807     
 2681.5000      -999.2500      -999.2500       150.6446        26.6479      -999.2500         1.6261      -999.2500      -999.2500         0.9462       -27.4280     
 2682.0000      -999.2500      -999.2500       152.7439        27.1508      -999.2500         1.6187      -999.2500      -999.2500         0.9483       -27.0897     
 2682.5000      -999.2500      -999.2500       154.8562        27.9780      -999.2500         1.6069      -999.2500      -999.2500         0.9412       -26.9825     
 2683.0000      -999.2500      -999.2500       157.0547        28.7508      -999.2500         1.5913      -999.2500      -999.2500         0.9241       -27.1760     
 2683.5000      -999.2500      -999.2500       159.3827        29.3200      -999.2500         1.5726      -999.2500      -999.2500         0.8969       -27.7709     
 2684.0000      -999.2500      -999.2500       160.5591        29.5208      -999.2500         1.5523      -999.2500      -999.2500         0.8844       -27.9472     
 2684.5000      -999.2500      -999.2500       158.6676        29.4668      -999.2500         1.5310      -999.2500      -999.2500         0.8937       -27.6648     
 2685.0000      -999.2500      -999.2500       154.3424        29.2229      -999.2500         1.5155      -999.2500      -999.2500         0.9140       -27.1853     
 2685.5000      -999.2500      -999.2500       148.9157        29.4374      -999.2500         1.5123      -999.2500      -999.2500         0.9237       -26.9037     
 2686.0000      -999.2500      -999.2500       145.8259        30.5769      -999.2500         1.5197      -999.2500      -999.2500         0.9327       -26.6651     
 2686.5000      -999.2500      -999.2500       145.0547        32.2382      -999.2500         1.5426      -999.2500      -999.2500         0.9443       -26.7839     
 2687.0000      -999.2500      -999.2500       146.7738        33.1674      -999.2500         1.5748      -999.2500      -999.2500         0.9436       -26.9182     
 2687.5000      -999.2500      -999.2500       150.3824        32.3502      -999.2500         1.6012      -999.2500      -999.2500         0.9326       -26.9993     
 2688.0000      -999.2500      -999.2500       152.0240        31.6128      -999.2500         1.6247      -999.2500      -999.2500         0.9163       -27.3050     
 2688.5000      -999.2500      -999.2500       151.3354        32.0719      -999.2500         1.6419      -999.2500      -999.2500         0.9207       -27.5048     
 2689.0000      -999.2500      -999.2500       150.7488        32.7210      -999.2500         1.6556      -999.2500      -999.2500         0.9471       -27.1288     
 2689.5000      -999.2500      -999.2500       151.4726        32.9364      -999.2500         1.6635      -999.2500      -999.2500         0.9769       -26.7407     
 2690.0000      -999.2500      -999.2500       153.3943        32.7532      -999.2500         1.6688      -999.2500      -999.2500         1.0003       -26.4980     
 2690.5000      -999.2500      -999.2500       154.3704        32.2844      -999.2500         1.6691      -999.2500      -999.2500         1.0272       -26.2215     
 2691.0000      -999.2500      -999.2500       154.9481        31.8153      -999.2500         1.6661      -999.2500      -999.2500         1.0524       -26.0906     
 2691.5000      -999.2500      -999.2500       155.7647        31.8699      -999.2500         1.6589      -999.2500      -999.2500         1.0594       -26.2792     
