~Version Information Section
VERS.          2.0                                     : CWLS LOG ASCII Standard
WRAP.          NO                                      : One line per depth step
CREA.          09/01/14                                : LAS Creation Date
~Well Information Section
STRT.ft        1491.5000                               : Start Depth
STOP.ft        9915.0000                               : Stop Depth
STEP.ft        0.5000                                  : Step
NULL.          -999.2500                               : Null Value
COMP.          BURMAH                                  : Company
WELL.          15/12-1                                 : Well
FLD .          WILDCAT                                 : Field
LOC .          OFFSHORE                                : Location
LOC1.                                                  : Location 
PROV.          UKCS                                    : Province
UWI .          2657                                    : UWI Number
API .                                                  : API Number
SECT.                                                  : Section
TOWN.                                                  : Township
RNGE.                                                  : Range
PDAT.          MSL                                     : Perm Datum
EPD .ft        0.00                                    : Elevation
LMF .          RKB                                     : Log Measured From
DMF .          RKB                                     : Drill Measured From
APD .ft        78.00                                   : Above Perm Datum
EKB .ft        78.00                                   : Elev-Kelly Bushing
EDF .ft        77.00                                   : Elev-Drill Floor
TDD .ft        9930.00                                 : Total Depth (Driller)
EGL .ft        -470.00                                 : Elev-Ground Level (Water Depth)
LATI.          58 30 10 N                              : Latitude
LONG.          00 18 30 E                              : Longitude
SRVC.          SCHLUMBERGER                            : Service Company
DATE.          MAY-JUN-1973                            : Logging Date
SET .          COMP WIRE                               : Set
~Curve Information Section
DEPTH.ft                                               : Depth Curve
CALI.in                                                : Caliper
DRHO.g/cc                                              : Delta Rho
DT.us/ft                                               : Delta-T
GR.gAPI                                                : ISF Gamma Ray
GRD.gAPI                                               : FDC Gamma Ray
ILD.ohmm                                               : Deep Induction Resistivity
NPHI.%                                                 : Neutron Porosity
RHOB.g/cc                                              : Bulk Density
SFLU.ohmm                                              : Spherically Focused log Resistivity (Unaveraged)
SP.mV                                                  : Spontaneous Potential
~ASCII Log Data Section
# ...
 9846.0000      -999.2500      -999.2500        94.6782        83.0558      -999.2500         1.9561      -999.2500      -999.2500         1.6381        -7.6399     
 9846.5000      -999.2500      -999.2500        94.5333        81.4141      -999.2500         1.9604      -999.2500      -999.2500         1.6358        -7.8483     
 9847.0000      -999.2500      -999.2500        93.6596        78.3365      -999.2500         1.9676      -999.2500      -999.2500         1.6620        -7.8502     
 9847.5000      -999.2500      -999.2500        92.9574        76.0146      -999.2500         1.9755      -999.2500      -999.2500         1.7023        -7.9098     
 9848.0000      -999.2500      -999.2500        92.5454        77.4563      -999.2500         1.9801      -999.2500      -999.2500         1.7365        -8.5846     
 9848.5000      -999.2500      -999.2500        92.3685        81.0447      -999.2500         1.9833      -999.2500      -999.2500         1.7429        -9.0018     
 9849.0000      -999.2500      -999.2500        92.2997        83.4557      -999.2500         1.9926      -999.2500      -999.2500         1.7371        -8.3893     
 9849.5000      -999.2500      -999.2500        91.9880        83.9531      -999.2500         2.0262      -999.2500      -999.2500         1.7420        -7.7612     
 9850.0000      -999.2500      -999.2500        91.3536        83.0063      -999.2500         2.0714      -999.2500      -999.2500         1.7615        -7.3215     
 9850.5000      -999.2500      -999.2500        90.6262        81.7764      -999.2500         2.1057      -999.2500      -999.2500         1.7747        -6.9832     
 9851.0000      -999.2500      -999.2500        89.7709        81.2214      -999.2500         2.1374      -999.2500      -999.2500         1.7713        -6.7429     
 9851.5000      -999.2500      -999.2500        88.8302        80.6457      -999.2500         2.1533      -999.2500      -999.2500         1.7791        -6.8441     
 9852.0000      -999.2500      -999.2500        88.1301        79.9363      -999.2500         2.1506      -999.2500      -999.2500         1.8114        -7.3777     
 9852.5000      -999.2500      -999.2500        87.8949        79.8678      -999.2500         2.1384      -999.2500      -999.2500         1.8435        -7.9990     
 9853.0000      -999.2500      -999.2500        88.2097        81.1312      -999.2500         2.1247      -999.2500      -999.2500         1.8788        -8.4104     
 9853.5000      -999.2500      -999.2500        89.1806        83.2856      -999.2500         2.1142      -999.2500      -999.2500         1.8712        -9.1803     
 9854.0000      -999.2500      -999.2500        90.5690        84.6053      -999.2500         2.1172      -999.2500      -999.2500         1.7927       -10.2875     
 9854.5000      -999.2500      -999.2500        91.5386        84.6623      -999.2500         2.1372      -999.2500      -999.2500         1.6879       -11.1408     
 9855.0000      -999.2500      -999.2500        91.6528        83.6720      -999.2500         2.1521      -999.2500      -999.2500         1.6783       -11.0478     
 9855.5000      -999.2500      -999.2500        90.6280        82.1716      -999.2500         2.1559      -999.2500      -999.2500         1.7986        -9.7717     
 9856.0000      -999.2500      -999.2500        89.2212        81.1950      -999.2500         2.1553      -999.2500      -999.2500         1.8785        -8.4064     
 9856.5000      -999.2500      -999.2500        88.5643        80.8010      -999.2500         2.1549      -999.2500      -999.2500         1.8658        -8.0406     
 9857.0000      -999.2500      -999.2500        88.8371        80.6023      -999.2500         2.1653      -999.2500      -999.2500         1.8588        -8.3719     
 9857.5000      -999.2500      -999.2500        89.8942        80.0856      -999.2500         2.1834      -999.2500      -999.2500         1.8997        -9.0154     
 9858.0000      -999.2500      -999.2500        91.2556        79.4757      -999.2500         2.2079      -999.2500      -999.2500         1.8635        -9.7368     
 9858.5000      -999.2500      -999.2500        92.7597        79.9512      -999.2500         2.2451      -999.2500      -999.2500         1.7666       -10.5495     
 9859.0000      -999.2500      -999.2500        93.7892        81.1049      -999.2500         2.2892      -999.2500      -999.2500         1.7349       -11.3299     
 9859.5000      -999.2500      -999.2500        93.3320        81.5426      -999.2500         2.3350      -999.2500      -999.2500         1.7579       -11.6057     
 9860.0000      -999.2500      -999.2500        91.6804        81.0654      -999.2500         2.3756      -999.2500      -999.2500         1.8092       -11.2603     
 9860.5000      -999.2500      -999.2500        90.3899        79.8059      -999.2500         2.4077      -999.2500      -999.2500         1.9051       -10.5435     
 9861.0000      -999.2500      -999.2500        89.7013        78.5417      -999.2500         2.4413      -999.2500      -999.2500         2.0065       -10.0062     
 9861.5000      -999.2500      -999.2500        89.7270        77.6385      -999.2500         2.4763      -999.2500      -999.2500         2.0638        -9.8876     
 9862.0000      -999.2500      -999.2500        90.4808        76.7610      -999.2500         2.5110      -999.2500      -999.2500         2.0543        -9.8850     
 9862.5000      -999.2500      -999.2500        91.3118        76.2629      -999.2500         2.5456      -999.2500      -999.2500         1.9902        -9.9285     
 9863.0000      -999.2500      -999.2500        91.7048        76.5191      -999.2500         2.5823      -999.2500      -999.2500         1.8618       -10.1329     
 9863.5000      -999.2500      -999.2500        91.6905        77.2017      -999.2500         2.6160      -999.2500      -999.2500         1.7550       -10.6235     
 9864.0000      -999.2500      -999.2500        91.9208        77.5681      -999.2500         2.6256      -999.2500      -999.2500         1.7166       -11.3391     
 9864.5000      -999.2500      -999.2500        92.4026        76.8155      -999.2500         2.6250      -999.2500      -999.2500         1.7412       -11.8568     
 9865.0000      -999.2500      -999.2500        92.0021        74.5826      -999.2500         2.6474      -999.2500      -999.2500         1.9673       -11.6833     
 9865.5000      -999.2500      -999.2500        90.4908        71.5973      -999.2500         2.7598      -999.2500      -999.2500         2.3472       -10.9979     
 9866.0000      -999.2500      -999.2500        88.2802        68.0106      -999.2500         2.9601      -999.2500      -999.2500         2.6155       -10.3045     
 9866.5000      -999.2500      -999.2500        84.9694        63.4929      -999.2500         3.1628      -999.2500      -999.2500         2.5968        -9.6581     
 9867.0000      -999.2500      -999.2500        80.0615        56.8925      -999.2500         3.5487      -999.2500      -999.2500         2.5017        -9.1323     
 9867.5000      -999.2500      -999.2500        74.5006        49.2507      -999.2500         4.0519      -999.2500      -999.2500         2.5929        -8.9217     
 9868.0000      -999.2500      -999.2500        69.3435        44.5663      -999.2500         4.5445      -999.2500      -999.2500         2.9695        -8.7794     
 9868.5000      -999.2500      -999.2500        64.6515        40.5994      -999.2500         5.3734      -999.2500      -999.2500         3.5268        -8.4325     
 9869.0000      -999.2500      -999.2500        60.8953        36.3399      -999.2500         6.6884      -999.2500      -999.2500         4.2711        -7.9606     
 9869.5000      -999.2500      -999.2500        57.9325        31.8098      -999.2500         9.6482      -999.2500      -999.2500         5.0519        -7.7889     
 9870.0000      -999.2500      -999.2500        54.6383        27.3832      -999.2500        14.7980      -999.2500      -999.2500         5.8460        -8.0031     
