~Version Information Section
VERS.          2.0                                     : CWLS LOG ASCII Standard
WRAP.          NO                                      : One line per depth step
CREA.          09/01/14                                : LAS Creation Date
~Well Information Section
STRT.ft        1491.5000                               : Start Depth
STOP.ft        9915.0000                               : Stop Depth
STEP.ft        0.5000                                  : Step
NULL.          -999.2500                               : Null Value
COMP.          BURMAH                                  : Company
WELL.          15/12-1                                 : Well
FLD .          WILDCAT                                 : Field
LOC .          OFFSHORE                                : Location
LOC1.                                                  : Location 
PROV.          UKCS                                    : Province
UWI .          2657                                    : UWI Number
API .                                                  : API Number
SECT.                                                  : Section
TOWN.                                                  : Township
RNGE.                                                  : Range
PDAT.          MSL                                     : Perm Datum
EPD .ft        0.00                                    : Elevation
LMF .          RKB                                     : Log Measured From
DMF .          RKB                                     : Drill Measured From
APD .ft        78.00                                   : Above Perm Datum
EKB .ft        78.00                                   : Elev-Kelly Bushing
EDF .ft        77.00                                   : Elev-Drill Floor
TDD .ft        9930.00                                 : Total Depth (Driller)
EGL .ft        -470.00                                 : Elev-Ground Level (Water Depth)
LATI.          58 30 10 N                              : Latitude
LONG.          00 18 30 E                              : Longitude
SRVC.          SCHLUMBERGER                            : Service Company
DATE.          MAY-JUN-1973                            : Logging Date
SET .          COMP WIRE                               : Set
~Curve Information Section
DEPTH.ft                                               : Depth Curve
CALI.in                                                : Caliper
DRHO.g/cc                                              : Delta Rho
DT.us/ft                                               : Delta-T
GR.gAPI                                                : ISF Gamma Ray
GRD.gAPI                                               : FDC Gamma Ray
ILD.ohmm                                               : Deep Induction Resistivity
NPHI.%                                                 : Neutron Porosity
RHOB.g/cc                                              : Bulk Density
SFLU.ohmm                                              : Spherically Focused log Resistivity (Unaveraged)
SP.mV                                                  : Spontaneous Potential
~ASCII Log Data Section
# ...
 3770.0000      -999.2500      -999.2500       133.2154        34.1893      -999.2500         0.5351      -999.2500      -999.2500         0.5937       -34.3392     
 3770.5000      -999.2500      -999.2500       132.8833        34.4109      -999.2500         0.5336      -999.2500      -999.2500         0.6127       -34.5738     
 3771.0000      -999.2500      -999.2500       133.1178        34.1794      -999.2500         0.5322      -999.2500      -999.2500         0.6290       -34.1405     
 3771.5000      -999.2500      -999.2500       133.3296        34.0111      -999.2500         0.5325      -999.2500      -999.2500         0.6449       -33.2188     
 3772.0000      -999.2500      -999.2500       133.6754        34.2231      -999.2500         0.5376      -999.2500      -999.2500         0.6493       -31.3193     
 3772.5000      -999.2500      -999.2500       135.3225        34.4426      -999.2500         0.5489      -999.2500      -999.2500         0.6341       -29.6153     
 3773.0000      -999.2500      -999.2500       137.2924        34.2334      -999.2500         0.5613      -999.2500      -999.2500         0.6170       -28.9746     
 3773.5000      -999.2500      -999.2500       138.0312        34.2822      -999.2500         0.5730      -999.2500      -999.2500         0.6152       -29.3670     
 3774.0000      -999.2500      -999.2500       139.0516        34.5124      -999.2500         0.5813      -999.2500      -999.2500         0.6329       -30.8175     
 3774.5000      -999.2500      -999.2500       139.4815        34.6991      -999.2500         0.5891      -999.2500      -999.2500         0.6563       -32.5155     
 3775.0000      -999.2500      -999.2500       137.1789        35.3126      -999.2500         0.5976      -999.2500      -999.2500         0.6449       -32.5656     
 3775.5000      -999.2500      -999.2500       136.4146        37.4014      -999.2500         0.6107      -999.2500      -999.2500         0.6425       -31.5959     
 3776.0000      -999.2500      -999.2500       135.7300        40.1016      -999.2500         0.6280      -999.2500      -999.2500         0.6605       -30.0360     
 3776.5000      -999.2500      -999.2500       135.3762        42.2476      -999.2500         0.6572      -999.2500      -999.2500         0.6871       -28.7585     
 3777.0000      -999.2500      -999.2500       136.4423        42.1516      -999.2500         0.6886      -999.2500      -999.2500         0.7040       -28.0428     
 3777.5000      -999.2500      -999.2500       136.5273        39.6130      -999.2500         0.7257      -999.2500      -999.2500         0.7158       -27.7442     
 3778.0000      -999.2500      -999.2500       135.9575        37.6523      -999.2500         0.7634      -999.2500      -999.2500         0.7311       -28.2504     
 3778.5000      -999.2500      -999.2500       134.6919        37.1000      -999.2500         0.7936      -999.2500      -999.2500         0.7188       -29.3738     
 3779.0000      -999.2500      -999.2500       134.3380        37.3238      -999.2500         0.8070      -999.2500      -999.2500         0.7042       -30.7343     
 3779.5000      -999.2500      -999.2500       137.0261        37.1370      -999.2500         0.8119      -999.2500      -999.2500         0.7122       -32.0245     
 3780.0000      -999.2500      -999.2500       139.6076        35.5109      -999.2500         0.8051      -999.2500      -999.2500         0.7466       -31.9923     
 3780.5000      -999.2500      -999.2500       141.3622        33.3898      -999.2500         0.7833      -999.2500      -999.2500         0.7743       -30.8023     
 3781.0000      -999.2500      -999.2500       142.3750        31.7606      -999.2500         0.7520      -999.2500      -999.2500         0.7655       -29.6105     
 3781.5000      -999.2500      -999.2500       141.3467        31.0503      -999.2500         0.7137      -999.2500      -999.2500         0.7291       -29.4871     
 3782.0000      -999.2500      -999.2500       137.1368        31.8723      -999.2500         0.6720      -999.2500      -999.2500         0.6955       -29.8466     
 3782.5000      -999.2500      -999.2500       135.1702        32.5838      -999.2500         0.6312      -999.2500      -999.2500         0.6876       -30.4392     
 3783.0000      -999.2500      -999.2500       134.5621        32.7853      -999.2500         0.5887      -999.2500      -999.2500         0.6695       -31.2881     
 3783.5000      -999.2500      -999.2500       134.5694        32.5790      -999.2500         0.5583      -999.2500      -999.2500         0.6312       -32.0572     
 3784.0000      -999.2500      -999.2500       134.8439        32.1646      -999.2500         0.5338      -999.2500      -999.2500         0.6244       -32.8632     
 3784.5000      -999.2500      -999.2500       134.7849        31.3549      -999.2500         0.5179      -999.2500      -999.2500         0.6314       -33.7073     
 3785.0000      -999.2500      -999.2500       134.6509        30.7878      -999.2500         0.5053      -999.2500      -999.2500         0.6405       -34.0873     
 3785.5000      -999.2500      -999.2500       134.4633        31.3674      -999.2500         0.4997      -999.2500      -999.2500         0.6496       -33.5419     
 3786.0000      -999.2500      -999.2500       134.2750        33.3549      -999.2500         0.4968      -999.2500      -999.2500         0.6525       -32.5541     
 3786.5000      -999.2500      -999.2500       134.2489        35.9625      -999.2500         0.4977      -999.2500      -999.2500         0.6470       -31.8132     
 3787.0000      -999.2500      -999.2500       134.4534        37.6822      -999.2500         0.4997      -999.2500      -999.2500         0.6365       -31.6529     
 3787.5000      -999.2500      -999.2500       134.7306        38.9840      -999.2500         0.5027      -999.2500      -999.2500         0.6230       -31.9608     
 3788.0000      -999.2500      -999.2500       135.1364        39.2922      -999.2500         0.5057      -999.2500      -999.2500         0.6079       -32.6449     
 3788.5000      -999.2500      -999.2500       135.4342        37.7887      -999.2500         0.5089      -999.2500      -999.2500         0.5932       -33.6658     
 3789.0000      -999.2500      -999.2500       135.5685        36.4371      -999.2500         0.5183      -999.2500      -999.2500         0.5778       -34.3579     
 3789.5000      -999.2500      -999.2500       135.2671        35.9113      -999.2500         0.5298      -999.2500      -999.2500         0.5762       -34.2379     
 3790.0000      -999.2500      -999.2500       134.3372        36.1623      -999.2500         0.5442      -999.2500      -999.2500         0.5987       -33.2702     
 3790.5000      -999.2500      -999.2500       132.9691        37.3903      -999.2500         0.5614      -999.2500      -999.2500         0.6399       -32.1996     
 3791.0000      -999.2500      -999.2500       131.8597        39.2528      -999.2500         0.5848      -999.2500      -999.2500         0.6624       -31.1754     
 3791.5000      -999.2500      -999.2500       131.9472        41.0393      -999.2500         0.6108      -999.2500      -999.2500         0.6606       -30.5380     
 3792.0000      -999.2500      -999.2500       132.4744        41.3810      -999.2500         0.6407      -999.2500      -999.2500         0.6499       -30.3030     
 3792.5000      -999.2500      -999.2500       132.4897        39.4991      -999.2500         0.6572      -999.2500      -999.2500         0.6511       -30.3290     
 3793.0000      -999.2500      -999.2500       132.1752        36.9578      -999.2500         0.6656      -999.2500      -999.2500         0.6641       -30.7966     
 3793.5000      -999.2500      -999.2500       132.2971        34.5738      -999.2500         0.6695      -999.2500      -999.2500         0.6699       -31.9789     
 3794.0000      -999.2500      -999.2500       133.7694        33.3379      -999.2500         0.6615      -999.2500      -999.2500         0.6650       -33.3962     
