~Version Information Section
VERS.          2.0                                     : CWLS LOG ASCII Standard
WRAP.          NO                                      : One line per depth step
CREA.          09/01/14                                : LAS Creation Date
~Well Information Section
STRT.ft        1491.5000                               : Start Depth
STOP.ft        9915.0000                               : Stop Depth
STEP.ft        0.5000                                  : Step
NULL.          -999.2500                               : Null Value
COMP.          BURMAH                                  : Company
WELL.          15/12-1                                 : Well
FLD .          WILDCAT                                 : Field
LOC .          OFFSHORE                                : Location
LOC1.                                                  : Location 
PROV.          UKCS                                    : Province
UWI .          2657                                    : UWI Number
API .                                                  : API Number
SECT.                                                  : Section
TOWN.                                                  : Township
RNGE.                                                  : Range
PDAT.          MSL                                     : Perm Datum
EPD .ft        0.00                                    : Elevation
LMF .          RKB                                     : Log Measured From
DMF .          RKB                                     : Drill Measured From
APD .ft        78.00                                   : Above Perm Datum
EKB .ft        78.00                                   : Elev-Kelly Bushing
EDF .ft        77.00                                   : Elev-Drill Floor
TDD .ft        9930.00                                 : Total Depth (Driller)
EGL .ft        -470.00                                 : Elev-Ground Level (Water Depth)
LATI.          58 30 10 N                              : Latitude
LONG.          00 18 30 E                              : Longitude
SRVC.          SCHLUMBERGER                            : Service Company
DATE.          MAY-JUN-1973                            : Logging Date
SET .          COMP WIRE                               : Set
~Curve Information Section
DEPTH.ft                                               : Depth Curve
CALI.in                                                : Caliper
DRHO.g/cc                                              : Delta Rho
DT.us/ft                                               : Delta-T
GR.gAPI                                                : ISF Gamma Ray
GRD.gAPI                                               : FDC Gamma Ray
ILD.ohmm                                               : Deep Induction Resistivity
NPHI.%                                                 : Neutron Porosity
RHOB.g/cc                                              : Bulk Density
SFLU.ohmm                                              : Spherically Focused log Resistivity (Unaveraged)
SP.mV                                                  : Spontaneous Potential
~ASCII Log Data Section
# ...
 7077.5000        15.3818         0.0415        76.1487        14.2404        16.1209         3.4858        17.8259         2.5098         2.3150       -20.8724     
 7078.0000        15.4017         0.0315        76.9726        15.1913        15.7571         3.5869        17.0942         2.5260         2.2985       -20.6003     
 7078.5000        15.4159         0.0499        78.4610        16.3780        15.4212         3.7087        17.3799         2.5459         2.1774       -20.8486     
 7079.0000        15.4358         0.0754        79.3641        17.4002        15.5667         3.7775        18.6535         2.5411         2.0647       -21.4316     
 7079.5000        15.4619         0.0834        79.1893        18.0837        16.3745         3.7608        19.9860         2.5173         2.0461       -21.8219     
 7080.0000        15.4921         0.0759        78.8771        18.4983        16.9738         3.6858        20.4902         2.4875         2.0958       -21.4709     
 7080.5000        15.5078         0.0537        78.9575        18.6718        17.1299         3.6052        19.4866         2.4919         2.1118       -20.2872     
 7081.0000        15.5012         0.0652        79.1298        19.0486        17.9143         3.5876        18.3544         2.5202         2.0292       -19.4724     
 7081.5000        15.5311         0.0929        78.6448        19.7061        18.3772         3.6079        18.2650         2.5452         1.9524       -19.3458     
 7082.0000        15.5829         0.0820        77.6822        19.6340        17.7264         3.6248        18.3453         2.5449         2.0147       -19.5259     
 7082.5000        15.6175         0.0767        76.6976        18.4272        16.7312         3.6469        18.0202         2.5488         2.1471       -19.8095     
 7083.0000        15.6440         0.0719        76.3529        16.9855        15.8628         3.7009        17.6533         2.5444         2.2074       -20.2220     
 7083.5000        15.6566         0.0573        76.8409        16.0696        15.4265         3.7836        17.7878         2.5469         2.1556       -20.6175     
 7084.0000        15.6571         0.0786        76.8524        15.5097        15.5633         3.8805        18.2978         2.5525         2.0829       -20.5225     
 7084.5000        15.6658         0.0835        76.0796        15.0409        15.9502         3.9619        18.5877         2.5398         2.0708       -20.0481     
 7085.0000        15.6699         0.0874        75.2260        14.9585        15.9084         4.0057        18.2467         2.5313         2.1295       -19.6985     
 7085.5000        15.6831         0.0872        74.5837        15.4534        15.3378         4.0486        17.5183         2.5115         2.2496       -19.6448     
 7086.0000        15.7402         0.0475        74.1338        16.3462        14.7759         4.1072        16.5757         2.4911         2.2958       -19.7295     
 7086.5000        15.7947         0.0416        73.7603        17.6069        15.6291         4.1744        15.9050         2.5233         2.1963       -19.5692     
 7087.0000        15.8152         0.0856        73.3628        18.2308        16.7468         4.2303        16.1030         2.5632         2.1274       -19.1465     
 7087.5000        15.7942         0.1095        73.1001        18.0341        16.9896         4.2533        16.5452         2.5803         2.1779       -18.8008     
 7088.0000        15.7307         0.1098        73.8044        17.7448        17.0448         4.3005        16.4540         2.5910         2.2234       -18.7573     
 7088.5000        15.6744         0.1200        75.1676        17.5985        17.6036         4.3911        16.5029         2.5986         2.2198       -19.1539     
 7089.0000        15.6901         0.0910        76.4293        17.4891        18.5649         4.5022        16.7892         2.5567         2.2210       -19.3549     
 7089.5000        15.7379         0.0637        76.6299        17.2126        18.6750         4.6666        16.7009         2.5490         2.2101       -19.0161     
 7090.0000        15.7478         0.0770        75.7199        16.7547        17.8493         4.8357        16.2896         2.5715         2.2023       -18.8806     
 7090.5000        15.7376         0.1074        74.2239        16.1122        17.0539         4.9650        15.5926         2.5886         2.3144       -18.8872     
 7091.0000        15.7352         0.1245        72.6845        15.5190        16.4173         5.0587        14.5724         2.5950         2.4598       -18.7420     
 7091.5000        15.7491         0.0921        72.1884        15.6342        16.0901         5.1634        13.5947         2.5886         2.4848       -18.5210     
 7092.0000        15.7793         0.0557        72.7105        16.4589        16.4834         5.2831        13.4430         2.5865         2.4711       -18.3545     
 7092.5000        15.8040         0.0546        73.5464        17.4838        17.1032         5.3403        13.9914         2.5897         2.5449       -18.3030     
 7093.0000        15.7851         0.0509        74.4105        18.7521        17.6322         5.2742        14.1606         2.5803         2.6378       -18.2876     
 7093.5000        15.7588         0.0490        75.3573        19.8660        17.8537         5.2086        13.8663         2.5742         2.5920       -18.1302     
 7094.0000        15.7523         0.0501        76.2350        19.9165        17.5673         5.2154        13.9173         2.5592         2.4486       -17.6995     
 7094.5000        15.7272         0.0648        76.3561        18.9470        16.7357         5.1569        14.7564         2.5360         2.3193       -17.4371     
 7095.0000        15.6764         0.1080        75.4576        18.2681        15.6430         5.0343        16.6600         2.5159         2.2967       -17.5181     
 7095.5000        15.6673         0.1408        73.8991        18.0935        15.0528         4.8889        17.8735         2.4790         2.3550       -17.7380     
 7096.0000        15.9767         0.0945        72.5636        18.0031        15.3659         4.6843        17.0248         2.4527         2.3750       -17.7855     
 7096.5000        15.9841         0.0720        72.6626        17.6534        16.6736         4.4980        15.9564         2.5244         2.3566       -17.5592     
 7097.0000        15.8184         0.0810        73.7483        17.2619        18.0131         4.4163        15.3787         2.5347         2.3179       -17.3318     
 7097.5000        15.7918         0.0547        74.5321        17.1959        18.9960         4.3853        14.7434         2.5317         2.2483       -17.3543     
 7098.0000        15.7481         0.0557        75.2161        17.2539        19.7038         4.3437        14.7377         2.5439         2.1544       -17.6812     
 7098.5000        15.6253         0.0855        75.9159        17.1731        19.3888         4.2868        15.8583         2.5371         2.1477       -18.0052     
 7099.0000        15.5896         0.1301        76.3147        16.9957        18.6184         4.2073        17.1750         2.5099         2.2085       -17.8701     
 7099.5000        15.6655         0.1120        76.6062        17.0540        18.1913         4.1064        17.6657         2.5048         2.1478       -17.5476     
 7100.0000        15.5626         0.0820        76.5762        17.1640        18.7214         4.0425        17.3157         2.5258         2.0335       -17.5359     
 7100.5000        15.4682         0.0500        76.2114        16.9460        18.1822         4.0382        16.6272         2.5255         1.9968       -17.9948     
 7101.0000        15.4165         0.0338        75.7979        16.5761        17.0590         4.0321        15.8671         2.5479         2.0510       -18.6723     
 7101.5000        15.3490         0.0316        75.7676        16.4076        16.5590         3.9921        15.4976         2.5590         2.1206       -19.1273     
