~Version Information Block
VERS .                 2.00:  CWLS LOG ASCII STANDARD - VERSION 2.00
WRAP .                  YES:  Multiple lines per depth step
~Well Information Block
#MNEM.UNIT        Data Type   Information
#---------- ----------------  -----------
STRT .F              2673.5:  START DEPTH
STOP .F                7526:  STOP DEPTH
STEP .F                 0.5:  STEP
NULL .              -999.25:  NULL VALUE
COMP .     CONOCO (UK) LTD.:  COMPANY
WELL .              15/19-9:  WELL
FLD  .          EXPLORATION:  FIELD
LOC  .     58 DEG 25 MIN 41.048 SEC N:  LOCATION
PROV .                 UKCS:  PROVINCE
SRVC .                ATLAS:  SERVICE COMPANY
DATE .     15-08-98 TO 09-09-98:  LOG DATE
UWI  .                27553:  UNIQUE WELL ID
~Curve Information Block
#MNEM.UNIT         API CODE   Curve Description
#---------- ----------------  -----------------
DEPTH.F                    :  Depth in Feet
CAL  .IN                   :  Edited Caliper from ZDL/CN/SL
CNC  .%            42995991:  Edited Neutron Porosity from ZDL/CN/SL
GR   .GAPI                 :  Edited Gamma Ray from ZDL/CN/SL
GRAM .API          99995991:  Edited Gamma Ray from MWD: MPR
K    .%            31719991:  Edited Potassium from ZDL/CN/SL
KTH  .GAPI         31995991:  Edited Potassium plus Thorium from ZDL/CN/SL
PE   .B/E                  :  Edited Photo-electric from ZDL/CN/SL
RACH .OHMM                 :  Edited Resistivity (AT) 2MHz BHC from MWD: MPR
RACL .OHMM                 :  Edited Resistivity (AT) 400kHz BHC from MWD: MPR
RASH .OHMM                 :  Edited Resistivity (AT) 2MHz BHC from MWD: MPR
RASL .OHMM                 :  Edited Resistivity (AT) 400kHz BHC from MWD: MPR
RPCH .OHMM                 :  Edited Resistivity (PD) 2MHz BHC from MWD: MPR
RPCL .OHMM                 :  Edited Resistivity (PD) 400kHz BHC from MWD: MPR
RPSH .OHMM                 :  Edited Resistivity (PD) 2MHz BHC from MWD: MPR
RPSL .OHMM                 :  Edited Resistivity (PD) 400kHz BHC from MWD: MPR
TH   .PPM          31790991:  Edited Thorium from ZDL/CN/SL
U    .PPM          31792991:  Edited Uranium from ZDL/CN/SL
ZCOR .G/C3                 :  Edited ZDL Density Correction from ZDL/CN/SL
ZDEN .G/C3                 :  Edited ZDL Bulk Density from ZDL/CN/SL
~Parameter Information Block
#MNEM.UNIT            Value   Description
#---------- ----------------  -----------
SET  .        COMP_WIRE_MWD:  
PROJECT.             90TH_I_1:  
API  .                     :  
COUN .            NORTH SEA:  
DATU .                  MSL:  
DMF  .                   DF:  
TDD  .F                7560:  
EDF  .F                  75:  
EKB  .F                  75:  
EPD  .F                   0:  
FN   .          EXPLORATION:  
LATI .       58 25'41.048"N:  
LCC  .                  150:  
LONG .       00 36'17.360"E:  
LMF  .                   DF:  
ORDU .                 FEET:  Units Of Measurement
PDAT .                  MSL:  Permanent Datum
RIG_NAME.            DRILLSTAR:  
SURF .F                -490:   
~Other Information Block
~Ascii Log Data
# ...
      6845.0000 
       17.6703        45.7032        73.5314        92.1876         3.8000 
       73.0424         5.5630         0.7990         0.8300         0.7850 
        0.8290         0.8470         0.8350         0.8020         0.8020 
        8.1159         0.0163         0.0939         2.3080 
      6845.5000 
       17.3424        47.3999        74.3959        93.1193         3.9073 
       73.8243         6.0667         0.8140         0.8360         0.8020 
        0.8390         0.8580         0.8580         0.8230         0.8230 
        7.7514         0.0269         0.0906         2.3007 
      6846.0000 
       17.1313        49.3094        74.9073        93.1507         3.9532 
       74.1972         6.9638         0.8240         0.8410         0.8170 
        0.8470         0.9090         0.8860         0.8730         0.8590 
        7.2035         0.0461         0.0719         2.2871 
      6846.5000 
       16.9647        51.2856        74.3387        95.8221         3.9450 
       73.5838         8.0424         0.8390         0.8430         0.8320 
        0.8530         0.9660         0.9170         0.9200         0.8890 
        6.6367         0.0575         0.0543         2.2674 
      6847.0000 
       16.9785        52.4425        73.9699       100.9142         3.9153 
       73.2074         8.8218         0.8720         0.8540         0.8650 
        0.8700         1.0370         0.9520         0.9780         0.9180 
        6.2161         0.0603         0.0561         2.2416 
      6847.5000 
       17.3238        52.7827        73.7767       105.4086         3.8599 
       72.9819         9.0126         0.8850         0.8600         0.8810 
        0.8770         1.0110         0.9480         0.9680         0.9200 
        6.0251         0.0580         0.0716         2.2140 
      6848.0000 
       17.8462        53.1879        73.0769       106.8401         3.7964 
       72.3105         8.6928         0.8740         0.8600         0.8750 
        0.8810         0.9690         0.9320         0.9380         0.9090 
        6.1303         0.0486         0.0811         2.1935 
      6848.5000 
       18.2645        53.3598        73.0590       107.7064         3.7522 
       72.3787         7.8682         0.8620         0.8560         0.8630 
        0.8780         0.9540         0.9220         0.9220         0.9000 
        6.3914         0.0380         0.0793         2.1930 
      6849.0000 
       18.6528        52.8609        73.4294       104.5320         3.7231 
       72.7732         6.8064         0.8540         0.8510         0.8520 
        0.8710         0.9420         0.9120         0.9080         0.8880 
        6.5926         0.0379         0.0738         2.2152 
      6849.5000 
       19.2401        51.7227        73.2068       101.1155         3.7068 
       72.4873         6.1696         0.8470         0.8450         0.8440 
        0.8600         0.9260         0.9000         0.9000         0.8780 
        6.6572         0.0502         0.0718         2.2446 
      6850.0000 
       19.9322        49.9825        73.0439        97.8159         3.6986 
       72.1936         6.2500         0.8360         0.8360         0.8310 
        0.8490         0.9270         0.8940         0.9070         0.8720 
        6.6025         0.0711         0.0750         2.2630 
      6850.5000 
       20.4923        48.3288        73.6537        93.5925         3.6938 
       72.6378         6.4108         0.8300         0.8270         0.8200 
        0.8360         0.9220         0.8840         0.8950         0.8570 
        6.4931         0.0942         0.0756         2.2641 
      6851.0000 
       20.8611        47.4328        74.8420        90.0217         3.6932 
       73.7146         6.4169         0.8250         0.8200         0.8130 
        0.8250         0.9040         0.8680         0.8710         0.8380 
        6.4197         0.1094         0.0760         2.2604 
      6851.5000 
       21.0556        47.4449        76.4427        91.6152         3.7015 
       75.2794         6.6111         0.8140         0.8100         0.8000 
        0.8150         0.8740         0.8460         0.8410         0.8180 
        6.4052         0.1129         0.0829         2.2679 
      6852.0000 
       20.8229        47.7990        77.4911        95.4701         3.7111 
       76.2637         6.7124         0.7980         0.8020         0.7870 
        0.8070         0.8460         0.8280         0.8180         0.8020 
        6.3615         0.1173         0.0906         2.2830 
      6852.5000 
       19.9797        48.1398        77.1269       100.7548         3.7189 
       75.8481         6.4985         0.7890         0.7990         0.7780 
        0.8030         0.8320         0.8180         0.8000         0.7920 
        6.2896         0.1210         0.0846         2.2882 
      6853.0000 
       19.1430        48.2266        75.8883       103.5336         3.7355 
       74.6453         6.9852         0.7830         0.7960         0.7730 
        0.8010         0.8200         0.8130         0.7840         0.7840 
        6.1771         0.1178         0.0673         2.2795 
      6853.5000 
       19.0346        47.6248        74.5189       103.7205         3.7789 
       73.3656         7.6220         0.7910         0.7960         0.7770 
        0.8000         0.8220         0.8180         0.7860         0.7880 
        6.0356         0.1095         0.0564         2.2675 
      6854.0000 
       19.5758        46.6123        73.3769       101.9319         3.8356 
       72.3196         7.5040         0.7970         0.7960         0.7810 
        0.8000         0.8320         0.8250         0.7970         0.7940 
        5.9714         0.1000         0.0628         2.2621 
      6854.5000 
       20.2673        47.0179        72.8619       101.2270         3.8737 
       71.8409         7.0622         0.8020         0.7970         0.7860 
        0.8020         0.8310         0.8270         0.7980         0.7960 
        5.9989         0.0984         0.0728         2.2686 
      6855.0000 
       20.8756        48.8497        73.2971       100.6115         3.8712 
       72.1566         6.8966         0.8070         0.7990         0.7910 
        0.8040         0.8290         0.8270         0.7950         0.7980 
        6.0842         0.1161         0.0375         2.2512 
      6855.5000 
       21.2197        49.1859        74.5926        99.9455         3.8101 
       73.0753         6.8403         0.7970         0.8000         0.7860 
        0.8050         0.8310         0.8270         0.8020         0.7970 
        6.2490         0.1689        -0.0872         2.1664 
      6856.0000 
       20.9141        47.1990        76.0163        98.6612         3.7051 
       73.8613         6.3856         0.7950         0.8000         0.7850 
        0.8060         0.8200         0.8210         0.7960         0.7970 
        6.4351         0.2578        -0.2127         2.0774 
      6856.5000 
       19.5969        45.7843        76.7640        97.0996         3.6092 
       73.9693         5.4592         0.8000         0.8010         0.7910 
        0.8090         0.8500         0.8370         0.8260         0.8130 
        6.4967         0.3460        -0.1657         2.0995 
      6857.0000 
       17.7752        45.4075        77.4135        96.1445         3.5146 
       73.9376         4.7401         0.8150         0.8080         0.8050 
        0.8160         0.8430         0.8400         0.8200         0.8140 
        6.3956         0.4323        -0.0145         2.2021 
      6857.5000 
       16.5473        45.8898        77.8049        95.0264         3.4244 
       73.7177         4.9601         0.8150         0.8140         0.8050 
        0.8220         0.8310         0.8390         0.8140         0.8150 
        6.2531         0.5055         0.0838         2.2660 
      6858.0000 
       16.4375        48.3339        76.5026        95.2425         3.3867 
       72.4819         6.0432         0.8160         0.8190         0.8050 
        0.8280         0.8380         0.8480         0.8250         0.8250 
        6.0596         0.4981         0.1021         2.2471 
