~Version Information Block
VERS .                 2.00:  CWLS LOG ASCII STANDARD - VERSION 2.00
WRAP .                  YES:  Multiple lines per depth step
~Well Information Block
#MNEM.UNIT        Data Type   Information
#---------- ----------------  -----------
STRT .F              2673.5:  START DEPTH
STOP .F                7526:  STOP DEPTH
STEP .F                 0.5:  STEP
NULL .              -999.25:  NULL VALUE
COMP .     CONOCO (UK) LTD.:  COMPANY
WELL .              15/19-9:  WELL
FLD  .          EXPLORATION:  FIELD
LOC  .     58 DEG 25 MIN 41.048 SEC N:  LOCATION
PROV .                 UKCS:  PROVINCE
SRVC .                ATLAS:  SERVICE COMPANY
DATE .     15-08-98 TO 09-09-98:  LOG DATE
UWI  .                27553:  UNIQUE WELL ID
~Curve Information Block
#MNEM.UNIT         API CODE   Curve Description
#---------- ----------------  -----------------
DEPTH.F                    :  Depth in Feet
CAL  .IN                   :  Edited Caliper from ZDL/CN/SL
CNC  .%            42995991:  Edited Neutron Porosity from ZDL/CN/SL
GR   .GAPI                 :  Edited Gamma Ray from ZDL/CN/SL
GRAM .API          99995991:  Edited Gamma Ray from MWD: MPR
K    .%            31719991:  Edited Potassium from ZDL/CN/SL
KTH  .GAPI         31995991:  Edited Potassium plus Thorium from ZDL/CN/SL
PE   .B/E                  :  Edited Photo-electric from ZDL/CN/SL
RACH .OHMM                 :  Edited Resistivity (AT) 2MHz BHC from MWD: MPR
RACL .OHMM                 :  Edited Resistivity (AT) 400kHz BHC from MWD: MPR
RASH .OHMM                 :  Edited Resistivity (AT) 2MHz BHC from MWD: MPR
RASL .OHMM                 :  Edited Resistivity (AT) 400kHz BHC from MWD: MPR
RPCH .OHMM                 :  Edited Resistivity (PD) 2MHz BHC from MWD: MPR
RPCL .OHMM                 :  Edited Resistivity (PD) 400kHz BHC from MWD: MPR
RPSH .OHMM                 :  Edited Resistivity (PD) 2MHz BHC from MWD: MPR
RPSL .OHMM                 :  Edited Resistivity (PD) 400kHz BHC from MWD: MPR
TH   .PPM          31790991:  Edited Thorium from ZDL/CN/SL
U    .PPM          31792991:  Edited Uranium from ZDL/CN/SL
ZCOR .G/C3                 :  Edited ZDL Density Correction from ZDL/CN/SL
ZDEN .G/C3                 :  Edited ZDL Bulk Density from ZDL/CN/SL
~Parameter Information Block
#MNEM.UNIT            Value   Description
#---------- ----------------  -----------
SET  .        COMP_WIRE_MWD:  
PROJECT.             90TH_I_1:  
API  .                     :  
COUN .            NORTH SEA:  
DATU .                  MSL:  
DMF  .                   DF:  
TDD  .F                7560:  
EDF  .F                  75:  
EKB  .F                  75:  
EPD  .F                   0:  
FN   .          EXPLORATION:  
LATI .       58 25'41.048"N:  
LCC  .                  150:  
LONG .       00 36'17.360"E:  
LMF  .                   DF:  
ORDU .                 FEET:  Units Of Measurement
PDAT .                  MSL:  Permanent Datum
RIG_NAME.            DRILLSTAR:  
SURF .F                -490:   
~Other Information Block
~Ascii Log Data
# ...
      6642.5000 
     -999.2500      -999.2500      -999.2500        95.9587      -999.2500 
     -999.2500      -999.2500         0.7580         0.7720         0.7450 
        0.7820         0.8090         0.7920         0.7680         0.7610 
     -999.2500      -999.2500      -999.2500      -999.2500 
      6643.0000 
     -999.2500      -999.2500      -999.2500        97.8958      -999.2500 
     -999.2500      -999.2500         0.7530         0.7690         0.7390 
        0.7770         0.8100         0.7860         0.7650         0.7530 
     -999.2500      -999.2500      -999.2500      -999.2500 
      6643.5000 
     -999.2500      -999.2500      -999.2500        97.6448      -999.2500 
     -999.2500      -999.2500         0.7450         0.7660         0.7330 
        0.7700         0.7930         0.7740         0.7570         0.7440 
     -999.2500      -999.2500      -999.2500      -999.2500 
      6644.0000 
     -999.2500      -999.2500      -999.2500        97.4064      -999.2500 
     -999.2500      -999.2500         0.7410         0.7640         0.7280 
        0.7680         0.7860         0.7710         0.7530         0.7400 
     -999.2500      -999.2500      -999.2500      -999.2500 
      6644.5000 
     -999.2500      -999.2500        52.0596        96.1324      -999.2500 
     -999.2500      -999.2500         0.7340         0.7600         0.7230 
        0.7620         0.7850         0.7560         0.7430         0.7250 
     -999.2500      -999.2500      -999.2500      -999.2500 
      6645.0000 
     -999.2500      -999.2500        52.7641        94.4265      -999.2500 
     -999.2500      -999.2500         0.7240         0.7590         0.7090 
        0.7600         0.7490         0.7430         0.7150         0.7100 
     -999.2500      -999.2500      -999.2500      -999.2500 
      6645.5000 
     -999.2500      -999.2500        51.9433        94.2654      -999.2500 
     -999.2500      -999.2500         0.7210         0.7590         0.7070 
        0.7590         0.7320         0.7280         0.6870         0.6960 
     -999.2500      -999.2500      -999.2500      -999.2500 
      6646.0000 
     -999.2500      -999.2500        49.3400        95.1410      -999.2500 
     -999.2500      -999.2500         0.7090         0.7600         0.6970 
        0.7610         0.6950         0.7150         0.6660         0.6920 
     -999.2500      -999.2500      -999.2500      -999.2500 
      6646.5000 
     -999.2500      -999.2500        47.6176        97.1378      -999.2500 
     -999.2500      -999.2500         0.7150         0.7590         0.6990 
        0.7610         0.7260         0.7270         0.6930         0.7040 
     -999.2500      -999.2500      -999.2500      -999.2500 
      6647.0000 
     -999.2500      -999.2500        48.3418        99.2924      -999.2500 
     -999.2500      -999.2500         0.7210         0.7620         0.7060 
        0.7650         0.7540         0.7460         0.7210         0.7200 
     -999.2500      -999.2500      -999.2500      -999.2500 
      6647.5000 
     -999.2500      -999.2500        50.0987        98.7666      -999.2500 
     -999.2500      -999.2500         0.7270         0.7650         0.7130 
        0.7690         0.7820         0.7640         0.7490         0.7360 
     -999.2500      -999.2500      -999.2500      -999.2500 
      6648.0000 
     -999.2500      -999.2500        52.2933        97.9971      -999.2500 
     -999.2500      -999.2500         0.7350         0.7670         0.7210 
        0.7720         0.8070         0.7800         0.7720         0.7510 
     -999.2500      -999.2500      -999.2500      -999.2500 
      6648.5000 
     -999.2500      -999.2500        55.2177        96.8785      -999.2500 
     -999.2500      -999.2500         0.7470         0.7720         0.7350 
        0.7810         0.8160         0.7910         0.7820         0.7630 
     -999.2500      -999.2500      -999.2500      -999.2500 
      6649.0000 
     -999.2500      -999.2500        58.2030        97.4299      -999.2500 
     -999.2500      -999.2500         0.7590         0.7780         0.7490 
        0.7900         0.8250         0.8020         0.7920         0.7760 
     -999.2500      -999.2500      -999.2500      -999.2500 
      6649.5000 
     -999.2500      -999.2500        61.3941       101.0771      -999.2500 
     -999.2500      -999.2500         0.7710         0.7830         0.7640 
        0.7990         0.8340         0.8130         0.8010         0.7880 
     -999.2500      -999.2500      -999.2500      -999.2500 
      6650.0000 
     -999.2500      -999.2500        66.7247       106.3264      -999.2500 
     -999.2500      -999.2500         0.7770         0.7880         0.7700 
        0.8040         0.8430         0.8200         0.8050         0.7950 
     -999.2500      -999.2500      -999.2500      -999.2500 
      6650.5000 
     -999.2500      -999.2500        73.6596       107.8585      -999.2500 
     -999.2500      -999.2500         0.7890         0.7960         0.7800 
        0.8110         0.8370         0.8240         0.7950         0.7950 
     -999.2500      -999.2500      -999.2500      -999.2500 
      6651.0000 
     -999.2500      -999.2500        75.5325       106.2332      -999.2500 
     -999.2500      -999.2500         0.7930         0.7930         0.7850 
        0.8130         0.8350         0.8250         0.7980         0.7980 
     -999.2500      -999.2500      -999.2500      -999.2500 
      6651.5000 
     -999.2500      -999.2500        69.1439       103.0139      -999.2500 
     -999.2500      -999.2500         0.7910         0.7910         0.7830 
        0.8120         0.8370         0.8250         0.8050         0.8010 
     -999.2500      -999.2500      -999.2500      -999.2500 
      6652.0000 
     -999.2500      -999.2500        61.3536       100.5598      -999.2500 
     -999.2500      -999.2500         0.7900         0.7910         0.7820 
        0.8090         0.8380         0.8240         0.8080         0.8010 
     -999.2500      -999.2500      -999.2500      -999.2500 
      6652.5000 
     -999.2500      -999.2500        57.4341        99.3068      -999.2500 
     -999.2500      -999.2500         0.7750         0.7840         0.7640 
        0.7990         0.8590         0.8280         0.8250         0.7990 
     -999.2500      -999.2500      -999.2500      -999.2500 
      6653.0000 
     -999.2500      -999.2500        54.6364       100.0602      -999.2500 
     -999.2500      -999.2500         0.7640         0.7830         0.7560 
        0.7930         0.8850         0.8300         0.8300         0.7970 
     -999.2500      -999.2500      -999.2500      -999.2500 
      6653.5000 
     -999.2500      -999.2500        51.6895       100.5658      -999.2500 
     -999.2500      -999.2500         0.7820         0.7760         0.7590 
        0.7840         0.8510         0.8050         0.8160         0.7720 
     -999.2500      -999.2500      -999.2500      -999.2500 
      6654.0000 
     -999.2500      -999.2500        50.6822       100.5944      -999.2500 
     -999.2500      -999.2500         0.7700         0.7730         0.7560 
        0.7790         0.8340         0.7900         0.7980         0.7600 
     -999.2500      -999.2500      -999.2500      -999.2500 
      6654.5000 
     -999.2500      -999.2500        51.1930       101.3227      -999.2500 
     -999.2500      -999.2500         0.7590         0.7700         0.7530 
        0.7740         0.8180         0.7760         0.7820         0.7490 
     -999.2500      -999.2500      -999.2500      -999.2500 
      6655.0000 
     -999.2500      -999.2500        51.3623       102.6656      -999.2500 
     -999.2500      -999.2500         0.7430         0.7670         0.7350 
        0.7680         0.7950         0.7610         0.7580         0.7340 
     -999.2500      -999.2500      -999.2500      -999.2500 
      6655.5000 
     -999.2500      -999.2500        51.1254       104.2081      -999.2500 
     -999.2500      -999.2500         0.7340         0.7650         0.7250 
        0.7640         0.7810         0.7530         0.7450         0.7250 
     -999.2500      -999.2500      -999.2500      -999.2500 
