~Version Information Block
VERS .                 2.00:  CWLS LOG ASCII STANDARD - VERSION 2.00
WRAP .                  YES:  Multiple lines per depth step
~Well Information Block
#MNEM.UNIT        Data Type   Information
#---------- ----------------  -----------
STRT .F              2673.5:  START DEPTH
STOP .F                7526:  STOP DEPTH
STEP .F                 0.5:  STEP
NULL .              -999.25:  NULL VALUE
COMP .     CONOCO (UK) LTD.:  COMPANY
WELL .              15/19-9:  WELL
FLD  .          EXPLORATION:  FIELD
LOC  .     58 DEG 25 MIN 41.048 SEC N:  LOCATION
PROV .                 UKCS:  PROVINCE
SRVC .                ATLAS:  SERVICE COMPANY
DATE .     15-08-98 TO 09-09-98:  LOG DATE
UWI  .                27553:  UNIQUE WELL ID
~Curve Information Block
#MNEM.UNIT         API CODE   Curve Description
#---------- ----------------  -----------------
DEPTH.F                    :  Depth in Feet
CAL  .IN                   :  Edited Caliper from ZDL/CN/SL
CNC  .%            42995991:  Edited Neutron Porosity from ZDL/CN/SL
GR   .GAPI                 :  Edited Gamma Ray from ZDL/CN/SL
GRAM .API          99995991:  Edited Gamma Ray from MWD: MPR
K    .%            31719991:  Edited Potassium from ZDL/CN/SL
KTH  .GAPI         31995991:  Edited Potassium plus Thorium from ZDL/CN/SL
PE   .B/E                  :  Edited Photo-electric from ZDL/CN/SL
RACH .OHMM                 :  Edited Resistivity (AT) 2MHz BHC from MWD: MPR
RACL .OHMM                 :  Edited Resistivity (AT) 400kHz BHC from MWD: MPR
RASH .OHMM                 :  Edited Resistivity (AT) 2MHz BHC from MWD: MPR
RASL .OHMM                 :  Edited Resistivity (AT) 400kHz BHC from MWD: MPR
RPCH .OHMM                 :  Edited Resistivity (PD) 2MHz BHC from MWD: MPR
RPCL .OHMM                 :  Edited Resistivity (PD) 400kHz BHC from MWD: MPR
RPSH .OHMM                 :  Edited Resistivity (PD) 2MHz BHC from MWD: MPR
RPSL .OHMM                 :  Edited Resistivity (PD) 400kHz BHC from MWD: MPR
TH   .PPM          31790991:  Edited Thorium from ZDL/CN/SL
U    .PPM          31792991:  Edited Uranium from ZDL/CN/SL
ZCOR .G/C3                 :  Edited ZDL Density Correction from ZDL/CN/SL
ZDEN .G/C3                 :  Edited ZDL Bulk Density from ZDL/CN/SL
~Parameter Information Block
#MNEM.UNIT            Value   Description
#---------- ----------------  -----------
SET  .        COMP_WIRE_MWD:  
PROJECT.             90TH_I_1:  
API  .                     :  
COUN .            NORTH SEA:  
DATU .                  MSL:  
DMF  .                   DF:  
TDD  .F                7560:  
EDF  .F                  75:  
EKB  .F                  75:  
EPD  .F                   0:  
FN   .          EXPLORATION:  
LATI .       58 25'41.048"N:  
LCC  .                  150:  
LONG .       00 36'17.360"E:  
LMF  .                   DF:  
ORDU .                 FEET:  Units Of Measurement
PDAT .                  MSL:  Permanent Datum
RIG_NAME.            DRILLSTAR:  
SURF .F                -490:   
~Other Information Block
~Ascii Log Data
# ...
      7412.0000 
       12.1121      -999.2500      -999.2500        85.6852      -999.2500 
     -999.2500      -999.2500         0.5130         0.5140         0.5010 
        0.5000         0.4800         0.5090         0.4600         0.4810 
     -999.2500      -999.2500      -999.2500      -999.2500 
      7412.5000 
       12.0530      -999.2500      -999.2500        84.1311      -999.2500 
     -999.2500      -999.2500         0.4330         0.4570         0.4310 
        0.4410         0.4340         0.4360         0.4160         0.4180 
     -999.2500      -999.2500      -999.2500      -999.2500 
      7413.0000 
       12.0062      -999.2500      -999.2500        85.2411      -999.2500 
     -999.2500      -999.2500         0.3970         0.4280         0.3930 
        0.4100         0.3920         0.4000         0.3800         0.3830 
     -999.2500      -999.2500      -999.2500      -999.2500 
      7413.5000 
       12.2500      -999.2500      -999.2500        86.6012      -999.2500 
     -999.2500      -999.2500         0.3800         0.4070         0.3720 
        0.3900         0.3720         0.3800         0.3650         0.3660 
     -999.2500      -999.2500      -999.2500      -999.2500 
      7414.0000 
       12.2500      -999.2500      -999.2500        87.0344      -999.2500 
     -999.2500      -999.2500         0.3620         0.3890         0.3570 
        0.3750         0.3650         0.3680         0.3600         0.3570 
     -999.2500      -999.2500      -999.2500      -999.2500 
      7414.5000 
       12.2500      -999.2500      -999.2500        85.1993      -999.2500 
     -999.2500      -999.2500         0.3610         0.3750         0.3580 
        0.3660         0.3610         0.3630         0.3600         0.3570 
     -999.2500      -999.2500      -999.2500      -999.2500 
      7415.0000 
       12.2500      -999.2500      -999.2500        82.9410      -999.2500 
     -999.2500      -999.2500         0.3550         0.3690         0.3540 
        0.3630         0.3600         0.3620         0.3610         0.3580 
     -999.2500      -999.2500      -999.2500      -999.2500 
      7415.5000 
       12.2500      -999.2500      -999.2500        81.3075      -999.2500 
     -999.2500      -999.2500         0.3560         0.3660         0.3560 
        0.3630         0.3570         0.3630         0.3600         0.3590 
     -999.2500      -999.2500      -999.2500      -999.2500 
      7416.0000 
       12.2500      -999.2500      -999.2500        81.7200      -999.2500 
     -999.2500      -999.2500         0.3540         0.3610         0.3570 
        0.3610         0.3700         0.3680         0.3690         0.3650 
     -999.2500      -999.2500      -999.2500      -999.2500 
      7416.5000 
       12.2500      -999.2500      -999.2500        83.3000      -999.2500 
     -999.2500      -999.2500         0.3490         0.3580         0.3530 
        0.3600         0.3860         0.3730         0.3840         0.3710 
     -999.2500      -999.2500      -999.2500      -999.2500 
      7417.0000 
       12.2500      -999.2500      -999.2500        85.3849      -999.2500 
     -999.2500      -999.2500         0.3480         0.3560         0.3510 
        0.3580         0.3960         0.3770         0.3920         0.3740 
     -999.2500      -999.2500      -999.2500      -999.2500 
      7417.5000 
       12.2500      -999.2500      -999.2500        86.0760      -999.2500 
     -999.2500      -999.2500         0.3590         0.3570         0.3610 
        0.3590         0.3910         0.3760         0.3860         0.3720 
     -999.2500      -999.2500      -999.2500      -999.2500 
      7418.0000 
       12.2500      -999.2500      -999.2500        86.6808      -999.2500 
     -999.2500      -999.2500         0.3660         0.3570         0.3670 
        0.3590         0.3810         0.3730         0.3750         0.3670 
     -999.2500      -999.2500      -999.2500      -999.2500 
      7418.5000 
       12.2500      -999.2500      -999.2500        85.7579      -999.2500 
     -999.2500      -999.2500         0.3610         0.3560         0.3610 
        0.3580         0.3670         0.3650         0.3640         0.3590 
     -999.2500      -999.2500      -999.2500      -999.2500 
      7419.0000 
       12.2500      -999.2500      -999.2500        85.1115      -999.2500 
     -999.2500      -999.2500         0.3500         0.3540         0.3540 
        0.3560         0.3570         0.3580         0.3560         0.3540 
     -999.2500      -999.2500      -999.2500      -999.2500 
      7419.5000 
       12.2500      -999.2500      -999.2500        84.3872      -999.2500 
     -999.2500      -999.2500         0.3460         0.3530         0.3500 
        0.3560         0.3540         0.3550         0.3510         0.3510 
     -999.2500      -999.2500      -999.2500      -999.2500 
      7420.0000 
       12.2500      -999.2500      -999.2500        83.9354      -999.2500 
     -999.2500      -999.2500         0.3480         0.3540         0.3520 
        0.3570         0.3580         0.3580         0.3530         0.3540 
     -999.2500      -999.2500      -999.2500      -999.2500 
      7420.5000 
     -999.2500      -999.2500      -999.2500        82.8168      -999.2500 
     -999.2500      -999.2500         0.3530         0.3570         0.3540 
        0.3590         0.3660         0.3640         0.3600         0.3590 
     -999.2500      -999.2500      -999.2500      -999.2500 
      7421.0000 
     -999.2500      -999.2500      -999.2500        82.6431      -999.2500 
     -999.2500      -999.2500         0.3580         0.3600         0.3600 
        0.3620         0.3760         0.3730         0.3720         0.3670 
     -999.2500      -999.2500      -999.2500      -999.2500 
      7421.5000 
     -999.2500      -999.2500      -999.2500        82.7525      -999.2500 
     -999.2500      -999.2500         0.3640         0.3630         0.3640 
        0.3650         0.3820         0.3790         0.3770         0.3720 
     -999.2500      -999.2500      -999.2500      -999.2500 
      7422.0000 
     -999.2500      -999.2500      -999.2500        84.1867      -999.2500 
     -999.2500      -999.2500         0.3660         0.3640         0.3650 
        0.3660         0.3800         0.3780         0.3750         0.3710 
     -999.2500      -999.2500      -999.2500      -999.2500 
      7422.5000 
     -999.2500      -999.2500      -999.2500        84.8998      -999.2500 
     -999.2500      -999.2500         0.3590         0.3630         0.3610 
        0.3660         0.3770         0.3740         0.3710         0.3680 
     -999.2500      -999.2500      -999.2500      -999.2500 
      7423.0000 
     -999.2500      -999.2500      -999.2500        85.1405      -999.2500 
     -999.2500      -999.2500         0.3540         0.3630         0.3560 
        0.3650         0.3690         0.3680         0.3660         0.3640 
     -999.2500      -999.2500      -999.2500      -999.2500 
      7423.5000 
     -999.2500      -999.2500      -999.2500        84.2631      -999.2500 
     -999.2500      -999.2500         0.3570         0.3630         0.3580 
        0.3650         0.3720         0.3710         0.3670         0.3650 
     -999.2500      -999.2500      -999.2500      -999.2500 
      7424.0000 
     -999.2500      -999.2500      -999.2500        84.1015      -999.2500 
     -999.2500      -999.2500         0.3610         0.3630         0.3600 
        0.3650         0.3820         0.3780         0.3740         0.3690 
     -999.2500      -999.2500      -999.2500      -999.2500 
      7424.5000 
     -999.2500      -999.2500      -999.2500        84.3791      -999.2500 
     -999.2500      -999.2500         0.3630         0.3620         0.3630 
        0.3660         0.3860         0.3790         0.3720         0.3690 
     -999.2500      -999.2500      -999.2500      -999.2500 
      7425.0000 
     -999.2500      -999.2500      -999.2500        85.2578      -999.2500 
     -999.2500      -999.2500         0.3550         0.3620         0.3630 
        0.3670         0.3870         0.3780         0.3690         0.3670 
     -999.2500      -999.2500      -999.2500      -999.2500 
