~Version Information Block
VERS .                 2.00:  CWLS LOG ASCII STANDARD - VERSION 2.00
WRAP .                  YES:  Multiple lines per depth step
~Well Information Block
#MNEM.UNIT        Data Type   Information
#---------- ----------------  -----------
STRT .F              2673.5:  START DEPTH
STOP .F                7526:  STOP DEPTH
STEP .F                 0.5:  STEP
NULL .              -999.25:  NULL VALUE
COMP .     CONOCO (UK) LTD.:  COMPANY
WELL .              15/19-9:  WELL
FLD  .          EXPLORATION:  FIELD
LOC  .     58 DEG 25 MIN 41.048 SEC N:  LOCATION
PROV .                 UKCS:  PROVINCE
SRVC .                ATLAS:  SERVICE COMPANY
DATE .     15-08-98 TO 09-09-98:  LOG DATE
UWI  .                27553:  UNIQUE WELL ID
~Curve Information Block
#MNEM.UNIT         API CODE   Curve Description
#---------- ----------------  -----------------
DEPTH.F                    :  Depth in Feet
CAL  .IN                   :  Edited Caliper from ZDL/CN/SL
CNC  .%            42995991:  Edited Neutron Porosity from ZDL/CN/SL
GR   .GAPI                 :  Edited Gamma Ray from ZDL/CN/SL
GRAM .API          99995991:  Edited Gamma Ray from MWD: MPR
K    .%            31719991:  Edited Potassium from ZDL/CN/SL
KTH  .GAPI         31995991:  Edited Potassium plus Thorium from ZDL/CN/SL
PE   .B/E                  :  Edited Photo-electric from ZDL/CN/SL
RACH .OHMM                 :  Edited Resistivity (AT) 2MHz BHC from MWD: MPR
RACL .OHMM                 :  Edited Resistivity (AT) 400kHz BHC from MWD: MPR
RASH .OHMM                 :  Edited Resistivity (AT) 2MHz BHC from MWD: MPR
RASL .OHMM                 :  Edited Resistivity (AT) 400kHz BHC from MWD: MPR
RPCH .OHMM                 :  Edited Resistivity (PD) 2MHz BHC from MWD: MPR
RPCL .OHMM                 :  Edited Resistivity (PD) 400kHz BHC from MWD: MPR
RPSH .OHMM                 :  Edited Resistivity (PD) 2MHz BHC from MWD: MPR
RPSL .OHMM                 :  Edited Resistivity (PD) 400kHz BHC from MWD: MPR
TH   .PPM          31790991:  Edited Thorium from ZDL/CN/SL
U    .PPM          31792991:  Edited Uranium from ZDL/CN/SL
ZCOR .G/C3                 :  Edited ZDL Density Correction from ZDL/CN/SL
ZDEN .G/C3                 :  Edited ZDL Bulk Density from ZDL/CN/SL
~Parameter Information Block
#MNEM.UNIT            Value   Description
#---------- ----------------  -----------
SET  .        COMP_WIRE_MWD:  
PROJECT.             90TH_I_1:  
API  .                     :  
COUN .            NORTH SEA:  
DATU .                  MSL:  
DMF  .                   DF:  
TDD  .F                7560:  
EDF  .F                  75:  
EKB  .F                  75:  
EPD  .F                   0:  
FN   .          EXPLORATION:  
LATI .       58 25'41.048"N:  
LCC  .                  150:  
LONG .       00 36'17.360"E:  
LMF  .                   DF:  
ORDU .                 FEET:  Units Of Measurement
PDAT .                  MSL:  Permanent Datum
RIG_NAME.            DRILLSTAR:  
SURF .F                -490:   
~Other Information Block
~Ascii Log Data
# ...
      7209.5000 
       11.8932        33.7342        55.5863        92.2605         3.1004 
       58.3078         5.0671         0.7660         0.6260         0.7740 
        0.6550         0.9050         0.8060         0.8120         0.7650 
        5.1846         0.0617         0.0443         2.2724 
      7210.0000 
       11.8697        30.5775        50.9970        84.9332         2.9864 
       52.5038         5.2889         0.7460         0.6220         0.7300 
        0.6400         0.7440         0.7260         0.6620         0.6720 
        4.2518         0.0351         0.0458         2.2703 
      7210.5000 
       11.8529        26.7744        50.4034        81.0598         2.9481 
       49.8019         5.4243         0.6720         0.6120         0.6330 
        0.6100         0.5710         0.6250         0.5240         0.5750 
        3.7874         0.0189         0.0451         2.2715 
      7211.0000 
       11.8499        24.8508        51.7125        78.2600         2.9497 
       50.5301         5.4773         0.6590         0.6040         0.5780 
        0.5920         0.5550         0.5790         0.4750         0.5360 
        3.5863         0.0131         0.0457         2.2755 
      7211.5000 
       11.8536      -999.2500        50.8894        74.3526         2.9499 
       51.3137         5.5611         0.5780         0.5950         0.5410 
        0.5760         0.4720         0.5480         0.4490         0.5080 
        3.3542         0.0089         0.0476         2.2813 
      7212.0000 
       11.8576      -999.2500        46.8855        69.6395         2.8653 
       48.9357         5.6342         0.5320         0.5810         0.5010 
        0.5540         0.4510         0.5180         0.4330         0.4810 
        2.7752         0.0152         0.0479         2.2870 
      7212.5000 
       11.8595      -999.2500        42.6087        67.5239         2.7211 
       44.2401         5.6782         0.4920         0.5550         0.4700 
        0.5210         0.4670         0.4950         0.4420         0.4630 
        2.0606         0.0281         0.0468         2.2912 
      7213.0000 
       11.8586      -999.2500        41.0048        67.1716         2.6522 
       41.0928         5.7720         0.4850         0.5390         0.4580 
        0.4980         0.4890         0.4890         0.4560         0.4550 
        1.7622         0.0310         0.0458         2.2929 
      7213.5000 
       11.8535        21.1282        41.0608        68.2942         2.6604 
       40.4765         5.9387         0.4790         0.5300         0.4470 
        0.4840         0.4710         0.4720         0.4480         0.4420 
        1.8055         0.0265         0.0451         2.2917 
      7214.0000 
       11.8446        21.3396        41.6890        70.1814         2.6798 
       40.8388         6.1393         0.4720         0.5280         0.4360 
        0.4750         0.4410         0.4600         0.4400         0.4330 
        1.9063         0.0222         0.0443         2.2881 
      7214.5000 
       11.8366        21.7792        42.7250        71.4800         2.7223 
       41.6998         6.2973         0.4640         0.5310         0.4330 
        0.4770         0.4400         0.4590         0.4410         0.4320 
        2.1148         0.0165         0.0428         2.2833 
      7215.0000 
       11.8360        22.1142        43.7202        72.9668         2.8111 
       42.8527         6.3549         0.4710         0.5410         0.4450 
        0.4900         0.4660         0.4700         0.4480         0.4420 
        2.4548         0.0083         0.0405         2.2789 
      7215.5000 
       11.8477        23.0955        44.3698        73.9030         2.8956 
       43.6970         6.3577         0.4860         0.5650         0.4640 
        0.5190         0.5080         0.4990         0.4820         0.4700 
        2.7381         0.0019         0.0396         2.2782 
      7216.0000 
       11.8634        25.1884        46.0843        75.1479         2.9471 
       44.5646         6.4300         0.5150         0.5990         0.4860 
        0.5530         0.5150         0.5270         0.5050         0.4990 
        2.9133         0.0001         0.0442         2.2846 
      7216.5000 
       11.8716        27.7700        51.0740        77.6656         3.0237 
       47.4387         6.7942         0.5440         0.6290         0.5090 
        0.5840         0.5100         0.5490         0.5090         0.5210 
        3.2359         0.0001         0.0551         2.3044 
      7217.0000 
       11.8744        28.9002        60.3133        81.9825         3.1785 
       54.2422         7.7215         0.6230         0.6850         0.5780 
        0.6500         0.5560         0.6290         0.5550         0.5920 
        4.0883         0.0029         0.0720         2.3460 
      7217.5000 
       11.8783        29.4105        72.0436        87.1325         3.4320 
       64.8116         9.2954         0.6860         0.7280         0.6410 
        0.7110         0.8020         0.7820         0.7540         0.7320 
        5.8242         0.0193         0.0944         2.4074 
      7218.0000 
       11.8828        32.4432        82.1989        94.4473         3.7400 
       76.0968        10.8862         0.7230         0.7640         0.6840 
        0.7800         1.0880         0.9310         1.0150         0.9070 
        7.9039         0.0483         0.1115         2.4615 
      7218.5000 
       11.9023        39.4275        87.8284       103.6138         3.9557 
       84.0990        11.3941         0.9420         0.8430         0.8910 
        0.8710         1.3530         1.1190         1.2590         1.0610 
        9.1672         0.0690         0.1087         2.4761 
      7219.0000 
       11.9666        47.8408        89.5947       112.4454         4.0310 
       87.7320        10.8879         1.1240         0.9030         1.0450 
        0.9800         1.4200         1.2290         1.3460         1.2220 
        9.5911         0.0742         0.0930         2.4581 
      7219.5000 
       12.0694        52.7117        89.5848       119.7444         4.0810 
       88.4986        10.0403         1.1980         0.9400         1.1910 
        1.0310         1.4140         1.2860         1.3670         1.2700 
        9.8187         0.0698         0.0819         2.4375 
      7220.0000 
       12.1634        50.6644        89.3229       124.3728         4.1370 
       88.3474         9.3141         1.2360         0.9640         1.2410 
        1.0640         1.3670         1.3080         1.2920         1.2760 
        9.9931         0.0630         0.0810         2.4324 
      7220.5000 
       12.2092        43.9828        89.7286       125.5604         4.1871 
       88.4099         8.8631         1.2380         0.9610         1.2310 
        1.0620         1.3550         1.3020         1.2680         1.2670 
       10.0127         0.0538         0.0845         2.4383 
      7221.0000 
       12.2188        38.3904        90.8089       122.3183         4.2214 
       89.3192         8.6356         1.1820         0.9360         1.1880 
        1.0200         1.3450         1.2670         1.2850         1.2450 
        9.8351         0.0397         0.0856         2.4414 
      7221.5000 
       12.2184        35.4082        91.0774       116.3218         4.2444 
       90.2974         8.3943         1.0930         0.9020         1.1210 
        0.9500         1.3690         1.2320         1.3100         1.1860 
        9.5777         0.0233         0.0773         2.4457 
      7222.0000 
       12.2164        32.7132        88.7579       107.2288         4.2483 
       89.7308         7.8790         0.9970         0.8460         0.9950 
        0.8680         1.3620         1.1590         1.2650         1.0780 
        9.3041         0.0107         0.0502         2.4475 
      7222.5000 
       12.2143        29.1030        82.0511        96.5947         4.2054 
       85.7719         7.1459         0.9560         0.7990         0.9340 
        0.8130         1.2450         1.0600         1.1350         0.9630 
        8.8599         0.0043         0.0065         2.4419 
