~Version Information Block
VERS .                 2.00:  CWLS LOG ASCII STANDARD - VERSION 2.00
WRAP .                  YES:  Multiple lines per depth step
~Well Information Block
#MNEM.UNIT        Data Type   Information
#---------- ----------------  -----------
STRT .F              2673.5:  START DEPTH
STOP .F                7526:  STOP DEPTH
STEP .F                 0.5:  STEP
NULL .              -999.25:  NULL VALUE
COMP .     CONOCO (UK) LTD.:  COMPANY
WELL .              15/19-9:  WELL
FLD  .          EXPLORATION:  FIELD
LOC  .     58 DEG 25 MIN 41.048 SEC N:  LOCATION
PROV .                 UKCS:  PROVINCE
SRVC .                ATLAS:  SERVICE COMPANY
DATE .     15-08-98 TO 09-09-98:  LOG DATE
UWI  .                27553:  UNIQUE WELL ID
~Curve Information Block
#MNEM.UNIT         API CODE   Curve Description
#---------- ----------------  -----------------
DEPTH.F                    :  Depth in Feet
CAL  .IN                   :  Edited Caliper from ZDL/CN/SL
CNC  .%            42995991:  Edited Neutron Porosity from ZDL/CN/SL
GR   .GAPI                 :  Edited Gamma Ray from ZDL/CN/SL
GRAM .API          99995991:  Edited Gamma Ray from MWD: MPR
K    .%            31719991:  Edited Potassium from ZDL/CN/SL
KTH  .GAPI         31995991:  Edited Potassium plus Thorium from ZDL/CN/SL
PE   .B/E                  :  Edited Photo-electric from ZDL/CN/SL
RACH .OHMM                 :  Edited Resistivity (AT) 2MHz BHC from MWD: MPR
RACL .OHMM                 :  Edited Resistivity (AT) 400kHz BHC from MWD: MPR
RASH .OHMM                 :  Edited Resistivity (AT) 2MHz BHC from MWD: MPR
RASL .OHMM                 :  Edited Resistivity (AT) 400kHz BHC from MWD: MPR
RPCH .OHMM                 :  Edited Resistivity (PD) 2MHz BHC from MWD: MPR
RPCL .OHMM                 :  Edited Resistivity (PD) 400kHz BHC from MWD: MPR
RPSH .OHMM                 :  Edited Resistivity (PD) 2MHz BHC from MWD: MPR
RPSL .OHMM                 :  Edited Resistivity (PD) 400kHz BHC from MWD: MPR
TH   .PPM          31790991:  Edited Thorium from ZDL/CN/SL
U    .PPM          31792991:  Edited Uranium from ZDL/CN/SL
ZCOR .G/C3                 :  Edited ZDL Density Correction from ZDL/CN/SL
ZDEN .G/C3                 :  Edited ZDL Bulk Density from ZDL/CN/SL
~Parameter Information Block
#MNEM.UNIT            Value   Description
#---------- ----------------  -----------
SET  .        COMP_WIRE_MWD:  
PROJECT.             90TH_I_1:  
API  .                     :  
COUN .            NORTH SEA:  
DATU .                  MSL:  
DMF  .                   DF:  
TDD  .F                7560:  
EDF  .F                  75:  
EKB  .F                  75:  
EPD  .F                   0:  
FN   .          EXPLORATION:  
LATI .       58 25'41.048"N:  
LCC  .                  150:  
LONG .       00 36'17.360"E:  
LMF  .                   DF:  
ORDU .                 FEET:  Units Of Measurement
PDAT .                  MSL:  Permanent Datum
RIG_NAME.            DRILLSTAR:  
SURF .F                -490:   
~Other Information Block
~Ascii Log Data
# ...
      7101.5000 
       12.1756        22.8806        40.8217        74.8696      -999.2500 
     -999.2500         4.1820         6.5770         6.5300         5.4220 
        5.7560         4.6290         5.2970         3.4670         4.0980 
     -999.2500      -999.2500         0.0210         2.2580 
      7102.0000 
       12.1739        25.9513        40.1000        75.2485      -999.2500 
     -999.2500         4.2184         5.7140         6.1860         4.4420 
        5.3720         3.5580         4.4310         2.7550         3.4380 
     -999.2500      -999.2500         0.0257         2.2977 
      7102.5000 
       12.1824        28.8102        42.5536        77.5579      -999.2500 
     -999.2500         4.2496         4.6660         5.8610         3.5510 
        5.0150         2.8860         3.8400         2.3020         2.9910 
     -999.2500      -999.2500         0.0387         2.3135 
      7103.0000 
       12.1884        30.2787        49.5918        82.4996      -999.2500 
     -999.2500         4.3292         3.9550         5.6000         2.9270 
        4.6550         2.3230         3.3350         1.8830         2.5570 
     -999.2500      -999.2500         0.0471         2.3134 
      7103.5000 
       12.1856        31.0482        55.4927        87.6739      -999.2500 
     -999.2500         4.4751         3.6460         5.2690         2.6550 
        4.2940         2.1450         3.1090         1.6930         2.3480 
     -999.2500      -999.2500         0.0459         2.3095 
      7104.0000 
       12.1808        31.6166        56.1356        90.8863      -999.2500 
     -999.2500         4.6581         3.5770         5.0590         2.6050 
        4.1280         2.1980         3.0910         1.7020         2.3200 
     -999.2500      -999.2500         0.0465         2.3138 
      7104.5000 
       12.1756        31.3598        56.0241        89.5675      -999.2500 
     -999.2500         4.7641         3.5010         4.8890         2.5590 
        4.0000         2.2720         3.1100         1.7580         2.3380 
     -999.2500      -999.2500         0.0500         2.3248 
      7105.0000 
       12.1699        30.9396        56.2285        87.1342      -999.2500 
     -999.2500         4.7630         3.5680         4.7570         2.7160 
        4.1430         2.3270         3.1150         1.7220         2.3140 
     -999.2500      -999.2500         0.0412         2.3237 
      7105.5000 
       12.1683        30.5979        55.2854        85.0855      -999.2500 
     -999.2500         4.8162         3.7170         4.9440         2.8360 
        4.2420         2.3890         3.1600         1.7630         2.3610 
     -999.2500      -999.2500         0.0272         2.3092 
      7106.0000 
       12.1735        29.9955        53.5643        84.8993         2.9344 
       53.7472         4.9903         3.7210         4.7650         2.8830 
        4.0470         2.5930         3.2840         1.9350         2.4970 
        4.5024         0.0489         0.0288         2.3012 
      7106.5000 
       12.1795        29.6612        53.0731        85.6878         2.9171 
       52.6403         5.0692         3.8880         4.8830         3.1110 
        4.3800         2.9830         3.5100         2.1980         2.7240 
        4.7177         0.0260         0.0417         2.3023 
      7107.0000 
       12.1789        29.6318        53.8417        86.6775         2.8990 
       53.0219         4.8565         3.9860         4.6340         3.2940 
        4.1630         3.4760         3.7780         2.5010         2.9470 
        4.7073         0.0153         0.0410         2.2895 
      7107.5000 
       12.1748        32.6035        54.1620        86.4897         2.8738 
       53.8311         4.4642         4.0130         4.7850         3.3990 
        4.4410         4.1270         4.1300         2.8540         3.2370 
        4.5833         0.0112         0.0249         2.2499 
      7108.0000 
       12.1734        38.0432        52.4658        85.2874         2.8446 
       53.1930         4.1584         4.1000         4.6940         3.3570 
        4.3240         4.9900         4.5030         3.3150         3.5610 
        4.2886         0.0137         0.0153         2.2049 
      7108.5000 
       12.1730        35.1148        49.0121        83.4646         2.7767 
       50.3832         4.0250         4.2810         4.8330         3.6040 
        4.5930         5.6940         4.9370         3.8090         3.9070 
        3.6278         0.0252         0.0189         2.1691 
      7109.0000 
       12.1703        26.0196        45.4043        81.4411         2.6638 
       46.5478         3.9723         4.4660         4.9430         3.7930 
        4.6820         6.1500         5.2710         4.2230         4.1770 
        2.8390         0.0459         0.0223         2.1500 
      7109.5000 
       12.1690        22.7123        42.4833        79.2292         2.5531 
       43.1051         3.9577         4.6750         5.0640         4.0110 
        4.8370         6.4700         5.4930         4.4640         4.4130 
        2.3001         0.0671         0.0218         2.1508 
      7110.0000 
       12.1715        24.8305        40.4193        77.1673         2.4772 
       40.5812         3.9545         5.2900         5.3470         4.6430 
        5.1450         6.2230         5.6200         4.3180         4.4980 
        2.0616         0.0729         0.0234         2.1624 
      7110.5000 
       12.1726        26.5098        39.2525        75.3217         2.4443 
       39.0513         3.9621         5.9510         5.5990         5.3090 
        5.3840         6.5500         6.0210         4.5650         4.8120 
        2.0338         0.0660         0.0288         2.1784 
      7111.0000 
       12.1711        27.1362        39.0554        74.7947         2.4261 
       38.4311         3.9852         6.4080         5.8200         5.8310 
        5.6170         7.2900         6.5210         5.0850         5.2580 
        2.0912         0.0633         0.0333         2.1910 
      7111.5000 
       12.1710        27.8533        39.4648        74.9025         2.3948 
       38.5458         3.9070         6.8210         6.0870         6.3080 
        5.8420         7.6420         6.8730         5.3080         5.5100 
        2.1421         0.0758         0.0282         2.1863 
      7112.0000 
       12.1722      -999.2500        39.8000        75.0387         2.3580 
       38.8644         3.7208         7.1650         6.2990         6.6870 
        6.0690         7.7780         7.0740         5.4250         5.6910 
        2.1340         0.0938         0.0188         2.1710 
      7112.5000 
       12.1716      -999.2500        39.7401        74.7212         2.3342 
       38.9399         3.5522         7.3270         6.4840         6.8230 
        6.2340         8.0670         7.3710         5.7830         6.0400 
        2.1378         0.1022         0.0190         2.1625 
      7113.0000 
       12.1691      -999.2500        39.7225        74.2126         2.3309 
       38.8660         3.5030         7.4410         6.6770         6.9130 
        6.4570         8.7350         7.8520         6.5060         6.5880 
        2.1542         0.1016         0.0260         2.1626 
      7113.5000 
       12.1684      -999.2500        39.5733        72.9347         2.3446 
       38.8952         3.5711         7.8150         6.9390         7.3320 
        6.7270         9.2260         8.2370         6.9030         6.9140 
        2.1388         0.0950         0.0299         2.1632 
      7114.0000 
       12.1711        27.7250        39.1141        71.7014         2.3767 
       38.6701         3.6643         8.1590         7.1580         7.6900 
        6.9470         9.4460         8.5100         7.0670         7.1180 
        2.1895         0.0755         0.0302         2.1642 
      7114.5000 
       12.1733        27.6210        38.6169        70.3494         2.4134 
       38.3387         3.6989         8.3380         7.3850         7.7440 
        7.1250         9.8200         8.8690         7.5290         7.4990 
        2.3940         0.0446         0.0319         2.1706 
