~Version Information Block
VERS .                 2.00:  CWLS LOG ASCII STANDARD - VERSION 2.00
WRAP .                  YES:  Multiple lines per depth step
~Well Information Block
#MNEM.UNIT        Data Type   Information
#---------- ----------------  -----------
STRT .F              2673.5:  START DEPTH
STOP .F                7526:  STOP DEPTH
STEP .F                 0.5:  STEP
NULL .              -999.25:  NULL VALUE
COMP .     CONOCO (UK) LTD.:  COMPANY
WELL .              15/19-9:  WELL
FLD  .          EXPLORATION:  FIELD
LOC  .     58 DEG 25 MIN 41.048 SEC N:  LOCATION
PROV .                 UKCS:  PROVINCE
SRVC .                ATLAS:  SERVICE COMPANY
DATE .     15-08-98 TO 09-09-98:  LOG DATE
UWI  .                27553:  UNIQUE WELL ID
~Curve Information Block
#MNEM.UNIT         API CODE   Curve Description
#---------- ----------------  -----------------
DEPTH.F                    :  Depth in Feet
CAL  .IN                   :  Edited Caliper from ZDL/CN/SL
CNC  .%            42995991:  Edited Neutron Porosity from ZDL/CN/SL
GR   .GAPI                 :  Edited Gamma Ray from ZDL/CN/SL
GRAM .API          99995991:  Edited Gamma Ray from MWD: MPR
K    .%            31719991:  Edited Potassium from ZDL/CN/SL
KTH  .GAPI         31995991:  Edited Potassium plus Thorium from ZDL/CN/SL
PE   .B/E                  :  Edited Photo-electric from ZDL/CN/SL
RACH .OHMM                 :  Edited Resistivity (AT) 2MHz BHC from MWD: MPR
RACL .OHMM                 :  Edited Resistivity (AT) 400kHz BHC from MWD: MPR
RASH .OHMM                 :  Edited Resistivity (AT) 2MHz BHC from MWD: MPR
RASL .OHMM                 :  Edited Resistivity (AT) 400kHz BHC from MWD: MPR
RPCH .OHMM                 :  Edited Resistivity (PD) 2MHz BHC from MWD: MPR
RPCL .OHMM                 :  Edited Resistivity (PD) 400kHz BHC from MWD: MPR
RPSH .OHMM                 :  Edited Resistivity (PD) 2MHz BHC from MWD: MPR
RPSL .OHMM                 :  Edited Resistivity (PD) 400kHz BHC from MWD: MPR
TH   .PPM          31790991:  Edited Thorium from ZDL/CN/SL
U    .PPM          31792991:  Edited Uranium from ZDL/CN/SL
ZCOR .G/C3                 :  Edited ZDL Density Correction from ZDL/CN/SL
ZDEN .G/C3                 :  Edited ZDL Bulk Density from ZDL/CN/SL
~Parameter Information Block
#MNEM.UNIT            Value   Description
#---------- ----------------  -----------
SET  .        COMP_WIRE_MWD:  
PROJECT.             90TH_I_1:  
API  .                     :  
COUN .            NORTH SEA:  
DATU .                  MSL:  
DMF  .                   DF:  
TDD  .F                7560:  
EDF  .F                  75:  
EKB  .F                  75:  
EPD  .F                   0:  
FN   .          EXPLORATION:  
LATI .       58 25'41.048"N:  
LCC  .                  150:  
LONG .       00 36'17.360"E:  
LMF  .                   DF:  
ORDU .                 FEET:  Units Of Measurement
PDAT .                  MSL:  Permanent Datum
RIG_NAME.            DRILLSTAR:  
SURF .F                -490:   
~Other Information Block
~Ascii Log Data
# ...
      6899.0000 
       16.3418        52.9637        77.0316       106.2833         3.7033 
       76.4013         7.7057         0.7590         0.7880         0.7470 
        0.7730         0.7750         0.7730         0.7670         0.7570 
        7.8909         0.0299         0.0933         2.2375 
      6899.5000 
       16.4259        52.6221        77.7012       106.4795         3.7123 
       76.9315         8.4497         0.7570         0.7830         0.7470 
        0.7720         0.8140         0.7860         0.7940         0.7680 
        7.6182         0.0500         0.0886         2.2466 
      6900.0000 
       16.5551        52.4941        77.7134       105.8593         3.6988 
       76.8197         9.6286         0.7640         0.7840         0.7490 
        0.7740         0.8100         0.7820         0.7810         0.7580 
        7.3625         0.0690         0.0908         2.2474 
      6900.5000 
       16.6462        52.3171        77.1841       105.8895         3.6821 
       76.2270        10.5396         0.7630         0.7830         0.7370 
        0.7770         0.7510         0.7660         0.7250         0.7370 
        7.0892         0.0791         0.0930         2.2423 
      6901.0000 
       16.6612        52.3323        76.0465       105.1179         3.6794 
       75.1118        10.8485         0.7630         0.7830         0.7380 
        0.7800         0.7490         0.7680         0.7230         0.7410 
        6.7578         0.0781         0.0932         2.2376 
      6901.5000 
       16.5967        52.6184        74.9068       104.2548         3.6975 
       74.0394        10.3358         0.7620         0.7830         0.7430 
        0.7820         0.7530         0.7720         0.7330         0.7490 
        6.4417         0.0711         0.0938         2.2345 
      6902.0000 
       16.4821        52.3422        74.2957       104.3781         3.7389 
       73.5205         9.0742         0.7690         0.7820         0.7540 
        0.7830         0.7610         0.7790         0.7480         0.7600 
        6.2312         0.0581         0.0908         2.2331 
      6902.5000 
       16.3261        50.7303        74.0121       104.5730         3.7937 
       73.3521         7.7650         0.7820         0.7830         0.7660 
        0.7850         0.7850         0.7970         0.7720         0.7760 
        6.1046         0.0408         0.0825         2.2340 
      6903.0000 
       16.1543        48.4086        74.6531       105.2346         3.8580 
       74.0587         6.9587         0.8040         0.7840         0.7880 
        0.7860         0.8370         0.8320         0.8210         0.8060 
        6.0352         0.0298         0.0772         2.2358 
      6903.5000 
       16.0767        46.7430        76.8861       107.9896         3.9206 
       76.2196         6.7707         0.8240         0.7790         0.8090 
        0.7830         0.9030         0.8500         0.8750         0.8240 
        6.0542         0.0355         0.0766         2.2467 
      6904.0000 
       16.1786        46.0948        79.4853       110.1983         3.9464 
       78.6270         6.9608         0.8200         0.7770         0.8060 
        0.7810         0.8670         0.8250         0.8430         0.8020 
        6.1645         0.0572         0.0750         2.2637 
      6904.5000 
       16.3785        45.9690        80.9522       112.0277         3.9268 
       79.8834         7.3803         0.7850         0.7730         0.7700 
        0.7770         0.7780         0.7810         0.7570         0.7580 
        6.2991         0.0863         0.0781         2.2776 
      6905.0000 
       16.5728        46.4062        81.4348       114.8419         3.8826 
       80.2132         8.2189         0.7530         0.7710         0.7400 
        0.7710         0.7240         0.7530         0.7090         0.7310 
        6.4509         0.1096         0.0883         2.2674 
      6905.5000 
       16.7181        47.9733        81.1254       114.1018         3.8285 
       79.8313         8.9588         0.7360         0.7680         0.7220 
        0.7670         0.7030         0.7390         0.6910         0.7180 
        6.6678         0.1207         0.0972         2.2435 
      6906.0000 
       16.8047        50.3394        79.7759       113.3872         3.7605 
       78.5456         9.1812         0.7290         0.7650         0.7150 
        0.7640         0.7030         0.7390         0.6950         0.7190 
        7.0952         0.1134         0.1009         2.2261 
      6906.5000 
       16.7996        52.6171        78.2804       113.0026         3.7037 
       77.2189         9.1837         0.7310         0.7630         0.7140 
        0.7610         0.7360         0.7530         0.7260         0.7320 
        7.5734         0.0912         0.1068         2.2197 
      6907.0000 
       16.6638        54.0461        77.6180       111.5402         3.6838 
       76.7109         9.1507         0.7360         0.7620         0.7170 
        0.7600         0.7560         0.7630         0.7420         0.7400 
        7.8169         0.0711         0.1118         2.2190 
      6907.5000 
       16.4527        53.7291        77.6322       109.8460         3.6823 
       76.8187         9.6799         0.7540         0.7610         0.7350 
        0.7580         0.8100         0.7940         0.7970         0.7700 
        7.8856         0.0586         0.1098         2.2207 
      6908.0000 
       16.3396        53.1920        78.0345       108.7744         3.6790 
       77.1497        10.4411         0.7690         0.7600         0.7480 
        0.7580         0.8370         0.8060         0.8170         0.7790 
        7.7850         0.0670         0.1012         2.2113 
      6908.5000 
       16.3892        54.4385        78.3807       105.6635         3.6704 
       77.2090        10.8473         0.7700         0.7590         0.7570 
        0.7590         0.8210         0.7940         0.8000         0.7720 
        7.4728         0.1051         0.0947         2.2007 
      6909.0000 
       16.4573        55.7687        77.9082       105.0345         3.6626 
       76.4188        10.8789         0.7610         0.7570         0.7540 
        0.7600         0.7780         0.7760         0.7630         0.7570 
        7.0807         0.1504         0.0973         2.2008 
      6909.5000 
       16.4423        54.6641        77.2911       104.3538         3.6665 
       75.6003        10.6127         0.7520         0.7580         0.7440 
        0.7620         0.7530         0.7650         0.7390         0.7470 
        6.7638         0.1806         0.1040         2.2094 
      6910.0000 
       16.4169        52.5396        77.7916       103.6034         3.6952 
       76.0743         9.7300         0.7560         0.7590         0.7440 
        0.7640         0.7500         0.7680         0.7370         0.7480 
        6.5763         0.1837         0.1084         2.2178 
      6910.5000 
       16.4925        51.8562        78.7954       103.5690         3.7467 
       77.2387         8.7599         0.7680         0.7600         0.7490 
        0.7650         0.7830         0.7850         0.7620         0.7610 
        6.5188         0.1595         0.1074         2.2270 
      6911.0000 
       16.6111        52.1298        79.0678       103.3100         3.8027 
       77.7870         8.6435         0.7710         0.7610         0.7500 
        0.7640         0.7990         0.7940         0.7740         0.7660 
        6.5149         0.1204         0.0984         2.2363 
      6911.5000 
       16.6795        53.8720        78.7687       103.4370         3.8399 
       77.7699         8.9262         0.7700         0.7610         0.7500 
        0.7640         0.7860         0.7890         0.7610         0.7610 
        6.5354         0.0814         0.0863         2.2399 
      6912.0000 
       16.7334        56.2266        78.1131       104.9295         3.8288 
       77.2251         8.9113         0.7680         0.7600         0.7490 
        0.7630         0.7690         0.7810         0.7480         0.7550 
        6.5657         0.0673         0.0830         2.2369 
