~Version Information Block
VERS .                 2.00:  CWLS LOG ASCII STANDARD - VERSION 2.00
WRAP .                  YES:  Multiple lines per depth step
~Well Information Block
#MNEM.UNIT        Data Type   Information
#---------- ----------------  -----------
STRT .F              2673.5:  START DEPTH
STOP .F                7526:  STOP DEPTH
STEP .F                 0.5:  STEP
NULL .              -999.25:  NULL VALUE
COMP .     CONOCO (UK) LTD.:  COMPANY
WELL .              15/19-9:  WELL
FLD  .          EXPLORATION:  FIELD
LOC  .     58 DEG 25 MIN 41.048 SEC N:  LOCATION
PROV .                 UKCS:  PROVINCE
SRVC .                ATLAS:  SERVICE COMPANY
DATE .     15-08-98 TO 09-09-98:  LOG DATE
UWI  .                27553:  UNIQUE WELL ID
~Curve Information Block
#MNEM.UNIT         API CODE   Curve Description
#---------- ----------------  -----------------
DEPTH.F                    :  Depth in Feet
CAL  .IN                   :  Edited Caliper from ZDL/CN/SL
CNC  .%            42995991:  Edited Neutron Porosity from ZDL/CN/SL
GR   .GAPI                 :  Edited Gamma Ray from ZDL/CN/SL
GRAM .API          99995991:  Edited Gamma Ray from MWD: MPR
K    .%            31719991:  Edited Potassium from ZDL/CN/SL
KTH  .GAPI         31995991:  Edited Potassium plus Thorium from ZDL/CN/SL
PE   .B/E                  :  Edited Photo-electric from ZDL/CN/SL
RACH .OHMM                 :  Edited Resistivity (AT) 2MHz BHC from MWD: MPR
RACL .OHMM                 :  Edited Resistivity (AT) 400kHz BHC from MWD: MPR
RASH .OHMM                 :  Edited Resistivity (AT) 2MHz BHC from MWD: MPR
RASL .OHMM                 :  Edited Resistivity (AT) 400kHz BHC from MWD: MPR
RPCH .OHMM                 :  Edited Resistivity (PD) 2MHz BHC from MWD: MPR
RPCL .OHMM                 :  Edited Resistivity (PD) 400kHz BHC from MWD: MPR
RPSH .OHMM                 :  Edited Resistivity (PD) 2MHz BHC from MWD: MPR
RPSL .OHMM                 :  Edited Resistivity (PD) 400kHz BHC from MWD: MPR
TH   .PPM          31790991:  Edited Thorium from ZDL/CN/SL
U    .PPM          31792991:  Edited Uranium from ZDL/CN/SL
ZCOR .G/C3                 :  Edited ZDL Density Correction from ZDL/CN/SL
ZDEN .G/C3                 :  Edited ZDL Bulk Density from ZDL/CN/SL
~Parameter Information Block
#MNEM.UNIT            Value   Description
#---------- ----------------  -----------
SET  .        COMP_WIRE_MWD:  
PROJECT.             90TH_I_1:  
API  .                     :  
COUN .            NORTH SEA:  
DATU .                  MSL:  
DMF  .                   DF:  
TDD  .F                7560:  
EDF  .F                  75:  
EKB  .F                  75:  
EPD  .F                   0:  
FN   .          EXPLORATION:  
LATI .       58 25'41.048"N:  
LCC  .                  150:  
LONG .       00 36'17.360"E:  
LMF  .                   DF:  
ORDU .                 FEET:  Units Of Measurement
PDAT .                  MSL:  Permanent Datum
RIG_NAME.            DRILLSTAR:  
SURF .F                -490:   
~Other Information Block
~Ascii Log Data
# ...
      7007.0000 
       13.8290        35.6401        82.9945       110.3638         4.0623 
       82.6484         8.5347         1.4950         1.5550         1.4360 
        1.5640         1.3490         1.4920         1.3080         1.4200 
        7.7565         0.0215         0.3289         2.4528 
      7007.5000 
       13.7444        37.4430        82.4920       110.7177         4.0609 
       82.3889         8.3787         1.5950         1.6310         1.5180 
        1.6570         1.5140         1.6350         1.4490         1.5560 
        7.5841         0.0239      -999.2500         2.4178 
      7008.0000 
       13.8925        36.3820        80.1836       108.5462         4.0599 
       81.8640      -999.2500         1.7640         1.7050         1.6730 
        1.7490         1.7030         1.7700         1.6220         1.6930 
        7.3352         0.0274      -999.2500      -999.2500 
      7008.5000 
       14.0410      -999.2500        75.8806       104.5053         4.0190 
       79.4891      -999.2500         1.9000         1.7720         1.8450 
        1.8440         2.0640         1.9720         1.9430         1.9150 
        6.9050         0.0264         0.1209      -999.2500 
      7009.0000 
       14.0655      -999.2500        71.7636        98.3398      -999.2500 
     -999.2500      -999.2500         1.9190         1.8030         1.8840 
        1.8950         2.4470         2.1590         2.3420         2.1510 
     -999.2500      -999.2500         0.1952      -999.2500 
      7009.5000 
       13.8786      -999.2500        69.0735        93.9367      -999.2500 
     -999.2500      -999.2500         1.9910         1.8550         1.9980 
        1.9640         3.0010         2.3910         2.8650         2.4140 
     -999.2500      -999.2500         0.3580      -999.2500 
      7010.0000 
       13.5107      -999.2500        67.4049        93.1210         3.7306 
       67.0334      -999.2500         2.0950         1.8950         2.1100 
        2.0200         3.2470         2.5030         3.0500         2.5330 
        5.2789         0.0019         0.4169      -999.2500 
      7010.5000 
       13.2004        22.7885        68.4661        94.9780         3.7154 
       67.9492      -999.2500         2.2560         1.9420         2.2620 
        2.0850         3.2740         2.5670         3.0640         2.5980 
        5.2433         0.0211      -999.2500      -999.2500 
      7011.0000 
       13.0965        23.6102        73.5030        98.7294         3.6849 
       71.6414      -999.2500         1.9620         2.0320         1.8040 
        2.0370         1.6640         1.8520         1.5800         1.7270 
        5.4064         0.2105      -999.2500      -999.2500 
      7011.5000 
       13.0837        25.2472        79.0523       102.5526         3.6335 
       75.1796      -999.2500         1.9090         2.0360         1.7280 
        2.0000         1.4860         1.7710         1.3950         1.6120 
        5.6414         0.4746      -999.2500      -999.2500 
      7012.0000 
       13.0627        27.8532        81.6777       104.7676      -999.2500 
     -999.2500      -999.2500         1.8820         2.0210         1.6510 
        1.9790         1.4830         1.7310         1.3870         1.5890 
     -999.2500      -999.2500         0.1024      -999.2500 
      7012.5000 
       13.0395        30.5558        82.5833       107.1220      -999.2500 
     -999.2500      -999.2500         1.8350         2.0150         1.5740 
        1.9540         1.4630         1.7360         1.4010         1.5760 
     -999.2500      -999.2500         0.1240      -999.2500 
      7013.0000 
       13.0045        32.6270        83.4112       110.3494      -999.2500 
     -999.2500        10.2059         1.8110         2.0110         1.5600 
        1.9400         1.5530         1.7480         1.4220         1.6180 
     -999.2500      -999.2500         0.1785         2.4060 
      7013.5000 
       12.9147        34.7145        82.5000       111.1873         3.7686 
       79.0822        10.2085         1.8460         2.0300         1.5860 
        1.9630         1.6020         1.8310         1.4630         1.6820 
        5.5446         0.5092         0.1797         2.3720 
      7014.0000 
       12.7853        34.7987        78.8976       110.1212         3.8484 
       77.6482        10.1381         1.9190         2.0570         1.6570 
        1.9990         1.6920         1.8800         1.4970         1.7220 
        5.4157         0.3722      -999.2500         2.3943 
      7014.5000 
       12.6588        34.4597        76.1289       106.9214         3.8818 
       75.1393        10.1045         2.0430         2.0900         1.6810 
        2.0330         1.6890         1.8250         1.4890         1.6930 
        5.4111         0.2161      -999.2500         2.3769 
      7015.0000 
       12.5517        34.1421        76.2705       103.8413         3.8345 
       74.3091      -999.2500         1.9800         2.0900         1.6200 
        2.0290         1.5400         1.7760         1.3910         1.6360 
        5.6510         0.1785         0.0689      -999.2500 
      7015.5000 
     -999.2500      -999.2500        77.8507       102.2308      -999.2500 
     -999.2500      -999.2500         1.9360         2.0890         1.5250 
        2.0310         1.5770         1.8040         1.4100         1.6460 
     -999.2500      -999.2500         0.1677      -999.2500 
      7016.0000 
     -999.2500      -999.2500        80.2640       104.4509      -999.2500 
     -999.2500      -999.2500         1.7850         2.1080         1.5000 
        2.0500         1.8720         2.0830         1.5910         1.8130 
     -999.2500      -999.2500         0.3393      -999.2500 
      7016.5000 
       12.4246        37.5468        83.0030       107.1756         3.8367 
       80.1577        10.1006         2.1080         2.1410         1.5970 
        2.2140         2.4760         2.2760         2.0060         2.1630 
        6.6850         0.2730         0.3489         2.4295 
      7017.0000 
       12.5712        40.7228        84.2660       107.5457         3.9159 
       81.8652        10.3357         2.4020         2.2330         2.1430 
        2.2810         2.5350         2.4420         2.2410         2.3100 
        6.5927         0.3118         0.1985         2.3369 
      7017.5000 
       12.9398        40.6020        80.7092       104.9466         3.9746 
       82.0331        10.4344         2.6860         2.2920         2.4430 
        2.3690         2.5710         2.6400         2.5960         2.4650 
        6.3385         0.3724      -999.2500         2.3048 
      7018.0000 
       13.3802        38.9855        74.7083       100.9769         3.9847 
       81.7359        10.5064         2.6960         2.2750         2.4590 
        2.4000         3.2340         2.8240         2.8390         2.6470 
        6.1301         0.4367      -999.2500         2.3705 
      7018.5000 
     -999.2500      -999.2500        75.0383        95.7158      -999.2500 
     -999.2500      -999.2500         2.6760         2.2750         2.4730 
        2.4410         4.1120         3.1720         3.4200         3.0150 
     -999.2500      -999.2500         0.1059      -999.2500 
      7019.0000 
     -999.2500      -999.2500        80.1855        94.0066      -999.2500 
     -999.2500      -999.2500         2.8420         2.3200         2.6460 
        2.5440         4.5950         3.3240         3.6520         3.1850 
     -999.2500      -999.2500         0.0987      -999.2500 
      7019.5000 
     -999.2500      -999.2500        80.7270        94.4832      -999.2500 
     -999.2500        10.6032         3.2630         2.3380         3.2260 
        2.5920         3.9160         3.2190         3.4910         3.1870 
     -999.2500      -999.2500         0.0988         2.3989 
      7020.0000 
       12.2535        32.0756        76.5741        95.8049         3.6867 
       74.9544        10.5715         3.4060         2.3260         3.4990 
        2.6060         3.6130         3.1340         3.3210         3.1580 
        6.5461         0.4719         0.1136         2.4187 
