~Version Information Block
VERS .                 2.00:  CWLS LOG ASCII STANDARD - VERSION 2.00
WRAP .                  YES:  Multiple lines per depth step
~Well Information Block
#MNEM.UNIT        Data Type   Information
#---------- ----------------  -----------
STRT .F              2673.5:  START DEPTH
STOP .F                7526:  STOP DEPTH
STEP .F                 0.5:  STEP
NULL .              -999.25:  NULL VALUE
COMP .     CONOCO (UK) LTD.:  COMPANY
WELL .              15/19-9:  WELL
FLD  .          EXPLORATION:  FIELD
LOC  .     58 DEG 25 MIN 41.048 SEC N:  LOCATION
PROV .                 UKCS:  PROVINCE
SRVC .                ATLAS:  SERVICE COMPANY
DATE .     15-08-98 TO 09-09-98:  LOG DATE
UWI  .                27553:  UNIQUE WELL ID
~Curve Information Block
#MNEM.UNIT         API CODE   Curve Description
#---------- ----------------  -----------------
DEPTH.F                    :  Depth in Feet
CAL  .IN                   :  Edited Caliper from ZDL/CN/SL
CNC  .%            42995991:  Edited Neutron Porosity from ZDL/CN/SL
GR   .GAPI                 :  Edited Gamma Ray from ZDL/CN/SL
GRAM .API          99995991:  Edited Gamma Ray from MWD: MPR
K    .%            31719991:  Edited Potassium from ZDL/CN/SL
KTH  .GAPI         31995991:  Edited Potassium plus Thorium from ZDL/CN/SL
PE   .B/E                  :  Edited Photo-electric from ZDL/CN/SL
RACH .OHMM                 :  Edited Resistivity (AT) 2MHz BHC from MWD: MPR
RACL .OHMM                 :  Edited Resistivity (AT) 400kHz BHC from MWD: MPR
RASH .OHMM                 :  Edited Resistivity (AT) 2MHz BHC from MWD: MPR
RASL .OHMM                 :  Edited Resistivity (AT) 400kHz BHC from MWD: MPR
RPCH .OHMM                 :  Edited Resistivity (PD) 2MHz BHC from MWD: MPR
RPCL .OHMM                 :  Edited Resistivity (PD) 400kHz BHC from MWD: MPR
RPSH .OHMM                 :  Edited Resistivity (PD) 2MHz BHC from MWD: MPR
RPSL .OHMM                 :  Edited Resistivity (PD) 400kHz BHC from MWD: MPR
TH   .PPM          31790991:  Edited Thorium from ZDL/CN/SL
U    .PPM          31792991:  Edited Uranium from ZDL/CN/SL
ZCOR .G/C3                 :  Edited ZDL Density Correction from ZDL/CN/SL
ZDEN .G/C3                 :  Edited ZDL Bulk Density from ZDL/CN/SL
~Parameter Information Block
#MNEM.UNIT            Value   Description
#---------- ----------------  -----------
SET  .        COMP_WIRE_MWD:  
PROJECT.             90TH_I_1:  
API  .                     :  
COUN .            NORTH SEA:  
DATU .                  MSL:  
DMF  .                   DF:  
TDD  .F                7560:  
EDF  .F                  75:  
EKB  .F                  75:  
EPD  .F                   0:  
FN   .          EXPLORATION:  
LATI .       58 25'41.048"N:  
LCC  .                  150:  
LONG .       00 36'17.360"E:  
LMF  .                   DF:  
ORDU .                 FEET:  Units Of Measurement
PDAT .                  MSL:  Permanent Datum
RIG_NAME.            DRILLSTAR:  
SURF .F                -490:   
~Other Information Block
~Ascii Log Data
# ...
      6750.5000 
       16.0237        47.9030        79.5879       103.9468         3.5417 
       77.8801         7.4199         0.7380         0.7450         0.7270 
        0.7460         0.8440         0.7870         0.7920         0.7520 
        7.6903         0.1773         0.0829         2.2051 
      6751.0000 
       16.0596        48.2474        79.9451       101.3081         3.6115 
       78.5970         7.2996         0.7400         0.7470         0.7300 
        0.7480         0.8280         0.7820         0.7800         0.7490 
        7.8408         0.1287         0.0789         2.1889 
      6751.5000 
       16.1013        48.6954        80.6155       100.9139         3.6769 
       79.3768         7.0583         0.7410         0.7470         0.7290 
        0.7490         0.8120         0.7800         0.7710         0.7490 
        7.8184         0.1135         0.0707         2.1765 
      6752.0000 
       16.2616        48.9960        81.0643       101.3607         3.7087 
       79.6933         6.9157         0.7420         0.7490         0.7280 
        0.7500         0.8110         0.7810         0.7720         0.7490 
        7.6528         0.1323         0.0726         2.1797 
      6752.5000 
       16.4229        49.0958        81.0815       101.7742         3.7160 
       79.4987         7.8074         0.7420         0.7490         0.7280 
        0.7510         0.8100         0.7820         0.7710         0.7480 
        7.4067         0.1623         0.0796         2.1904 
      6753.0000 
       16.4435        49.3866        80.5526       102.9803         3.7035 
       78.7754         9.9397         0.7390         0.7500         0.7240 
        0.7510         0.8130         0.7860         0.7700         0.7490 
        7.1601         0.1892         0.0753         2.1907 
      6753.5000 
       16.4248        49.9232        78.6059       104.4165         3.6589 
       76.6588        11.9378         0.7470         0.7520         0.7310 
        0.7530         0.8110         0.7840         0.7620         0.7450 
        6.8437         0.2143         0.0644         2.1795 
      6754.0000 
       16.5400        52.0361        75.1556       104.3635         3.5720 
       73.0296        12.5244         0.7500         0.7520         0.7300 
        0.7500         0.7840         0.7760         0.7500         0.7400 
        6.2908         0.2446         0.0652         2.1689 
      6754.5000 
       16.8124        55.7757        72.1140       103.7700         3.5029 
       69.9973        11.8718         0.7420         0.7520         0.7220 
        0.7500         0.7830         0.7740         0.7480         0.7370 
        5.9165         0.2505         0.0778         2.1660 
      6755.0000 
       17.2400        60.0217        71.2564       102.9171         3.4972 
       69.3817        10.6743         0.7420         0.7510         0.7190 
        0.7470         0.7790         0.7730         0.7350         0.7300 
        5.9472         0.2187         0.0864         2.1678 
      6755.5000 
       17.6770        63.7427        71.9206       100.9863         3.5248 
       70.3788         9.5328         0.7290         0.7460         0.7080 
        0.7430         0.7780         0.7610         0.7360         0.7260 
        6.0305         0.1685         0.0779         2.1659 
      6756.0000 
       17.8072        66.2316        72.5787        98.6748         3.5724 
       71.3473         8.9257         0.7180         0.7430         0.6980 
        0.7410         0.7770         0.7570         0.7380         0.7240 
        6.0503         0.1211         0.0604         2.1612 
      6756.5000 
       17.6629        67.5054        73.0935        99.3758         3.6224 
       72.0292         8.9065         0.7180         0.7430         0.6990 
        0.7410         0.7830         0.7590         0.7390         0.7230 
        5.9764         0.0944         0.0545         2.1666 
      6757.0000 
       17.4388        67.9583        72.8699       103.1550         3.6450 
       71.6169         9.1830         0.7210         0.7430         0.7030 
        0.7410         0.7850         0.7590         0.7350         0.7220 
        5.7080         0.1224         0.0651         2.1841 
      6757.5000 
       17.5765        68.1020        71.6709       106.2271         3.6088 
       69.6056         9.4787         0.7220         0.7420         0.7050 
        0.7410         0.7800         0.7580         0.7370         0.7250 
        5.2199         0.2458         0.0740         2.1937 
      6758.0000 
       18.6043        67.6402        71.0425       106.6568         3.5281 
       67.8476         9.6748         0.7230         0.7410         0.7060 
        0.7400         0.7830         0.7630         0.7490         0.7320 
        4.8190         0.4092         0.0713         2.1833 
      6758.5000 
       20.0660        66.7286        71.5146       106.1511         3.4619 
       67.4860         9.6822         0.7190         0.7400         0.7060 
        0.7420         0.7980         0.7680         0.7660         0.7390 
        4.6847         0.5202         0.0627         2.1656 
      6759.0000 
       20.8562        66.5946        72.0413       104.9820         3.4438 
       67.6955         9.8052         0.7190         0.7390         0.7070 
        0.7410         0.8190         0.7770         0.7760         0.7450 
        4.7290         0.5613         0.0555         2.1498 
      6759.5000 
       20.8611        66.3197        72.9427       104.8808         3.5212 
       68.9478        10.1339         0.7240         0.7360         0.7120 
        0.7410         0.8460         0.7840         0.7920         0.7500 
        4.9376         0.5153         0.0174         2.1070 
      6760.0000 
       20.5634        65.1047        74.8725       106.7023         3.6808 
       71.8054        10.3270         0.7280         0.7350         0.7180 
        0.7430         0.8340         0.7790         0.7840         0.7470 
        5.2448         0.3849        -0.0717         2.0325 
      6760.5000 
       19.8320        64.3584        77.1812       110.0018         3.8463 
       75.1306        10.2274         0.7320         0.7340         0.7210 
        0.7420         0.8170         0.7730         0.7720         0.7430 
        5.5706         0.2388        -0.1013         2.0113 
      6761.0000 
       18.7836        62.7017        79.0626       113.3793         3.9393 
       77.5898         9.7550         0.7330         0.7320         0.7190 
        0.7400         0.8070         0.7730         0.7630         0.7420 
        5.8872         0.1509        -0.0157         2.0821 
      6761.5000 
       18.0078        60.4313        79.5039       116.9622         3.9287 
       78.1145         9.1893         0.7290         0.7260         0.7140 
        0.7350         0.8040         0.7710         0.7560         0.7410 
        6.2213         0.1344         0.0715         2.1627 
      6762.0000 
       18.0165        59.8293        78.8031       118.4943         3.8528 
       77.3191         9.3551         0.7280         0.7230         0.7150 
        0.7320         0.8090         0.7700         0.7610         0.7420 
        6.6236         0.1498         0.0906         2.1930 
      6762.5000 
       18.7135        59.8883        78.5779       118.1417         3.7353 
       76.8538        11.0433         0.7320         0.7190         0.7180 
        0.7280         0.8090         0.7680         0.7620         0.7420 
        7.0051         0.1870         0.0912         2.1959 
      6763.0000 
       19.4781        60.2432        79.0382       113.7391         3.6280 
       77.0708        13.1383         0.7320         0.7110         0.7210 
        0.7210         0.8150         0.7660         0.7680         0.7420 
        7.2984         0.2198         0.0853         2.1872 
      6763.5000 
       19.5093        59.8681        78.9033       109.4109         3.5686 
       76.9299        13.6048         0.7350         0.7060         0.7230 
        0.7170         0.8130         0.7640         0.7740         0.7430 
        7.5260         0.2202         0.0766         2.1695 
