~Version Information Block
VERS .                 2.00:  CWLS LOG ASCII STANDARD - VERSION 2.00
WRAP .                  YES:  Multiple lines per depth step
~Well Information Block
#MNEM.UNIT        Data Type   Information
#---------- ----------------  -----------
STRT .F              2673.5:  START DEPTH
STOP .F                7526:  STOP DEPTH
STEP .F                 0.5:  STEP
NULL .              -999.25:  NULL VALUE
COMP .     CONOCO (UK) LTD.:  COMPANY
WELL .              15/19-9:  WELL
FLD  .          EXPLORATION:  FIELD
LOC  .     58 DEG 25 MIN 41.048 SEC N:  LOCATION
PROV .                 UKCS:  PROVINCE
SRVC .                ATLAS:  SERVICE COMPANY
DATE .     15-08-98 TO 09-09-98:  LOG DATE
UWI  .                27553:  UNIQUE WELL ID
~Curve Information Block
#MNEM.UNIT         API CODE   Curve Description
#---------- ----------------  -----------------
DEPTH.F                    :  Depth in Feet
CAL  .IN                   :  Edited Caliper from ZDL/CN/SL
CNC  .%            42995991:  Edited Neutron Porosity from ZDL/CN/SL
GR   .GAPI                 :  Edited Gamma Ray from ZDL/CN/SL
GRAM .API          99995991:  Edited Gamma Ray from MWD: MPR
K    .%            31719991:  Edited Potassium from ZDL/CN/SL
KTH  .GAPI         31995991:  Edited Potassium plus Thorium from ZDL/CN/SL
PE   .B/E                  :  Edited Photo-electric from ZDL/CN/SL
RACH .OHMM                 :  Edited Resistivity (AT) 2MHz BHC from MWD: MPR
RACL .OHMM                 :  Edited Resistivity (AT) 400kHz BHC from MWD: MPR
RASH .OHMM                 :  Edited Resistivity (AT) 2MHz BHC from MWD: MPR
RASL .OHMM                 :  Edited Resistivity (AT) 400kHz BHC from MWD: MPR
RPCH .OHMM                 :  Edited Resistivity (PD) 2MHz BHC from MWD: MPR
RPCL .OHMM                 :  Edited Resistivity (PD) 400kHz BHC from MWD: MPR
RPSH .OHMM                 :  Edited Resistivity (PD) 2MHz BHC from MWD: MPR
RPSL .OHMM                 :  Edited Resistivity (PD) 400kHz BHC from MWD: MPR
TH   .PPM          31790991:  Edited Thorium from ZDL/CN/SL
U    .PPM          31792991:  Edited Uranium from ZDL/CN/SL
ZCOR .G/C3                 :  Edited ZDL Density Correction from ZDL/CN/SL
ZDEN .G/C3                 :  Edited ZDL Bulk Density from ZDL/CN/SL
~Parameter Information Block
#MNEM.UNIT            Value   Description
#---------- ----------------  -----------
SET  .        COMP_WIRE_MWD:  
PROJECT.             90TH_I_1:  
API  .                     :  
COUN .            NORTH SEA:  
DATU .                  MSL:  
DMF  .                   DF:  
TDD  .F                7560:  
EDF  .F                  75:  
EKB  .F                  75:  
EPD  .F                   0:  
FN   .          EXPLORATION:  
LATI .       58 25'41.048"N:  
LCC  .                  150:  
LONG .       00 36'17.360"E:  
LMF  .                   DF:  
ORDU .                 FEET:  Units Of Measurement
PDAT .                  MSL:  Permanent Datum
RIG_NAME.            DRILLSTAR:  
SURF .F                -490:   
~Other Information Block
~Ascii Log Data
# ...
      7263.5000 
       12.2150        29.6635        48.6007        78.1299         3.3113 
       48.2399         4.4899         0.5970         0.5010         0.5590 
        0.5120         0.7310         0.6480         0.5370         0.5460 
        2.5492         0.0003        -0.0128         2.2074 
      7264.0000 
       12.2027        30.6776        47.7552        79.3964         3.2396 
       47.3751         4.2424         0.5840         0.4890         0.5460 
        0.4980         0.6910         0.6250         0.5230         0.5300 
        2.6572         0.0000        -0.0111         2.2012 
      7264.5000 
       12.2008        30.2077        48.1283        79.9204         3.1640 
       47.7573         4.3297         0.5630         0.4800         0.5170 
        0.4840         0.6510         0.5890         0.4970         0.5030 
        2.5917         0.0000        -0.0019         2.1931 
      7265.0000 
       12.2082        28.8599        48.3831        80.4696         3.1185 
       48.0210         4.6509         0.4920         0.4640         0.4610 
        0.4650         0.5430         0.5230         0.4300         0.4550 
        2.4111         0.0000         0.0040         2.1836 
      7265.5000 
       12.2172        27.8179        47.7765        80.5458         3.1242 
       47.4083         4.9920         0.4630         0.4560         0.4390 
        0.4550         0.5110         0.4970         0.4140         0.4380 
        2.1533         0.0000         0.0027         2.1776 
      7266.0000 
       12.2198        26.9977        47.0757        79.4388         3.1510 
       46.7165         5.2706         0.4320         0.4420         0.4170 
        0.4390         0.4580         0.4500         0.3900         0.4090 
        1.9082         0.0001         0.0010         2.1801 
      7266.5000 
       12.2189        27.1509        46.9254        78.5663         3.1753 
       46.5764         5.4648         0.4310         0.4390         0.4110 
        0.4330         0.4370         0.4340         0.3830         0.4010 
        1.7033         0.0011         0.0028         2.1891 
      7267.0000 
       12.2214        27.7276        47.0279        78.1553         3.2038 
       46.6631         5.4719         0.4450         0.4460         0.4200 
        0.4380         0.4490         0.4490         0.3980         0.4140 
        1.5240         0.0023         0.0055         2.1982 
      7267.5000 
       12.2253        27.5448        47.4227        77.8186         3.2296 
       47.0381         5.2083         0.4700         0.4590         0.4470 
        0.4490         0.4940         0.4820         0.4340         0.4410 
        1.4241         0.0026         0.0084         2.2050 
      7268.0000 
       12.2246        27.3194        47.9905        77.9064         3.2278 
       47.6030         4.7904         0.5060         0.4740         0.4810 
        0.4640         0.5200         0.5050         0.4500         0.4600 
        1.3728         0.0028         0.0129         2.2114 
      7268.5000 
       12.2185        27.4101        48.2563        78.2560         3.2157 
       47.8658         4.4599         0.5320         0.4940         0.4970 
        0.4800         0.4930         0.5050         0.4230         0.4560 
        1.3718         0.0028         0.0191         2.2196 
      7269.0000 
       12.2111        27.4063        48.1698        77.9676         3.2219 
       47.7823         4.2991         0.5240         0.5090         0.4780 
        0.4880         0.4330         0.4830         0.3890         0.4360 
        1.4821         0.0021         0.0240         2.2263 
      7269.5000 
       12.2062        27.0397        48.4017        77.8066         3.2285 
       48.0290         4.1949         0.4730         0.5110         0.4350 
        0.4800         0.4000         0.4560         0.3780         0.4200 
        1.6685         0.0008         0.0234         2.2230 
      7270.0000 
       12.2051        26.6412        48.7042        77.5285         3.2187 
       48.3422         4.1253         0.4320         0.5040         0.4110 
        0.4660         0.4090         0.4390         0.3860         0.4060 
        1.8240         0.0000         0.0148         2.2070 
      7270.5000 
       12.2077        26.7069        48.3967        77.6000         3.2052 
       48.0318         4.2257         0.4170         0.4950         0.3990 
        0.4510         0.4110         0.4220         0.3800         0.3890 
        1.9047         0.0000         0.0030         2.1889 
      7271.0000 
       12.2103        27.0197        47.5304        78.2853         3.1951 
       47.1629         4.5115         0.4110         0.4840         0.3870 
        0.4300         0.3960         0.3980         0.3640         0.3680 
        1.9204         0.0000        -0.0029         2.1813 
      7271.5000 
       12.2106        27.0452        46.8122        78.8278         3.1690 
       46.4459         4.7944         0.3960         0.4750         0.3650 
        0.4070         0.3610         0.3720         0.3500         0.3480 
        1.8142         0.0016        -0.0007         2.1843 
      7272.0000 
       12.2076        26.8425        46.3652        78.9827         3.1257 
       45.9674         4.9051         0.3710         0.4700         0.3480 
        0.3950         0.3360         0.3580         0.3470         0.3370 
        1.6189         0.0106         0.0043         2.1885 
      7272.5000 
       12.2068        26.5887        45.9928        78.6216         3.0730 
       45.5031         4.8609         0.3610         0.4660         0.3420 
        0.3900         0.3360         0.3540         0.3500         0.3340 
        1.4599         0.0292         0.0066         2.1883 
      7273.0000 
       12.2132        26.2439        45.9937        78.6083         3.0077 
       45.3578         4.7532         0.3640         0.4690         0.3430 
        0.3960         0.3480         0.3560         0.3500         0.3360 
        1.4261         0.0511         0.0084         2.1877 
      7273.5000 
       12.2201        25.8069        46.5780        78.8027         2.9344 
       45.7936         4.6622         0.3700         0.4800         0.3500 
        0.4120         0.3570         0.3610         0.3520         0.3450 
        1.5332         0.0702         0.0121         2.1956 
      7274.0000 
       12.2185        24.9252        46.9612        79.5856         2.8879 
       46.1290         4.6895         0.3790         0.5070         0.3670 
        0.4410         0.3600         0.3740         0.3610         0.3620 
        1.8052         0.0784         0.0234         2.2274 
      7274.5000 
       12.2120        25.3810        46.9754        80.4954         2.8804 
       46.1845         4.9490         0.3990         0.5420         0.3900 
        0.4740         0.3570         0.3960         0.3680         0.3850 
        2.2237         0.0768         0.0472         2.2870 
      7275.0000 
       12.2099        27.5705        47.6795        80.8565         2.9061 
       46.9687         5.5088         0.4760         0.5940         0.4720 
        0.5400         0.3940         0.4710         0.4180         0.4620 
        2.7453         0.0648         0.0642         2.3444 
      7275.5000 
       12.2127        28.7742        50.1901        81.5006         2.9856 
       49.6081         6.5002         0.6390         0.6430         0.6560 
        0.6230         0.7380         0.7240         0.7650         0.6910 
        3.4575         0.0387         0.0478         2.3700 
      7276.0000 
       12.2152        27.2927        55.0165        84.3630         3.1629 
       54.5364         8.2530         0.8800         0.7060         0.8930 
        0.7220         1.5380         1.0460         1.4320         1.0290 
        4.5338         0.0132         0.0192         2.3806 
      7276.5000 
       12.2300        24.9168        62.4308        89.4400         3.4746 
       61.9282        10.2873         0.9990         0.7550         1.0420 
        0.7900         1.8890         1.2180         1.7730         1.2120 
        5.7476         0.0015         0.0161         2.4023 
