~Version Information Block
VERS .                 2.00:  CWLS LOG ASCII STANDARD - VERSION 2.00
WRAP .                  YES:  Multiple lines per depth step
~Well Information Block
#MNEM.UNIT        Data Type   Information
#---------- ----------------  -----------
STRT .F              2673.5:  START DEPTH
STOP .F                7526:  STOP DEPTH
STEP .F                 0.5:  STEP
NULL .              -999.25:  NULL VALUE
COMP .     CONOCO (UK) LTD.:  COMPANY
WELL .              15/19-9:  WELL
FLD  .          EXPLORATION:  FIELD
LOC  .     58 DEG 25 MIN 41.048 SEC N:  LOCATION
PROV .                 UKCS:  PROVINCE
SRVC .                ATLAS:  SERVICE COMPANY
DATE .     15-08-98 TO 09-09-98:  LOG DATE
UWI  .                27553:  UNIQUE WELL ID
~Curve Information Block
#MNEM.UNIT         API CODE   Curve Description
#---------- ----------------  -----------------
DEPTH.F                    :  Depth in Feet
CAL  .IN                   :  Edited Caliper from ZDL/CN/SL
CNC  .%            42995991:  Edited Neutron Porosity from ZDL/CN/SL
GR   .GAPI                 :  Edited Gamma Ray from ZDL/CN/SL
GRAM .API          99995991:  Edited Gamma Ray from MWD: MPR
K    .%            31719991:  Edited Potassium from ZDL/CN/SL
KTH  .GAPI         31995991:  Edited Potassium plus Thorium from ZDL/CN/SL
PE   .B/E                  :  Edited Photo-electric from ZDL/CN/SL
RACH .OHMM                 :  Edited Resistivity (AT) 2MHz BHC from MWD: MPR
RACL .OHMM                 :  Edited Resistivity (AT) 400kHz BHC from MWD: MPR
RASH .OHMM                 :  Edited Resistivity (AT) 2MHz BHC from MWD: MPR
RASL .OHMM                 :  Edited Resistivity (AT) 400kHz BHC from MWD: MPR
RPCH .OHMM                 :  Edited Resistivity (PD) 2MHz BHC from MWD: MPR
RPCL .OHMM                 :  Edited Resistivity (PD) 400kHz BHC from MWD: MPR
RPSH .OHMM                 :  Edited Resistivity (PD) 2MHz BHC from MWD: MPR
RPSL .OHMM                 :  Edited Resistivity (PD) 400kHz BHC from MWD: MPR
TH   .PPM          31790991:  Edited Thorium from ZDL/CN/SL
U    .PPM          31792991:  Edited Uranium from ZDL/CN/SL
ZCOR .G/C3                 :  Edited ZDL Density Correction from ZDL/CN/SL
ZDEN .G/C3                 :  Edited ZDL Bulk Density from ZDL/CN/SL
~Parameter Information Block
#MNEM.UNIT            Value   Description
#---------- ----------------  -----------
SET  .        COMP_WIRE_MWD:  
PROJECT.             90TH_I_1:  
API  .                     :  
COUN .            NORTH SEA:  
DATU .                  MSL:  
DMF  .                   DF:  
TDD  .F                7560:  
EDF  .F                  75:  
EKB  .F                  75:  
EPD  .F                   0:  
FN   .          EXPLORATION:  
LATI .       58 25'41.048"N:  
LCC  .                  150:  
LONG .       00 36'17.360"E:  
LMF  .                   DF:  
ORDU .                 FEET:  Units Of Measurement
PDAT .                  MSL:  Permanent Datum
RIG_NAME.            DRILLSTAR:  
SURF .F                -490:   
~Other Information Block
~Ascii Log Data
# ...
      6953.0000 
       14.7795        46.7435        72.4451        98.0295         3.9724 
       71.7735         9.1538         0.8470         0.8510         0.8320 
        0.8560         0.8170         0.8510         0.8070         0.8260 
        7.3104         0.0430         0.0800         2.3320 
      6953.5000 
       14.9233        48.6603        71.4620        99.3884         3.9329 
       71.0084         8.5191         0.8430         0.8510         0.8300 
        0.8560         0.8100         0.8480         0.8030         0.8260 
        8.0795         0.0074         0.0387         2.3412 
      6954.0000 
       15.0643        49.1919        72.3618       100.2023         3.8568 
       71.9525         8.2322         0.8400         0.8520         0.8300 
        0.8600         0.8170         0.8510         0.8090         0.8310 
        8.3111         0.0001         0.0369         2.3090 
      6954.5000 
       15.0999        48.2554        73.6234        98.4512         3.7853 
       73.2104         8.2379         0.8450         0.8530         0.8370 
        0.8630         0.8480         0.8670         0.8300         0.8450 
        8.1647         0.0004         0.0669         2.2681 
      6955.0000 
       15.0055        45.3786        73.4527        95.9605         3.7637 
       73.0167         8.2262         0.8720         0.8560         0.8590 
        0.8640         0.8890         0.8900         0.8610         0.8630 
        7.7474         0.0032         0.0761         2.2403 
      6955.5000 
       14.8668        42.0914        73.3054        95.1432         3.7648 
       72.7515         8.1030         0.8880         0.8600         0.8680 
        0.8640         0.8920         0.8960         0.8610         0.8650 
        7.1577         0.0219         0.0734         2.2304 
      6956.0000 
       14.7459        40.1273        74.5526        93.6225         3.7541 
       73.7771         7.8763         0.8950         0.8600         0.8720 
        0.8640         0.8860         0.8940         0.8530         0.8570 
        6.5404         0.0557         0.0808         2.2451 
      6956.5000 
       14.5999        40.3280        75.7489        93.4421         3.7247 
       74.7525         7.5355         0.8900         0.8560         0.8630 
        0.8590         0.8570         0.8770         0.8240         0.8410 
        6.1470         0.0855         0.0927         2.2642 
      6957.0000 
       14.4428        41.8552        75.0910        93.1875         3.6575 
       73.7865         7.3010         0.8830         0.8550         0.8570 
        0.8580         0.8500         0.8700         0.8210         0.8350 
        5.9306         0.1256         0.0983         2.2704 
      6957.5000 
       14.3740        42.7370        73.2566        92.3745         3.5373 
       71.4388         7.1787         0.8470         0.8460         0.8290 
        0.8540         0.8300         0.8440         0.8010         0.8200 
        5.7185         0.1975         0.0988         2.2684 
      6958.0000 
       14.4037        42.2389        71.2348        91.4553         3.4156 
       68.8670         7.0980         0.8210         0.8420         0.8140 
        0.8520         0.8150         0.8290         0.7920         0.8120 
        5.4716         0.2783         0.1025         2.2694 
      6958.5000 
       14.4364        42.7726        69.5926        91.5625         3.3317 
       66.7733         7.1308         0.8130         0.8450         0.8070 
        0.8530         0.8110         0.8280         0.7910         0.8110 
        5.2131         0.3458         0.1092         2.2776 
      6959.0000 
       14.4644        44.3138        69.1315        93.6522         3.3068 
       66.1498         7.2776         0.8260         0.8540         0.8190 
        0.8610         0.7980         0.8350         0.7790         0.8130 
        5.0181         0.3702         0.1148         2.2877 
      6959.5000 
       14.5203        44.6014        69.5813        97.8169         3.3449 
       66.7737         7.4994         0.8800         0.8640         0.8640 
        0.8720         0.8190         0.8620         0.7990         0.8380 
        4.9103         0.3454         0.1167         2.2878 
      6960.0000 
       14.6038        45.4689        69.5816        99.9058         3.4255 
       67.1611         7.7880         0.9050         0.8670         0.8860 
        0.8780         0.8510         0.8830         0.8280         0.8570 
        4.8631         0.2925         0.1120         2.2786 
      6960.5000 
       14.6646        47.6152        69.3825        99.7704         3.5241 
       67.5181         8.2523         0.9200         0.8700         0.9020 
        0.8810         0.8790         0.9020         0.8570         0.8850 
        4.9029         0.2176         0.1028         2.2833 
      6961.0000 
       14.6334        49.2282        69.7056        97.7895         3.6063 
       68.4083         8.8775         0.9520         0.8810         0.9250 
        0.8910         1.0090         0.9650         0.9470         0.9200 
        5.0880         0.1380         0.1031         2.3012 
      6961.5000 
       14.5491        49.6711        70.1479        94.1786         3.6410 
       69.2156         9.2609         0.9410         0.8830         0.9190 
        0.8940         0.8800         0.9090         0.8450         0.8720 
        5.3942         0.0818         0.1177         2.3279 
      6962.0000 
       14.5264        50.2048        70.2504        93.8657         3.6358 
       69.4897         9.1663         0.8740         0.8780         0.8640 
        0.8870         0.7470         0.8360         0.7380         0.8110 
        5.7370         0.0542         0.1341         2.3364 
      6962.5000 
       14.5728        51.5848        69.7398        95.8756         3.6075 
       69.1309         8.9369         0.8180         0.8700         0.8070 
        0.8740         0.7250         0.8110         0.7230         0.7910 
        6.1606         0.0343         0.1432         2.3280 
      6963.0000 
       14.6385        52.4757        68.8533        97.0628         3.5673 
       68.3699         8.7071         0.8190         0.8660         0.7930 
        0.8640         0.7920         0.8370         0.7690         0.8040 
        6.5338         0.0168         0.1417         2.3206 
      6963.5000 
       14.7418        52.6904        68.5301        97.0977         3.5421 
       68.1115         8.4797         0.8290         0.8640         0.7940 
        0.8610         0.8400         0.8570         0.8040         0.8170 
        6.6644         0.0056         0.1333         2.3047 
      6964.0000 
       14.8414        53.2275        69.0473        97.4724         3.5577 
       68.6378         8.3208         0.8520         0.8650         0.8100 
        0.8580         0.8820         0.8790         0.8420         0.8330 
        6.5959         0.0025         0.1295         2.2829 
      6964.5000 
       14.9041        53.0395        69.5925        97.0107         3.6118 
       69.1852         8.2024         0.8650         0.8660         0.8300 
        0.8600         0.8450         0.8650         0.8210         0.8250 
        6.4589         0.0015         0.1278         2.2707 
      6965.0000 
       14.9879        51.3221        70.0271        96.7864         3.6682 
       69.6271         8.1900         0.8600         0.8660         0.8340 
        0.8610         0.8140         0.8520         0.8010         0.8190 
        6.3841         0.0015         0.1214         2.2727 
      6965.5000 
       15.0597        49.7832        70.9087        97.4197         3.7188 
       70.5220         8.2712         0.8560         0.8670         0.8350 
        0.8630         0.8130         0.8540         0.7990         0.8240 
        6.4016         0.0014         0.1178         2.2811 
      6966.0000 
       15.0480        49.1557        72.1068        98.0195         3.7591 
       71.6931         8.3482         0.8620         0.8680         0.8410 
        0.8690         0.8390         0.8710         0.8160         0.8390 
        6.4567         0.0042         0.1215         2.2857 
