~Version Information Block
VERS .                 2.00:  CWLS LOG ASCII STANDARD - VERSION 2.00
WRAP .                  YES:  Multiple lines per depth step
~Well Information Block
#MNEM.UNIT        Data Type   Information
#---------- ----------------  -----------
STRT .F              2673.5:  START DEPTH
STOP .F                7526:  STOP DEPTH
STEP .F                 0.5:  STEP
NULL .              -999.25:  NULL VALUE
COMP .     CONOCO (UK) LTD.:  COMPANY
WELL .              15/19-9:  WELL
FLD  .          EXPLORATION:  FIELD
LOC  .     58 DEG 25 MIN 41.048 SEC N:  LOCATION
PROV .                 UKCS:  PROVINCE
SRVC .                ATLAS:  SERVICE COMPANY
DATE .     15-08-98 TO 09-09-98:  LOG DATE
UWI  .                27553:  UNIQUE WELL ID
~Curve Information Block
#MNEM.UNIT         API CODE   Curve Description
#---------- ----------------  -----------------
DEPTH.F                    :  Depth in Feet
CAL  .IN                   :  Edited Caliper from ZDL/CN/SL
CNC  .%            42995991:  Edited Neutron Porosity from ZDL/CN/SL
GR   .GAPI                 :  Edited Gamma Ray from ZDL/CN/SL
GRAM .API          99995991:  Edited Gamma Ray from MWD: MPR
K    .%            31719991:  Edited Potassium from ZDL/CN/SL
KTH  .GAPI         31995991:  Edited Potassium plus Thorium from ZDL/CN/SL
PE   .B/E                  :  Edited Photo-electric from ZDL/CN/SL
RACH .OHMM                 :  Edited Resistivity (AT) 2MHz BHC from MWD: MPR
RACL .OHMM                 :  Edited Resistivity (AT) 400kHz BHC from MWD: MPR
RASH .OHMM                 :  Edited Resistivity (AT) 2MHz BHC from MWD: MPR
RASL .OHMM                 :  Edited Resistivity (AT) 400kHz BHC from MWD: MPR
RPCH .OHMM                 :  Edited Resistivity (PD) 2MHz BHC from MWD: MPR
RPCL .OHMM                 :  Edited Resistivity (PD) 400kHz BHC from MWD: MPR
RPSH .OHMM                 :  Edited Resistivity (PD) 2MHz BHC from MWD: MPR
RPSL .OHMM                 :  Edited Resistivity (PD) 400kHz BHC from MWD: MPR
TH   .PPM          31790991:  Edited Thorium from ZDL/CN/SL
U    .PPM          31792991:  Edited Uranium from ZDL/CN/SL
ZCOR .G/C3                 :  Edited ZDL Density Correction from ZDL/CN/SL
ZDEN .G/C3                 :  Edited ZDL Bulk Density from ZDL/CN/SL
~Parameter Information Block
#MNEM.UNIT            Value   Description
#---------- ----------------  -----------
SET  .        COMP_WIRE_MWD:  
PROJECT.             90TH_I_1:  
API  .                     :  
COUN .            NORTH SEA:  
DATU .                  MSL:  
DMF  .                   DF:  
TDD  .F                7560:  
EDF  .F                  75:  
EKB  .F                  75:  
EPD  .F                   0:  
FN   .          EXPLORATION:  
LATI .       58 25'41.048"N:  
LCC  .                  150:  
LONG .       00 36'17.360"E:  
LMF  .                   DF:  
ORDU .                 FEET:  Units Of Measurement
PDAT .                  MSL:  Permanent Datum
RIG_NAME.            DRILLSTAR:  
SURF .F                -490:   
~Other Information Block
~Ascii Log Data
# ...
      6791.0000 
       16.6766        47.4726        76.8367       102.2634         3.4948 
       74.2882         6.8571         0.8100         0.8310         0.8010 
        0.8290         0.8170         0.8250         0.8090         0.8060 
        6.9294         0.3032         0.1073         2.2759 
      6791.5000 
       16.8858        49.3201        77.0182       104.2815         3.4719 
       74.7745         7.7890         0.8040         0.8300         0.7940 
        0.8270         0.8050         0.8180         0.7980         0.7990 
        7.0745         0.2571         0.1061         2.2730 
      6792.0000 
       17.3343        50.8267        76.7811       105.9697         3.4878 
       75.1185         9.5327         0.7980         0.8280         0.7900 
        0.8250         0.7940         0.8100         0.7940         0.7970 
        7.1785         0.1769         0.1151         2.2608 
      6792.5000 
       17.6230        47.7707        75.1340       106.3628         3.5201 
       74.1192        11.4860         0.7880         0.8260         0.7830 
        0.8220         0.7850         0.8070         0.8050         0.8000 
        7.1308         0.0882         0.1260         2.2479 
      6793.0000 
       17.5108        46.7669        72.1859       105.6169         3.5421 
       71.5645        12.7436         0.7960         0.8280         0.7780 
        0.8210         0.7810         0.8080         0.8080         0.8010 
        6.6737         0.0327         0.1197         2.2635 
      6793.5000 
       17.1725        55.8256        68.5377       101.6412         3.5129 
       67.8844        13.0414         0.8040         0.8280         0.7750 
        0.8190         0.7970         0.8160         0.8250         0.8100 
        5.6765         0.0390         0.1043         2.3284 
      6794.0000 
       16.8921        68.5530        65.5450        96.5571         3.4530 
       64.6779        12.6378         0.7740         0.8190         0.7440 
        0.8110         0.8580         0.8430         0.8900         0.8410 
        4.8276         0.0745         0.1013         2.4658 
      6794.5000 
       16.7620        69.4809        64.0629        93.0152         3.4182 
       63.0967        11.6826         0.7080         0.8090         0.6940 
        0.8040         1.0040         0.8870         1.0290         0.8830 
        4.5258         0.0929         0.0740         2.6047 
      6795.0000 
       16.7530        58.6143        63.8901        91.8126         3.3963 
       62.8260        10.1179         0.7400         0.8220         0.7280 
        0.8200         0.9580         0.8740         0.9660         0.8570 
        4.4058         0.1074        -0.0184         2.6018 
      6795.5000 
       16.7660        46.3124        65.2901        93.5555         3.3919 
       64.0408         9.3984         0.8250         0.8420         0.8010 
        0.8410         0.8150         0.8370         0.8210         0.8180 
        4.3825         0.1295        -0.0551         2.4723 
      6796.0000 
       16.8654        37.9485        68.3023        98.2958         3.4413 
       66.7890        10.0522         0.8430         0.8450         0.8190 
        0.8440         0.7940         0.8370         0.8040         0.8210 
        4.5519         0.1611         0.0143         2.3560 
      6796.5000 
       17.1838        36.9569        70.8588       102.2810         3.4946 
       68.9428        10.4578         0.8480         0.8460         0.8330 
        0.8480         0.8120         0.8500         0.8210         0.8370 
        4.7240         0.2145         0.0743         2.2862 
      6797.0000 
       17.8190        43.4628        71.5881       103.7676         3.5057 
       69.1239        10.3699         0.8650         0.8460         0.8580 
        0.8520         0.8410         0.8680         0.8370         0.8500 
        4.7127         0.2913         0.0932         2.2410 
      6797.5000 
       18.4250        47.9771        72.0120       104.3597         3.5023 
       68.6716         9.2843         0.8870         0.8450         0.8790 
        0.8510         0.8960         0.8900         0.8710         0.8630 
        4.5720         0.4142         0.1026         2.2191 
      6798.0000 
       18.4378        50.4823        72.9832       105.4310         3.5074 
       68.7200         7.6546         0.8730         0.8440         0.8680 
        0.8500         0.9050         0.8880         0.8740         0.8600 
        4.4984         0.5423         0.1079         2.2199 
      6798.5000 
       17.9223        52.4193        73.8395       105.9134         3.5386 
       69.2559         6.3523         0.8570         0.8440         0.8510 
        0.8490         0.8800         0.8690         0.8550         0.8470 
        4.6204         0.5908         0.1114         2.2413 
      6799.0000 
       17.5768        51.4899        74.7784       106.3638         3.6474 
       70.6602         5.7631         0.8470         0.8440         0.8400 
        0.8490         0.8590         0.8600         0.8420         0.8390 
        5.0570         0.5378         0.1094         2.2593 
      6799.5000 
       17.6369        48.8935        76.3238       103.8587         3.8178 
       73.1357         5.6079         0.8350         0.8460         0.8290 
        0.8510         0.8410         0.8520         0.8250         0.8300 
        5.8250         0.4132         0.0956         2.2598 
      6800.0000 
       17.7000        47.2241        78.1196       100.5111         3.9729 
       75.9214         5.5240         0.8330         0.8500         0.8210 
        0.8530         0.8240         0.8500         0.8100         0.8230 
        6.6828         0.2684         0.0840         2.2538 
      6800.5000 
       17.6483        47.2373        79.1723       100.8924         4.0806 
       77.8698         5.3854         0.8380         0.8530         0.8220 
        0.8570         0.8150         0.8490         0.8010         0.8220 
        7.4208         0.1333         0.0777         2.2532 
      6801.0000 
       17.5485        47.9533        78.6602       103.8201         4.0844 
       77.9397         5.2782         0.8400         0.8540         0.8240 
        0.8590         0.8180         0.8510         0.8080         0.8280 
        7.8387         0.0451         0.0688         2.2555 
      6801.5000 
       17.3806        48.3766        77.1061       105.4973         3.9765 
       76.4415         5.1873         0.8340         0.8550         0.8190 
        0.8590         0.8400         0.8660         0.8330         0.8400 
        7.9009         0.0390         0.0622         2.2539 
      6802.0000 
       17.1456        48.2724        75.8380       105.3039         3.8474 
       74.9293         5.0770         0.8380         0.8550         0.8280 
        0.8620         0.8700         0.8770         0.8500         0.8490 
        7.7881         0.0792         0.0683         2.2633 
      6802.5000 
       17.0013        47.6432        74.9186       101.3338         3.7225 
       73.6866         4.9423         0.8570         0.8570         0.8450 
        0.8660         0.8820         0.8880         0.8680         0.8630 
        7.5624         0.1277         0.0813         2.2772 
      6803.0000 
       17.0462        46.5280        74.8098        99.0383         3.6242 
       73.3318         4.8053         0.8630         0.8580         0.8560 
        0.8700         0.9080         0.9020         0.8930         0.8800 
        7.3581         0.1604         0.0890         2.2887 
      6803.5000 
       17.1840        45.3642        76.6632        99.9299         3.6504 
       75.3214         4.8393         0.8680         0.8560         0.8650 
        0.8710         0.9130         0.9040         0.8990         0.8850 
        7.4327         0.1373         0.0894         2.3036 
      6804.0000 
       17.4134        44.7837        79.2591       101.1659         3.7553 
       78.2001         5.2461         0.8750         0.8560         0.8750 
        0.8760         0.9240         0.9110         0.9040         0.8920 
        7.6443         0.0941         0.0897         2.3184 
