~Version Information Block
VERS .                 2.00:  CWLS LOG ASCII STANDARD - VERSION 2.00
WRAP .                  YES:  Multiple lines per depth step
~Well Information Block
#MNEM.UNIT        Data Type   Information
#---------- ----------------  -----------
STRT .F              2673.5:  START DEPTH
STOP .F                7526:  STOP DEPTH
STEP .F                 0.5:  STEP
NULL .              -999.25:  NULL VALUE
COMP .     CONOCO (UK) LTD.:  COMPANY
WELL .              15/19-9:  WELL
FLD  .          EXPLORATION:  FIELD
LOC  .     58 DEG 25 MIN 41.048 SEC N:  LOCATION
PROV .                 UKCS:  PROVINCE
SRVC .                ATLAS:  SERVICE COMPANY
DATE .     15-08-98 TO 09-09-98:  LOG DATE
UWI  .                27553:  UNIQUE WELL ID
~Curve Information Block
#MNEM.UNIT         API CODE   Curve Description
#---------- ----------------  -----------------
DEPTH.F                    :  Depth in Feet
CAL  .IN                   :  Edited Caliper from ZDL/CN/SL
CNC  .%            42995991:  Edited Neutron Porosity from ZDL/CN/SL
GR   .GAPI                 :  Edited Gamma Ray from ZDL/CN/SL
GRAM .API          99995991:  Edited Gamma Ray from MWD: MPR
K    .%            31719991:  Edited Potassium from ZDL/CN/SL
KTH  .GAPI         31995991:  Edited Potassium plus Thorium from ZDL/CN/SL
PE   .B/E                  :  Edited Photo-electric from ZDL/CN/SL
RACH .OHMM                 :  Edited Resistivity (AT) 2MHz BHC from MWD: MPR
RACL .OHMM                 :  Edited Resistivity (AT) 400kHz BHC from MWD: MPR
RASH .OHMM                 :  Edited Resistivity (AT) 2MHz BHC from MWD: MPR
RASL .OHMM                 :  Edited Resistivity (AT) 400kHz BHC from MWD: MPR
RPCH .OHMM                 :  Edited Resistivity (PD) 2MHz BHC from MWD: MPR
RPCL .OHMM                 :  Edited Resistivity (PD) 400kHz BHC from MWD: MPR
RPSH .OHMM                 :  Edited Resistivity (PD) 2MHz BHC from MWD: MPR
RPSL .OHMM                 :  Edited Resistivity (PD) 400kHz BHC from MWD: MPR
TH   .PPM          31790991:  Edited Thorium from ZDL/CN/SL
U    .PPM          31792991:  Edited Uranium from ZDL/CN/SL
ZCOR .G/C3                 :  Edited ZDL Density Correction from ZDL/CN/SL
ZDEN .G/C3                 :  Edited ZDL Bulk Density from ZDL/CN/SL
~Parameter Information Block
#MNEM.UNIT            Value   Description
#---------- ----------------  -----------
SET  .        COMP_WIRE_MWD:  
PROJECT.             90TH_I_1:  
API  .                     :  
COUN .            NORTH SEA:  
DATU .                  MSL:  
DMF  .                   DF:  
TDD  .F                7560:  
EDF  .F                  75:  
EKB  .F                  75:  
EPD  .F                   0:  
FN   .          EXPLORATION:  
LATI .       58 25'41.048"N:  
LCC  .                  150:  
LONG .       00 36'17.360"E:  
LMF  .                   DF:  
ORDU .                 FEET:  Units Of Measurement
PDAT .                  MSL:  Permanent Datum
RIG_NAME.            DRILLSTAR:  
SURF .F                -490:   
~Other Information Block
~Ascii Log Data
# ...
      7358.0000 
       12.3317      -999.2500        83.3102       105.1799         3.8242 
       80.7165         7.3806         0.7000         0.7310         0.6680 
        0.7180         0.7750         0.7360         0.7650         0.7110 
        6.4205         0.2754         0.0475         2.3564 
      7358.5000 
       12.3653      -999.2500        83.9030       106.2798         3.8653 
       81.3664         7.7951         0.7320         0.7330         0.7010 
        0.7240         0.7690         0.7470         0.7530         0.7210 
        6.5423         0.2724         0.0514         2.3552 
      7359.0000 
       12.3934      -999.2500        85.9725       107.7827         3.9626 
       83.9401         8.6648         0.7460         0.7350         0.7210 
        0.7320         0.7830         0.7610         0.7610         0.7400 
        6.9732         0.1997         0.0520         2.3530 
      7359.5000 
       12.4349      -999.2500        87.6242       110.3353         4.0474 
       86.2098         8.8945         0.7510         0.7370         0.7360 
        0.7440         0.8000         0.7800         0.7810         0.7590 
        7.4578         0.1075         0.0504         2.3512 
      7360.0000 
       12.4869      -999.2500        88.0341       111.4210         4.0776 
       86.9582         8.4016         0.7710         0.7410         0.7590 
        0.7560         0.8030         0.7920         0.7830         0.7720 
        7.7167         0.0584         0.0541         2.3484 
      7360.5000 
       12.5439      -999.2500        88.0307       112.5592         4.0878 
       87.0563         8.3627         0.7870         0.7440         0.7740 
        0.7680         0.8120         0.8060         0.7870         0.7860 
        7.7894         0.0486         0.0602         2.3455 
      7361.0000 
       12.5778      -999.2500        87.9329       111.2716         4.1004 
       86.9712         8.4348         0.7820         0.7430         0.7690 
        0.7700         0.8530         0.8270         0.8230         0.8040 
        7.7528         0.0497         0.0519         2.3600 
      7361.5000 
       12.5759      -999.2500        87.9269       110.9075         4.1116 
       86.9373         8.3693         0.7820         0.7400         0.7760 
        0.7700         0.8400         0.8210         0.8060         0.7980 
        7.6631         0.0516         0.0294         2.3799 
      7362.0000 
       12.5540      -999.2500        87.9639       111.6675         4.1242 
       86.9664         8.2502         0.7760         0.7340         0.7690 
        0.7650         0.8060         0.8040         0.7780         0.7860 
        7.5448         0.0507         0.0156         2.3891 
      7362.5000 
       12.4740      -999.2500        88.1607       113.1276         4.1472 
       87.2142         8.1513         0.7520         0.7210         0.7460 
        0.7460         0.7770         0.7850         0.7550         0.7630 
        7.4219         0.0430         0.0258         2.3876 
      7363.0000 
       12.3113      -999.2500        88.3693       113.9633         4.1692 
       87.5445         8.0183         0.7340         0.7060         0.7280 
        0.7260         0.7720         0.7730         0.7490         0.7460 
        7.3887         0.0257         0.0399         2.3733 
      7363.5000 
       12.1615      -999.2500        87.5189       113.3116         4.1610 
       86.8155         7.7701         0.7040         0.6810         0.6930 
        0.6900         0.7670         0.7480         0.7330         0.7130 
        7.3987         0.0093         0.0389         2.3432 
      7364.0000 
       12.1035      -999.2500        84.3211       107.6772      -999.2500 
     -999.2500         6.8548         0.6880         0.6560         0.6670 
        0.6570         0.7210         0.7040         0.6770         0.6630 
     -999.2500      -999.2500         0.0299         2.3024 
      7364.5000 
       12.0865      -999.2500        80.6048       101.6850      -999.2500 
     -999.2500         5.8828         0.6610         0.6360         0.6360 
        0.6320         0.6410         0.6540         0.6040         0.6140 
     -999.2500      -999.2500         0.0241         2.2672 
      7365.0000 
       12.0634      -999.2500        76.8604        94.2429      -999.2500 
     -999.2500         5.5280         0.5980         0.6030         0.5700 
        0.5900         0.4940         0.5560         0.4760         0.5240 
     -999.2500      -999.2500         0.0231         2.2494 
      7365.5000 
       12.0401      -999.2500        71.6890        87.9747      -999.2500 
     -999.2500         5.5491         0.5240         0.5730         0.5030 
        0.5550         0.4340         0.5020         0.4280         0.4790 
     -999.2500      -999.2500         0.0253         2.2450 
      7366.0000 
       12.0274      -999.2500        66.0700        83.8009      -999.2500 
     -999.2500         5.6015         0.4740         0.5370         0.4630 
        0.5190         0.4400         0.4780         0.4340         0.4610 
     -999.2500      -999.2500         0.0285         2.2458 
      7366.5000 
       12.0264      -999.2500        62.1165        82.0601      -999.2500 
     -999.2500         5.6101         0.4680         0.5120         0.4580 
        0.4970         0.4700         0.4770         0.4570         0.4620 
     -999.2500      -999.2500         0.0294         2.2486 
      7367.0000 
       12.0336      -999.2500        59.7834        81.1656      -999.2500 
     -999.2500         5.6468         0.4730         0.4980         0.4610 
        0.4820         0.4850         0.4800         0.4700         0.4650 
     -999.2500      -999.2500         0.0310         2.2562 
      7367.5000 
       12.0401      -999.2500        58.4723        81.7000      -999.2500 
     -999.2500         5.6730         0.4760         0.4900         0.4610 
        0.4740         0.4910         0.4820         0.4800         0.4670 
     -999.2500      -999.2500         0.0359         2.2694 
      7368.0000 
       12.0415      -999.2500        57.4636        81.3200      -999.2500 
     -999.2500         5.7077         0.4750         0.4790         0.4590 
        0.4610         0.4930         0.4810         0.4910         0.4670 
     -999.2500      -999.2500         0.0377         2.2803 
      7368.5000 
       12.0404      -999.2500        56.4547        82.1186      -999.2500 
     -999.2500         5.6133         0.4700         0.4730         0.4600 
        0.4550         0.4750         0.4700         0.4740         0.4590 
     -999.2500      -999.2500         0.0316         2.2794 
      7369.0000 
       12.0392      -999.2500        56.3161        83.0954      -999.2500 
     -999.2500         5.3071         0.4540         0.4680         0.4490 
        0.4510         0.4560         0.4550         0.4530         0.4470 
     -999.2500      -999.2500         0.0236         2.2690 
      7369.5000 
       12.0372      -999.2500        57.0998        83.5416      -999.2500 
     -999.2500         5.2151         0.4410         0.4660         0.4330 
        0.4490         0.4350         0.4390         0.4310         0.4300 
     -999.2500      -999.2500         0.0218         2.2581 
      7370.0000 
       12.0342      -999.2500        57.4615        83.0598      -999.2500 
     -999.2500         5.4899         0.4280         0.4730         0.4140 
        0.4510         0.3960         0.4220         0.3950         0.4100 
     -999.2500      -999.2500         0.0247         2.2497 
      7370.5000 
       12.0386      -999.2500        57.2859        83.0534      -999.2500 
     -999.2500         6.0659         0.4270         0.4850         0.4090 
        0.4560         0.3780         0.4170         0.3790         0.4010 
     -999.2500      -999.2500         0.0266         2.2425 
      7371.0000 
       12.0537      -999.2500        57.2153        82.4739      -999.2500 
     -999.2500         6.5848         0.4290         0.4930         0.4130 
        0.4590         0.3950         0.4230         0.3940         0.4060 
     -999.2500      -999.2500         0.0254         2.2364 
