~Version Information Block
VERS .                 2.00:  CWLS LOG ASCII STANDARD - VERSION 2.00
WRAP .                  YES:  Multiple lines per depth step
~Well Information Block
#MNEM.UNIT        Data Type   Information
#---------- ----------------  -----------
STRT .F              2673.5:  START DEPTH
STOP .F                7526:  STOP DEPTH
STEP .F                 0.5:  STEP
NULL .              -999.25:  NULL VALUE
COMP .     CONOCO (UK) LTD.:  COMPANY
WELL .              15/19-9:  WELL
FLD  .          EXPLORATION:  FIELD
LOC  .     58 DEG 25 MIN 41.048 SEC N:  LOCATION
PROV .                 UKCS:  PROVINCE
SRVC .                ATLAS:  SERVICE COMPANY
DATE .     15-08-98 TO 09-09-98:  LOG DATE
UWI  .                27553:  UNIQUE WELL ID
~Curve Information Block
#MNEM.UNIT         API CODE   Curve Description
#---------- ----------------  -----------------
DEPTH.F                    :  Depth in Feet
CAL  .IN                   :  Edited Caliper from ZDL/CN/SL
CNC  .%            42995991:  Edited Neutron Porosity from ZDL/CN/SL
GR   .GAPI                 :  Edited Gamma Ray from ZDL/CN/SL
GRAM .API          99995991:  Edited Gamma Ray from MWD: MPR
K    .%            31719991:  Edited Potassium from ZDL/CN/SL
KTH  .GAPI         31995991:  Edited Potassium plus Thorium from ZDL/CN/SL
PE   .B/E                  :  Edited Photo-electric from ZDL/CN/SL
RACH .OHMM                 :  Edited Resistivity (AT) 2MHz BHC from MWD: MPR
RACL .OHMM                 :  Edited Resistivity (AT) 400kHz BHC from MWD: MPR
RASH .OHMM                 :  Edited Resistivity (AT) 2MHz BHC from MWD: MPR
RASL .OHMM                 :  Edited Resistivity (AT) 400kHz BHC from MWD: MPR
RPCH .OHMM                 :  Edited Resistivity (PD) 2MHz BHC from MWD: MPR
RPCL .OHMM                 :  Edited Resistivity (PD) 400kHz BHC from MWD: MPR
RPSH .OHMM                 :  Edited Resistivity (PD) 2MHz BHC from MWD: MPR
RPSL .OHMM                 :  Edited Resistivity (PD) 400kHz BHC from MWD: MPR
TH   .PPM          31790991:  Edited Thorium from ZDL/CN/SL
U    .PPM          31792991:  Edited Uranium from ZDL/CN/SL
ZCOR .G/C3                 :  Edited ZDL Density Correction from ZDL/CN/SL
ZDEN .G/C3                 :  Edited ZDL Bulk Density from ZDL/CN/SL
~Parameter Information Block
#MNEM.UNIT            Value   Description
#---------- ----------------  -----------
SET  .        COMP_WIRE_MWD:  
PROJECT.             90TH_I_1:  
API  .                     :  
COUN .            NORTH SEA:  
DATU .                  MSL:  
DMF  .                   DF:  
TDD  .F                7560:  
EDF  .F                  75:  
EKB  .F                  75:  
EPD  .F                   0:  
FN   .          EXPLORATION:  
LATI .       58 25'41.048"N:  
LCC  .                  150:  
LONG .       00 36'17.360"E:  
LMF  .                   DF:  
ORDU .                 FEET:  Units Of Measurement
PDAT .                  MSL:  Permanent Datum
RIG_NAME.            DRILLSTAR:  
SURF .F                -490:   
~Other Information Block
~Ascii Log Data
# ...
      6696.5000 
     -999.2500        82.1833        72.5673       122.9115         2.4775 
       55.4268      -999.2500         0.7790         0.7800         0.7500 
        0.7940         0.9830         0.8560         0.8800         0.8090 
        4.6088         2.2281      -999.2500      -999.2500 
      6697.0000 
     -999.2500        81.8295        72.3772       124.5948         2.4360 
       54.7048      -999.2500         0.7800         0.7790         0.7520 
        0.7930         0.9740         0.8520         0.8710         0.8050 
        4.6185         2.3003      -999.2500      -999.2500 
      6697.5000 
     -999.2500        81.4010        71.4643       126.2205         2.3932 
       53.7612      -999.2500         0.7820         0.7790         0.7530 
        0.7910         0.9770         0.8520         0.8710         0.8040 
        4.6991         2.3224      -999.2500      -999.2500 
      6698.0000 
     -999.2500        81.0096        70.0666       125.9160         2.3713 
       52.9611      -999.2500         0.7780         0.7730         0.7530 
        0.7820         0.9470         0.8350         0.8480         0.7880 
        4.7760         2.2699      -999.2500      -999.2500 
      6698.5000 
     -999.2500        80.4382        69.1571       125.2077         2.3873 
       52.6942      -999.2500         0.7690         0.7680         0.7440 
        0.7760         0.9150         0.8190         0.8260         0.7740 
        4.7028         2.1976      -999.2500      -999.2500 
      6699.0000 
     -999.2500        79.9705        69.5357       124.5411         2.4225 
       53.2563      -999.2500         0.7610         0.7630         0.7350 
        0.7690         0.8920         0.8060         0.8050         0.7590 
        4.4804         2.1497      -999.2500      -999.2500 
      6699.5000 
     -999.2500        80.2508        70.1260       123.2584         2.4623 
       53.9347      -999.2500         0.7560         0.7610         0.7280 
        0.7650         0.8790         0.7980         0.7910         0.7500 
        4.2141         2.1081      -999.2500      -999.2500 
      6700.0000 
     -999.2500        81.4989        69.6138       121.6549         2.5040 
       53.8088      -999.2500         0.7430         0.7560         0.7140 
        0.7590         0.8520         0.7810         0.7630         0.7320 
        3.9299         2.0579      -999.2500      -999.2500 
      6700.5000 
     -999.2500        83.2074        68.2770       118.7168         2.5388 
       53.0915      -999.2500         0.7180         0.7470         0.6980 
        0.7480         0.7640         0.7350         0.7030         0.6990 
        3.6438         1.9966      -999.2500      -999.2500 
      6701.0000 
     -999.2500        84.5666        66.9273       115.0965         2.5466 
       52.2889      -999.2500         0.7020         0.7390         0.6780 
        0.7390         0.7470         0.7240         0.6950         0.6920 
        3.4689         1.9410      -999.2500      -999.2500 
      6701.5000 
     -999.2500        85.0224        66.0327       112.1114         2.5287 
       51.9368      -999.2500         0.6840         0.7290         0.6670 
        0.7300         0.7700         0.7260         0.7170         0.6920 
        3.4776         1.8686      -999.2500      -999.2500 
      6702.0000 
     -999.2500        84.7220        65.6929       111.7169         2.5011 
       52.3458      -999.2500         0.6860         0.7260         0.6760 
        0.7300         0.7770         0.7300         0.7310         0.7020 
        3.6566         1.7539      -999.2500      -999.2500 
      6702.5000 
     -999.2500        84.0171        65.4376       111.4035         2.4672 
       53.1455      -999.2500         0.6890         0.7260         0.6780 
        0.7300         0.7750         0.7330         0.7330         0.7060 
        3.9742         1.5965      -999.2500      -999.2500 
      6703.0000 
     -999.2500        83.0954        64.5731       111.1338         2.4237 
       53.8018      -999.2500         0.6930         0.7270         0.6840 
        0.7330         0.7730         0.7360         0.7360         0.7110 
        4.4335         1.3889      -999.2500      -999.2500 
      6703.5000 
     -999.2500        82.7677        63.1475       112.5317         2.3759 
       54.3198      -999.2500         0.7020         0.7280         0.6940 
        0.7350         0.7800         0.7430         0.7380         0.7210 
        4.9849         1.1345      -999.2500      -999.2500 
      6704.0000 
     -999.2500        83.6983        61.6280       112.7311         2.3384 
       54.7320      -999.2500         0.7080         0.7280         0.7010 
        0.7380         0.7960         0.7550         0.7550         0.7310 
        5.4328         0.8801      -999.2500      -999.2500 
      6704.5000 
     -999.2500        83.1160        60.2789       110.4093         2.3177 
       54.7382      -999.2500         0.7160         0.7330         0.7110 
        0.7420         0.8090         0.7640         0.7550         0.7280 
        5.6104         0.6999      -999.2500      -999.2500 
      6705.0000 
     -999.2500        80.1924        58.8957       106.9696         2.3164 
       54.1314      -999.2500         0.7270         0.7340         0.7160 
        0.7420         0.7960         0.7620         0.7450         0.7300 
        5.4838         0.5999      -999.2500      -999.2500 
      6705.5000 
     -999.2500        78.7728        56.7846       102.6535         2.3476 
       52.4877      -999.2500         0.7330         0.7320         0.7140 
        0.7410         0.7890         0.7630         0.7500         0.7370 
        4.8809         0.5456      -999.2500      -999.2500 
      6706.0000 
     -999.2500        77.8954        54.5699        99.9527         2.3911 
       50.4356      -999.2500         0.7300         0.7300         0.7060 
        0.7400         0.8010         0.7710         0.7740         0.7440 
        4.0736         0.5316      -999.2500      -999.2500 
      6706.5000 
     -999.2500        77.1217        53.2316       100.0929         2.4145 
       48.9476      -999.2500         0.7110         0.7300         0.6900 
        0.7400         0.8160         0.7510         0.7580         0.7260 
        3.5414         0.5580      -999.2500      -999.2500 
      6707.0000 
     -999.2500        77.2289        53.0178       100.0679         2.4274 
       48.4857      -999.2500         0.7090         0.7430         0.7000 
        0.7500         0.7900         0.7910         0.7470         0.7430 
        3.1991         0.5898      -999.2500      -999.2500 
      6707.5000 
     -999.2500        77.3555        53.3327       100.1514         2.4166 
       48.5225      -999.2500         0.7350         0.7460         0.7170 
        0.7510         0.7970         0.7970         0.7440         0.7470 
        3.0354         0.6190      -999.2500      -999.2500 
      6708.0000 
     -999.2500        76.3360        53.5897       100.4836         2.3797 
       48.6297      -999.2500         0.7870         0.7450         0.7420 
        0.7470         0.8280         0.7810         0.7440         0.7440 
        3.1152         0.6313      -999.2500      -999.2500 
      6708.5000 
     -999.2500        75.5595        53.1452       100.5975         2.3345 
       48.2741      -999.2500         0.7640         0.7410         0.7280 
        0.7430         0.8050         0.7810         0.7560         0.7470 
        3.2948         0.6219      -999.2500      -999.2500 
      6709.0000 
     -999.2500        75.6478        52.6340       100.8348         2.2886 
       47.9763      -999.2500         0.7390         0.7380         0.7160 
        0.7370         0.7970         0.7820         0.7670         0.7470 
        3.4587         0.5956      -999.2500      -999.2500 
      6709.5000 
     -999.2500        75.6773        52.1910       100.3960         2.2418 
       47.7067      -999.2500         0.7290         0.7380         0.7170 
        0.7320         0.8180         0.7820         0.7690         0.7410 
        3.5779         0.5709      -999.2500      -999.2500 
