~Version Information Block
VERS .                 2.00:  CWLS LOG ASCII STANDARD - VERSION 2.00
WRAP .                  YES:  Multiple lines per depth step
~Well Information Block
#MNEM.UNIT        Data Type   Information
#---------- ----------------  -----------
STRT .F              2673.5:  START DEPTH
STOP .F                7526:  STOP DEPTH
STEP .F                 0.5:  STEP
NULL .              -999.25:  NULL VALUE
COMP .     CONOCO (UK) LTD.:  COMPANY
WELL .              15/19-9:  WELL
FLD  .          EXPLORATION:  FIELD
LOC  .     58 DEG 25 MIN 41.048 SEC N:  LOCATION
PROV .                 UKCS:  PROVINCE
SRVC .                ATLAS:  SERVICE COMPANY
DATE .     15-08-98 TO 09-09-98:  LOG DATE
UWI  .                27553:  UNIQUE WELL ID
~Curve Information Block
#MNEM.UNIT         API CODE   Curve Description
#---------- ----------------  -----------------
DEPTH.F                    :  Depth in Feet
CAL  .IN                   :  Edited Caliper from ZDL/CN/SL
CNC  .%            42995991:  Edited Neutron Porosity from ZDL/CN/SL
GR   .GAPI                 :  Edited Gamma Ray from ZDL/CN/SL
GRAM .API          99995991:  Edited Gamma Ray from MWD: MPR
K    .%            31719991:  Edited Potassium from ZDL/CN/SL
KTH  .GAPI         31995991:  Edited Potassium plus Thorium from ZDL/CN/SL
PE   .B/E                  :  Edited Photo-electric from ZDL/CN/SL
RACH .OHMM                 :  Edited Resistivity (AT) 2MHz BHC from MWD: MPR
RACL .OHMM                 :  Edited Resistivity (AT) 400kHz BHC from MWD: MPR
RASH .OHMM                 :  Edited Resistivity (AT) 2MHz BHC from MWD: MPR
RASL .OHMM                 :  Edited Resistivity (AT) 400kHz BHC from MWD: MPR
RPCH .OHMM                 :  Edited Resistivity (PD) 2MHz BHC from MWD: MPR
RPCL .OHMM                 :  Edited Resistivity (PD) 400kHz BHC from MWD: MPR
RPSH .OHMM                 :  Edited Resistivity (PD) 2MHz BHC from MWD: MPR
RPSL .OHMM                 :  Edited Resistivity (PD) 400kHz BHC from MWD: MPR
TH   .PPM          31790991:  Edited Thorium from ZDL/CN/SL
U    .PPM          31792991:  Edited Uranium from ZDL/CN/SL
ZCOR .G/C3                 :  Edited ZDL Density Correction from ZDL/CN/SL
ZDEN .G/C3                 :  Edited ZDL Bulk Density from ZDL/CN/SL
~Parameter Information Block
#MNEM.UNIT            Value   Description
#---------- ----------------  -----------
SET  .        COMP_WIRE_MWD:  
PROJECT.             90TH_I_1:  
API  .                     :  
COUN .            NORTH SEA:  
DATU .                  MSL:  
DMF  .                   DF:  
TDD  .F                7560:  
EDF  .F                  75:  
EKB  .F                  75:  
EPD  .F                   0:  
FN   .          EXPLORATION:  
LATI .       58 25'41.048"N:  
LCC  .                  150:  
LONG .       00 36'17.360"E:  
LMF  .                   DF:  
ORDU .                 FEET:  Units Of Measurement
PDAT .                  MSL:  Permanent Datum
RIG_NAME.            DRILLSTAR:  
SURF .F                -490:   
~Other Information Block
~Ascii Log Data
# ...
      7155.5000 
       12.0896        24.3397        36.4735        67.5437         2.4655 
       35.7030         4.6284         1.9470         1.7760         1.8260 
        1.7920         1.7040         1.8470         1.4810         1.6650 
        1.3803         0.0182         0.0277         2.1854 
      7156.0000 
       12.0967        24.2445        35.9333        67.6906         2.5010 
       35.2351         4.6498         1.8210         1.6710         1.7040 
        1.6850         1.5550         1.7130         1.3630         1.5500 
        1.4735         0.0091         0.0295         2.1960 
      7156.5000 
       12.0958        24.3085        34.9492        68.4025         2.5371 
       34.3818         4.6833         1.7200         1.5840         1.6110 
        1.5980         1.4620         1.6140         1.2950         1.4680 
        1.5941         0.0019         0.0300         2.2051 
      7157.0000 
       12.0961        24.0942        35.2047        69.2428         2.5435 
       34.7400         4.7610         1.6220         1.4950         1.5210 
        1.5150         1.3760         1.5240         1.2350         1.3960 
        1.7711         0.0001         0.0322         2.2180 
      7157.5000 
       12.1010        23.7114        36.6015        70.4825         2.5119 
       36.1599         4.9067         1.2960         1.1860         1.2590 
        1.2170         1.2990         1.3080         1.2510         1.2660 
        2.0352         0.0008         0.0353         2.2328 
      7158.0000 
       12.1001        23.5990        37.8517        71.0442         2.4811 
       37.3641         5.0858         1.1670         1.0580         1.1480 
        1.0840         1.2580         1.2080         1.2470         1.1920 
        2.2347         0.0033         0.0345         2.2446 
      7158.5000 
       12.0877        23.8935        39.6125        71.2415         2.4657 
       39.0530         5.1666         1.1010         1.0050         1.0850 
        1.0240         1.2100         1.1450         1.2060         1.1310 
        2.3345         0.0092         0.0295         2.2540 
      7159.0000 
       12.0704        24.3887        44.3925        72.4449         2.4955 
       43.5046         5.0693         1.0280         0.9540         1.0150 
        0.9630         1.0640         1.0390         1.0750         1.0270 
        2.7773         0.0509         0.0255         2.2645 
      7159.5000 
       12.0607        25.2367        50.5608        75.5391         2.6008 
       49.1836         4.9337         0.9450         0.9070         0.9270 
        0.9100         0.9250         0.9320         0.9350         0.9250 
        3.6608         0.1094         0.0228         2.2783 
      7160.0000 
       12.0676        27.1882        53.9709        79.0506         2.7050 
       52.5178         4.9286         0.8600         0.8680         0.8480 
        0.8660         0.8470         0.8670         0.8720         0.8650 
        4.3369         0.1098         0.0204         2.3007 
      7160.5000 
       12.0834        30.1399        54.0582        80.6870         2.7512 
       52.7925         5.0321         0.7640         0.8150         0.7590 
        0.8050         0.7890         0.7970         0.8160         0.7950 
        4.6620         0.0759         0.0222         2.3319 
      7161.0000 
       12.0948        31.8745        53.6982        78.9117         2.7864 
       52.5674         5.1455         0.7210         0.7740         0.7200 
        0.7630         0.7520         0.7500         0.7760         0.7500 
        4.9231         0.0469         0.0274         2.3579 
      7161.5000 
       12.0984        31.4408        52.5593        75.0714         2.8066 
       51.5791         5.1862         0.7050         0.7450         0.7060 
        0.7350         0.7610         0.7370         0.7830         0.7380 
        5.0492         0.0176         0.0318         2.3664 
      7162.0000 
       12.0958        31.0031        49.3266        71.8614         2.7246 
       48.4338         5.0334         0.7030         0.7250         0.7040 
        0.7160         0.7820         0.7360         0.8000         0.7370 
        4.6917         0.0026         0.0373         2.3533 
      7162.5000 
       12.0914        30.8234        45.8589        70.4183         2.6256 
       44.9763         4.6798         0.7080         0.7090         0.7120 
        0.7040         0.8020         0.7420         0.8200         0.7450 
        4.1281         0.0000         0.0400         2.3129 
      7163.0000 
       12.0913        29.7476        43.7413        70.9965         2.6015 
       42.8775         4.3611         0.7120         0.7020         0.7190 
        0.7000         0.8130         0.7480         0.8310         0.7520 
        3.7572         0.0000         0.0337         2.2560 
      7163.5000 
       12.0942        27.7486        41.7322        72.0151         2.6103 
       40.9376         4.2319         0.7130         0.6980         0.7260 
        0.7050         0.8040         0.7470         0.8200         0.7560 
        3.1403         0.0000         0.0255         2.2133 
      7164.0000 
       12.0916        26.4614        39.7598        72.3964         2.6502 
       39.0530         4.2430         0.7140         0.6930         0.7300 
        0.7000         0.7950         0.7440         0.8090         0.7520 
        2.5205         0.0000         0.0257         2.2026 
      7164.5000 
       12.0818        25.8889        39.1078        73.4544         2.6986 
       38.4341         4.2817         0.7130         0.6900         0.7310 
        0.7030         0.7840         0.7450         0.7910         0.7520 
        2.2930         0.0034         0.0324         2.2155 
      7165.0000 
       12.0718        25.2811        39.7696        74.7083         2.7349 
       39.0809         4.3534         0.7190         0.6910         0.7360 
        0.7080         0.7800         0.7480         0.7780         0.7510 
        2.1701         0.0093         0.0352         2.2319 
      7165.5000 
       12.0678        26.6783        40.6825        75.6434         2.7738 
       39.9514         4.5856         0.7260         0.6930         0.7400 
        0.7110         0.7760         0.7500         0.7730         0.7510 
        2.0268         0.0126         0.0301         2.2379 
      7166.0000 
       12.0660        28.8101        41.0942        75.7135         2.8072 
       40.3183         5.0815         0.7380         0.6970         0.7500 
        0.7150         0.7680         0.7520         0.7650         0.7500 
        1.9175         0.0136         0.0203         2.2379 
      7166.5000 
       12.0582        28.2053        41.3522        74.2088         2.8135 
       40.4942         5.6470         0.7400         0.6990         0.7510 
        0.7160         0.7610         0.7530         0.7600         0.7480 
        1.8132         0.0146         0.0115         2.2321 
      7167.0000 
       12.0491        26.4748        42.7570        71.6989         2.7859 
       41.7789         5.7708         0.7380         0.7000         0.7490 
        0.7150         0.7610         0.7530         0.7610         0.7480 
        1.6825         0.0136         0.0084         2.2092 
      7167.5000 
       12.0465        26.0528        44.7484        69.7569         2.7455 
       43.7281         5.2992         0.7290         0.6980         0.7400 
        0.7140         0.7650         0.7540         0.7670         0.7490 
        1.6134         0.0084         0.0118         2.1764 
      7168.0000 
       12.0483        27.5308        44.9907        69.3174         2.7140 
       44.0408         4.7402         0.7210         0.6950         0.7330 
        0.7120         0.7740         0.7550         0.7770         0.7510 
        1.6807         0.0051         0.0198         2.1462 
      7168.5000 
       12.0519        30.2847        43.6360        69.6222         2.6881 
       42.7842         4.4602         0.7160         0.6920         0.7290 
        0.7080         0.7800         0.7540         0.7840         0.7500 
        1.8019         0.0067         0.0278         2.1282 
