~Version Information Block
VERS .                 2.00:  CWLS LOG ASCII STANDARD - VERSION 2.00
WRAP .                  YES:  Multiple lines per depth step
~Well Information Block
#MNEM.UNIT        Data Type   Information
#---------- ----------------  -----------
STRT .F              2673.5:  START DEPTH
STOP .F                7526:  STOP DEPTH
STEP .F                 0.5:  STEP
NULL .              -999.25:  NULL VALUE
COMP .     CONOCO (UK) LTD.:  COMPANY
WELL .              15/19-9:  WELL
FLD  .          EXPLORATION:  FIELD
LOC  .     58 DEG 25 MIN 41.048 SEC N:  LOCATION
PROV .                 UKCS:  PROVINCE
SRVC .                ATLAS:  SERVICE COMPANY
DATE .     15-08-98 TO 09-09-98:  LOG DATE
UWI  .                27553:  UNIQUE WELL ID
~Curve Information Block
#MNEM.UNIT         API CODE   Curve Description
#---------- ----------------  -----------------
DEPTH.F                    :  Depth in Feet
CAL  .IN                   :  Edited Caliper from ZDL/CN/SL
CNC  .%            42995991:  Edited Neutron Porosity from ZDL/CN/SL
GR   .GAPI                 :  Edited Gamma Ray from ZDL/CN/SL
GRAM .API          99995991:  Edited Gamma Ray from MWD: MPR
K    .%            31719991:  Edited Potassium from ZDL/CN/SL
KTH  .GAPI         31995991:  Edited Potassium plus Thorium from ZDL/CN/SL
PE   .B/E                  :  Edited Photo-electric from ZDL/CN/SL
RACH .OHMM                 :  Edited Resistivity (AT) 2MHz BHC from MWD: MPR
RACL .OHMM                 :  Edited Resistivity (AT) 400kHz BHC from MWD: MPR
RASH .OHMM                 :  Edited Resistivity (AT) 2MHz BHC from MWD: MPR
RASL .OHMM                 :  Edited Resistivity (AT) 400kHz BHC from MWD: MPR
RPCH .OHMM                 :  Edited Resistivity (PD) 2MHz BHC from MWD: MPR
RPCL .OHMM                 :  Edited Resistivity (PD) 400kHz BHC from MWD: MPR
RPSH .OHMM                 :  Edited Resistivity (PD) 2MHz BHC from MWD: MPR
RPSL .OHMM                 :  Edited Resistivity (PD) 400kHz BHC from MWD: MPR
TH   .PPM          31790991:  Edited Thorium from ZDL/CN/SL
U    .PPM          31792991:  Edited Uranium from ZDL/CN/SL
ZCOR .G/C3                 :  Edited ZDL Density Correction from ZDL/CN/SL
ZDEN .G/C3                 :  Edited ZDL Bulk Density from ZDL/CN/SL
~Parameter Information Block
#MNEM.UNIT            Value   Description
#---------- ----------------  -----------
SET  .        COMP_WIRE_MWD:  
PROJECT.             90TH_I_1:  
API  .                     :  
COUN .            NORTH SEA:  
DATU .                  MSL:  
DMF  .                   DF:  
TDD  .F                7560:  
EDF  .F                  75:  
EKB  .F                  75:  
EPD  .F                   0:  
FN   .          EXPLORATION:  
LATI .       58 25'41.048"N:  
LCC  .                  150:  
LONG .       00 36'17.360"E:  
LMF  .                   DF:  
ORDU .                 FEET:  Units Of Measurement
PDAT .                  MSL:  Permanent Datum
RIG_NAME.            DRILLSTAR:  
SURF .F                -490:   
~Other Information Block
~Ascii Log Data
# ...
      7304.0000 
       12.1707        25.7317        56.9895        75.7644         3.1450 
       53.3348         4.9749         0.3970         0.4620         0.3760 
        0.4400         0.3650         0.4060         0.3550         0.3870 
        4.4881         0.0000         0.0112         2.1856 
      7304.5000 
       12.1718        21.1816        63.0229        79.5143         3.3553 
       59.6506         5.1477         0.4550         0.5020         0.4380 
        0.4700         0.4030         0.4820         0.4130         0.4270 
        5.7818         0.0000         0.0146         2.2204 
      7305.0000 
       12.1715        24.9147        70.2776        85.4284         3.4579 
       65.7622         5.3640         0.5190         0.5240         0.4910 
        0.5190         0.6070         0.5950         0.5700         0.5540 
        6.2901         0.0002         0.0217         2.2871 
      7305.5000 
       12.1753        35.6042        80.8801        94.0912         3.7062 
       74.5837         5.4232         0.5980         0.5510         0.5910 
        0.5580         1.0430         0.7550         0.9250         0.6950 
        6.7217         0.0167         0.0391         2.3651 
      7306.0000 
       12.1777        46.8375        90.5910       103.3833         4.0424 
       85.2135         5.3482         0.6830         0.5400         0.6300 
        0.5440         1.2570         0.7090         0.9700         0.6930 
        7.3709         0.0599         0.0570         2.4166 
      7306.5000 
       12.1537        49.9412        94.3115       111.9659         4.1072 
       91.7073         5.2936         0.7810         0.5890         0.8040 
        0.6410         1.3730         0.9540         1.2590         0.9460 
        7.5964         0.1057         0.0602         2.4237 
      7307.0000 
       12.1157        44.3203        94.0591       118.3282         4.0395 
       92.6379         4.9610         0.8170         0.5920         0.8580 
        0.6500         1.3820         0.9710         1.2960         0.9780 
        7.5415         0.1371         0.0439         2.3859 
      7307.5000 
       12.1181      -999.2500        91.5270       119.7496         3.9805 
       91.2809         4.3238         0.7780         0.5840         0.8130 
        0.6320         1.2980         0.9280         1.2000         0.9240 
        7.5605         0.1619         0.0203         2.3176 
      7308.0000 
       12.1910      -999.2500        83.6905       115.7563         3.8834 
       86.4393         3.9233         0.7040         0.5630         0.7240 
        0.5950         1.1170         0.8230         0.9740         0.8010 
        7.4418         0.1777         0.0087         2.2546 
      7308.5000 
       12.2825      -999.2500        70.3956       106.7937         3.6183 
       76.0726         3.9148         0.6490         0.5430         0.6650 
        0.5580         0.8450         0.7050         0.7310         0.6590 
        6.1563         0.1188         0.0100         2.2211 
      7309.0000 
       12.3298        27.2055        56.9624        95.1615         3.3131 
       62.6239         4.0273         0.5740         0.5110         0.5540 
        0.5070         0.5430         0.5350         0.4880         0.5040 
        4.2587         0.0316         0.0133         2.2094 
      7309.5000 
       12.3317        26.2515        48.3181        84.2879         3.1183 
       51.5142         4.1436         0.4280         0.4720         0.4120 
        0.4510         0.3700         0.4180         0.3590         0.3970 
        2.8586         0.0131         0.0123         2.2021 
      7310.0000 
       12.3255        26.4178        44.5390        75.6620         2.9859 
       45.4668         4.3756         0.3680         0.4430         0.3590 
        0.4110         0.3460         0.3750         0.3330         0.3500 
        2.0635         0.0285         0.0073         2.1914 
      7310.5000 
       12.3251        26.2377        43.4813        70.5153         2.9130 
       43.2642         4.6900         0.3550         0.4110         0.3380 
        0.3840         0.3440         0.3500         0.3190         0.3270 
        1.7811         0.0388         0.0032         2.1817 
      7311.0000 
       12.3177        25.8694        43.4398        69.7218         2.8676 
       42.8009         4.9766         0.3530         0.4000         0.3310 
        0.3730         0.3390         0.3430         0.3180         0.3220 
        1.5786         0.0418         0.0070         2.1853 
      7311.5000 
       12.2926        25.5068        44.4522        71.5595         2.8274 
       43.1650         5.3514         0.3520         0.4030         0.3300 
        0.3760         0.3360         0.3460         0.3240         0.3280 
        1.4238         0.0449         0.0177         2.2114 
      7312.0000 
       12.2620        25.4450        46.9316        75.4926         2.8368 
       44.9199         5.8516         0.3690         0.4180         0.3540 
        0.3930         0.3470         0.3640         0.3410         0.3520 
        1.4110         0.0414         0.0278         2.2533 
      7312.5000 
       12.2480        25.7624        50.2109        80.1683         2.9793 
       48.0196         6.1485         0.3860         0.4320         0.3770 
        0.4100         0.3880         0.4010         0.3870         0.3940 
        1.6943         0.0236         0.0305         2.2877 
      7313.0000 
       12.2499        25.7312        53.6750        84.5357         3.1509 
       51.5054         6.1053         0.4010         0.4430         0.3960 
        0.4240         0.4530         0.4450         0.4590         0.4340 
        2.0706         0.0062         0.0244         2.3002 
      7313.5000 
       12.2543        25.4922        56.8000        87.6847         3.2574 
       54.8799         6.0414         0.5090         0.4900         0.4930 
        0.4800         0.5620         0.5320         0.5450         0.5110 
        2.3764         0.0025         0.0177         2.3035 
      7314.0000 
       12.2627        26.2263        59.0032        88.8068         3.3054 
       57.5114         6.0392         0.5690         0.5200         0.5470 
        0.5240         0.5680         0.5740         0.5490         0.5480 
        2.6275         0.0107         0.0121         2.3104 
      7314.5000 
       12.2815        27.0265        59.8544        88.3067         3.2931 
       58.9995         5.9199         0.5670         0.5400         0.5600 
        0.5570         0.6430         0.6220         0.6180         0.6010 
        2.7811         0.0229        -0.0001         2.3118 
      7315.0000 
       12.3046        26.2267        59.7201        87.1628         3.2718 
       59.1558         5.6481         0.5920         0.5660         0.6050 
        0.5970         0.6750         0.6520         0.6640         0.6430 
        2.9216         0.0334        -0.0114         2.3049 
      7315.5000 
       12.3247        25.7604        60.2869        86.1780         3.2575 
       59.0786         5.4259         0.6560         0.5890         0.6570 
        0.6300         0.6100         0.6570         0.5900         0.6370 
        3.0817         0.0454        -0.0061         2.3079 
      7316.0000 
       12.3445        23.9958        62.4174        86.7553         3.2859 
       60.4315         5.4856         0.6610         0.5950         0.6520 
        0.6360         0.5960         0.6630         0.5960         0.6490 
        3.3787         0.0545         0.0122         2.3327 
      7316.5000 
       12.3664        22.7630        64.4966        89.7572         3.3523 
       62.7247         5.6412         0.6190         0.5820         0.6300 
        0.6190         0.6850         0.6930         0.6970         0.6910 
        3.7385         0.0622         0.0201         2.3578 
      7317.0000 
       12.3823        23.6263        65.6650        92.9086         3.3719 
       64.0724         5.4203         0.6150         0.5620         0.6330 
        0.5940         0.8030         0.7170         0.7920         0.7100 
        3.9121         0.0859         0.0082         2.3466 
