~Version Information Block
VERS .                 2.00:  CWLS LOG ASCII STANDARD - VERSION 2.00
WRAP .                  YES:  Multiple lines per depth step
~Well Information Block
#MNEM.UNIT        Data Type   Information
#---------- ----------------  -----------
STRT .F              2673.5:  START DEPTH
STOP .F                7526:  STOP DEPTH
STEP .F                 0.5:  STEP
NULL .              -999.25:  NULL VALUE
COMP .     CONOCO (UK) LTD.:  COMPANY
WELL .              15/19-9:  WELL
FLD  .          EXPLORATION:  FIELD
LOC  .     58 DEG 25 MIN 41.048 SEC N:  LOCATION
PROV .                 UKCS:  PROVINCE
SRVC .                ATLAS:  SERVICE COMPANY
DATE .     15-08-98 TO 09-09-98:  LOG DATE
UWI  .                27553:  UNIQUE WELL ID
~Curve Information Block
#MNEM.UNIT         API CODE   Curve Description
#---------- ----------------  -----------------
DEPTH.F                    :  Depth in Feet
CAL  .IN                   :  Edited Caliper from ZDL/CN/SL
CNC  .%            42995991:  Edited Neutron Porosity from ZDL/CN/SL
GR   .GAPI                 :  Edited Gamma Ray from ZDL/CN/SL
GRAM .API          99995991:  Edited Gamma Ray from MWD: MPR
K    .%            31719991:  Edited Potassium from ZDL/CN/SL
KTH  .GAPI         31995991:  Edited Potassium plus Thorium from ZDL/CN/SL
PE   .B/E                  :  Edited Photo-electric from ZDL/CN/SL
RACH .OHMM                 :  Edited Resistivity (AT) 2MHz BHC from MWD: MPR
RACL .OHMM                 :  Edited Resistivity (AT) 400kHz BHC from MWD: MPR
RASH .OHMM                 :  Edited Resistivity (AT) 2MHz BHC from MWD: MPR
RASL .OHMM                 :  Edited Resistivity (AT) 400kHz BHC from MWD: MPR
RPCH .OHMM                 :  Edited Resistivity (PD) 2MHz BHC from MWD: MPR
RPCL .OHMM                 :  Edited Resistivity (PD) 400kHz BHC from MWD: MPR
RPSH .OHMM                 :  Edited Resistivity (PD) 2MHz BHC from MWD: MPR
RPSL .OHMM                 :  Edited Resistivity (PD) 400kHz BHC from MWD: MPR
TH   .PPM          31790991:  Edited Thorium from ZDL/CN/SL
U    .PPM          31792991:  Edited Uranium from ZDL/CN/SL
ZCOR .G/C3                 :  Edited ZDL Density Correction from ZDL/CN/SL
ZDEN .G/C3                 :  Edited ZDL Bulk Density from ZDL/CN/SL
~Parameter Information Block
#MNEM.UNIT            Value   Description
#---------- ----------------  -----------
SET  .        COMP_WIRE_MWD:  
PROJECT.             90TH_I_1:  
API  .                     :  
COUN .            NORTH SEA:  
DATU .                  MSL:  
DMF  .                   DF:  
TDD  .F                7560:  
EDF  .F                  75:  
EKB  .F                  75:  
EPD  .F                   0:  
FN   .          EXPLORATION:  
LATI .       58 25'41.048"N:  
LCC  .                  150:  
LONG .       00 36'17.360"E:  
LMF  .                   DF:  
ORDU .                 FEET:  Units Of Measurement
PDAT .                  MSL:  Permanent Datum
RIG_NAME.            DRILLSTAR:  
SURF .F                -490:   
~Other Information Block
~Ascii Log Data
# ...
      7047.5000 
       10.9774        34.7235        77.6694        96.7781         4.1081 
       77.0994        12.9835         2.3940         2.3210         2.3050 
        2.3810         3.7250         2.9750         3.5800         2.7850 
        6.5158         0.0210         0.1377         2.3876 
      7048.0000 
       10.9703        36.0620        73.3090        98.7071         4.1254 
       72.8493        13.0279         2.6840         2.4460         2.5020 
        2.5290         4.5590         3.2570         3.7080         3.0580 
        6.3293         0.0096         0.1345         2.3872 
      7048.5000 
       10.9472        38.8360        74.0401       103.8568         4.1298 
       73.5962        13.0430         2.9490         2.5480         2.7260 
        2.6680         4.0800         3.0280         3.4160         2.8900 
        6.4845         0.0083         0.1178         2.3377 
      7049.0000 
       10.9225        42.0203        79.8363       108.6188         4.0944 
       79.1346        13.0954         2.9910         2.6890         2.9850 
        2.7270         3.4010         2.7910         2.5570         2.7410 
        7.0606         0.0431         0.0966         2.2862 
      7049.5000 
       10.9018        43.7558        85.3490       110.9314         4.0499 
       84.1716        13.1670         3.0780         2.7160         2.9500 
        2.8180         2.7240         2.7710         2.2930         2.6080 
        7.4119         0.1026         0.0854         2.2589 
      7050.0000 
       10.8664        43.4687        87.5252       112.1063         4.0277 
       86.0107        13.1929         3.0180         2.8050         2.8980 
        2.9220         2.6140         2.8010         2.2010         2.5200 
        7.3214         0.1425         0.0878         2.2533 
      7050.5000 
       10.8021        43.0093        87.3656       112.5700         4.0059 
       85.6960        13.1776         3.0390         2.8670         2.8730 
        3.0050         2.6290         2.8290         2.1350         2.5080 
        7.2076         0.1620         0.0955         2.2585 
      7051.0000 
       10.7394        43.0188        85.9150       110.8475         3.9824 
       84.2054        13.1512         3.0870         2.9080         2.8760 
        3.0670         2.7680         2.8860         2.2650         2.5650 
        6.9929         0.1715         0.1033         2.2655 
      7051.5000 
       10.7215        41.6671        83.2987       110.2498         3.9691 
       81.7535        13.1172         3.1780         3.0030         2.8850 
        3.1180         3.1670         3.1050         2.4910         2.8050 
        6.6810         0.1552         0.1095         2.2716 
      7052.0000 
       10.7724        37.6973        78.6139       107.2350         3.9187 
       77.5080        13.0479         3.1380         3.0390         2.9220 
        3.1350         3.4340         3.2230         2.9240         2.9950 
        6.2670         0.0971         0.1141         2.2806 
      7052.5000 
       10.8944        33.6720        71.7116       100.6868         3.7399 
       71.0819        12.9476         2.9540         3.0550         2.8500 
        3.1330         4.0120         3.4900         3.3600         3.2320 
        5.7453         0.0324         0.1180         2.2901 
      7053.0000 
       11.0514        26.7950        64.4883        92.6357         3.5104 
       64.0916        12.8574         2.8550         3.0940         2.7430 
        3.1110         4.7430         4.2740         4.2880         3.9050 
        5.4964         0.0055         0.1203         2.2923 
      7053.5000 
       11.1678        21.5368        59.2247        86.7240         3.3727 
       58.8945        12.8080         3.0330         3.1460         2.8560 
        3.1700         8.5860         4.6660         6.7090         4.2710 
        5.6199         0.0013         0.1208         2.2893 
      7054.0000 
       11.2142        21.1819        57.4309        82.7772         3.3312 
       57.1149        12.7754         3.3090         3.3280         3.0330 
        3.3270         8.3640         4.6980         6.6140         4.2410 
        5.7671         0.0005         0.1205         2.2887 
      7054.5000 
       11.2400        23.0415        60.4151        85.5451         3.3127 
       60.0774        12.7070         3.4900         3.4200         3.3050 
        3.3910         6.1850         4.4270         5.3400         3.8050 
        6.0543         0.0031         0.1140         2.2904 
      7055.0000 
       11.2815        26.3014        68.9538        91.9888         3.2794 
       68.2718        12.5827         3.6020         3.6240         3.2870 
        3.4920         4.8710         3.7620         3.7840         3.2600 
        7.3559         0.0506         0.0990         2.2923 
      7055.5000 
       11.3252        31.6335        78.0042        99.6977         3.2618 
       76.8741        12.3851         3.5750         3.8070         3.2070 
        3.6100         3.4380         3.3670         2.9380         2.7750 
        8.6983         0.1023         0.0851         2.2935 
      7056.0000 
       11.3712        36.8785        81.3808       105.5116         3.2503 
       79.9832        12.0695         3.6160         3.9510         3.1820 
        3.7040         2.8060         3.1480         2.2350         2.6330 
        8.8879         0.1280         0.0891         2.2957 
      7056.5000 
       11.4843        38.3352        79.4049       108.9912         3.2198 
       77.7550        11.6563         3.6650         4.1210         3.1770 
        3.8400         2.5270         3.1600         2.0580         2.5620 
        8.6653         0.1627         0.1036         2.3159 
      7057.0000 
       11.7122        35.6281        76.0616       108.8560         3.1868 
       74.2239        11.2363         3.9830         4.3760         3.3910 
        4.2470         2.6730         3.3090         2.1150         2.7650 
        8.3771         0.1960         0.1064         2.3803 
      7057.5000 
       11.9737        27.3762        71.4008       105.5036         3.1128 
       69.2631        10.7578         4.1640         4.6350         3.7910 
        4.3640         2.7430         3.6790         2.3870         2.9730 
        7.5752         0.2484         0.0957         2.4649 
      7058.0000 
       12.1470        18.7248        65.2342       100.0452         2.9782 
       62.6588         9.5660         4.6210         4.9090         4.1120 
        4.5570         3.7490         4.5940         3.2640         3.5850 
        5.9077         0.3190         0.0801         2.4728 
      7058.5000 
       12.2229        14.2354        60.5740        95.0266         2.8889 
       57.8188         7.9288         5.3150         5.2420         5.0230 
        5.0660         5.6900         5.2900         5.2690         4.7730 
        4.6355         0.3497         0.0555         2.3658 
      7059.0000 
       12.2243        12.7679        58.5802        89.7417         2.8733 
       55.9423         6.8682         6.3470         5.5780         6.0270 
        5.4010        10.9700         7.9980         9.2620         6.7060 
        4.2946         0.3368         0.0349         2.2421 
      7059.5000 
       12.1618        12.4818        56.4926        85.6597         2.8692 
       54.3004         6.3431         7.6010         5.9210         6.7470 
        6.0970        16.3080         9.6290        11.5890         9.5330 
        3.8779         0.2742         0.0197         2.1777 
      7060.0000 
       12.0876        12.4838        53.3608        82.3959         2.8599 
       51.8879         6.0605         9.1230         6.7850         9.0810 
        6.8550        19.6370        12.4480        15.7040        11.7830 
        3.3133         0.1723         0.0157         2.1598 
      7060.5000 
       12.0592        12.5064        50.8157        80.1402         2.8484 
       49.8509         5.8423        10.4760         7.1440        10.3540 
        7.5150        22.4670        13.5840        17.6250        14.3160 
        2.9555         0.1007         0.0164         2.1511 
