~Version Information Section
VERS.          2.0                                     : CWLS LOG ASCII Standard
WRAP.          NO                                      : One line per depth step
CREA.          01/08/16                                : LAS Creation Date
~Well Information Section
STRT.ft        492.5000                                : Start Depth
STOP.ft        11509.0000                              : Stop Depth
STEP.ft        0.5000                                  : Step
NULL.          -999.2500                               : Null Value
COMP.          ENTERPRISE OIL                          : Company
WELL.          15/19-5                                 : Well
FLD .          WILDCAT                                 : Field
LOC .          CENTRAL NORTH SEA                       : Location
LOC1.          6474668.67mN 36212.73mE                 : Location (UTM)
CTRY.          UK                                      : Country
PROV.          UKCS                                    : Province
UWI .          7073                                    : UWI Number
API .                                                  : API Number
SECT.                                                  : Section
TOWN.                                                  : Township
RNGE.                                                  : Range
PDAT.          MSL                                     : Perm Datum
EPD.           0.00                                    : Elevation
LMF .          RT                                      : Log Measured From
DMF .          RT                                      : Drill Measured From
APD .          83.00                                   : Above Perm Datum
EKB .ft        83.00                                   : Elev-Kelly Bushing
EDF .                                                  : Elev-Drill Floor
EGL .ft        -483.00                                 : Elev-Ground Level
TDD .ft        11500.00                                : Total Depth (Driller)
TDL .ft        11512.00                                : Total Depth (Logger)
LAT.           58 23 25.503 N                          : Latitude
LONG.          00 40 38.117 E                          : Longitude
DATE.          MAR-APR-1986                            : Date
SRVC.          SCHLUMBERGER                            : Service Company
PROJ.          UKCS                                    : Project
SET .          COMP WIRE                               : Set
~Curve Information Section
DEPTH.ft                                               : Depth Curve
CALI.in                                                : LDT Caliper 
CAL.in                                                 : DIL Caliper 
DRHO.g/c3                                              : Density Correction
DT.us/ft                                               : Delta-T 
GR.gAPI                                                : DIL Gamma Ray 
GRD.gAPI                                               : LDT Gamma Ray 
ILD.ohmm                                               : Deep Induction Standard Processed Resistivity
ILM.ohmm                                               : Medium Induction Standard Processed Resistivity
NPHI.%                                                 : Neutron Porosity
RHOB.g/c3                                              : Bulk Density
~ASCII Log Data Section
# ...
 5025.0000        17.5312        17.5313        -0.0140       137.7476        19.4209        19.4211         0.7505         0.8511      -999.2500         2.0920     
 5025.5000        17.5618        17.5625        -0.0179       137.5015        19.2068        19.2108         0.7505         0.8511      -999.2500         2.0881     
 5026.0000        17.5470        17.5469        -0.0070       137.8735        20.5115        20.5129         0.7505         0.8521      -999.2500         2.1000     
 5026.5000        17.5469        17.5469        -0.0120       137.6259        20.1251        20.1239         0.7500         0.8535      -999.2500         2.0960     
 5027.0000        17.5310        17.5313        -0.0080       137.7506        19.6227        19.6262         0.7505         0.8525      -999.2500         2.0940     
 5027.5000        17.5160        17.5156        -0.0120       138.1229        18.1770        18.1765         0.7510         0.8521      -999.2500         2.0900     
 5028.0000        17.5160        17.5156        -0.0130       137.7509        18.4860        18.4879         0.7524         0.8521      -999.2500         2.0920     
 5028.5000        17.5160        17.5156        -0.0120       137.7500        19.4673        19.4655         0.7539         0.8525      -999.2500         2.1000     
 5029.0000        17.5160        17.5156        -0.0060       137.7482        20.5126        20.5126         0.7544         0.8550      -999.2500         2.1040     
 5029.5000        17.5160        17.5156        -0.0070       137.0056        20.2967        20.2977         0.7559         0.8574      -999.2500         2.1000     
 5030.0000        17.5309        17.5313        -0.0120       137.6223        19.7356        19.7352         0.7573         0.8594      -999.2500         2.0980     
 5030.5000        17.5162        17.5156        -0.0140       137.1274        19.6726        19.6735         0.7578         0.8604      -999.2500         2.0960     
 5031.0000        17.5470        17.5469        -0.0150       137.3750        19.9039        19.9042         0.7588         0.8613      -999.2500         2.0860     
 5031.5000        17.5619        17.5625        -0.0090       137.6241        19.1535        19.1502         0.7588         0.8604      -999.2500         2.0920     
 5032.0000        17.5470        17.5469        -0.0070       137.5009        17.2670        17.2705         0.7588         0.8599      -999.2500         2.0940     
 5032.5000        17.5469        17.5469        -0.0100       137.7497        15.9428        15.9433         0.7573         0.8589      -999.2500         2.0960     
 5033.0000        17.5162        17.5156        -0.0080       137.8753        16.8265        16.8272         0.7563         0.8574      -999.2500         2.0900     
 5033.5000        17.5310        17.5313        -0.0130       138.1232        17.0620        17.0614         0.7559         0.8574      -999.2500         2.0820     
 5034.0000        17.5470        17.5469        -0.0060       137.6274        17.0733        17.0720         0.7554         0.8574      -999.2500         2.0900     
 5034.5000        17.5470        17.5469        -0.0100       137.8759        15.5948        15.5896         0.7568         0.8579      -999.2500         2.0860     
 5035.0000        17.5619        17.5625        -0.0020       138.4976        17.7912        17.7913         0.7573         0.8594      -999.2500         2.0920     
 5035.5000        17.5471        17.5469        -0.0010       138.3750        18.2195        18.2220         0.7568         0.8623      -999.2500         2.0920     
 5036.0000        17.5619        17.5625         0.0020       138.2524        18.9286        18.9324         0.7554         0.8642      -999.2500         2.1000     
 5036.5000        17.5471        17.5469        -0.0010       138.8774        16.8653        16.8656         0.7544         0.8628      -999.2500         2.0960     
 5037.0000        17.5620        17.5625         0.0050       140.4896        17.2618        17.2647         0.7544         0.8594      -999.2500         2.0920     
 5037.5000        17.5311        17.5313         0.0170       138.8780        16.4705        16.4707         0.7549         0.8560      -999.2500         2.0900     
 5038.0000        17.5309        17.5313         0.0349       138.5009        16.3934        16.3962         0.7544         0.8564      -999.2500         2.0999     
 5038.5000        17.5159        17.5156         0.0310       138.4994        17.4521        17.4520         0.7520         0.8560      -999.2500         2.0860     
 5039.0000        17.4223        17.4219         0.0150       138.2512        18.4229        18.4252         0.7495         0.8545      -999.2500         2.0780     
 5039.5000        17.4529        17.4531         0.0080       138.5015        19.8079        19.8087         0.7476         0.8525      -999.2500         2.0820     
 5040.0000        17.4690        17.4688         0.0030       139.3729        19.0335        19.0333         0.7471         0.8501      -999.2500         2.0920     
 5040.5000        17.5001        17.5000         0.0010       139.3758        19.1877        19.1890         0.7461         0.8472      -999.2500         2.0960     
 5041.0000        17.5310        17.5313        -0.0000       139.6184        19.6232        19.6235         0.7461         0.8438      -999.2500         2.0920     
 5041.5000        17.5779        17.5780        -0.0060       137.1353        19.3297        19.3314         0.7442         0.8413      -999.2500         2.1050     
 5042.0000        17.5940        17.5938        -0.0120       136.6226        19.7001        19.7021         0.7461         0.8413      -999.2500         2.1130     
 5042.5000        17.5472        17.5469        -0.0120       135.1314        18.7985        18.7984         0.7456         0.8428      -999.2500         2.1249     
 5043.0000        17.5621        17.5625        -0.0070       134.8891        18.0134        18.0084         0.7422         0.8452      -999.2500         2.1127     
 5043.5000        17.5941        17.5938        -0.0010       140.4768        16.3002        16.3014         0.7408         0.8447      -999.2500         2.0611     
 5044.0000        17.7332        17.7344         0.0050       138.8858        15.6294        15.6312         0.7514         0.8394      -999.2500         2.0020     
 5044.5000        17.6253        17.6250         0.0000       141.7377        16.7791        16.7782         0.7559         0.8384      -999.2500         1.9601     
 5045.0000        17.6557        17.6563         0.0010       139.4985        17.0645        17.0649         0.7573         0.8530      -999.2500         1.9900     
 5045.5000        17.5941        17.5938        -0.0060       136.6418        18.1715        18.1739         0.7593         0.8574      -999.2500         2.0251     
 5046.0000        17.5781        17.5781        -0.0020       140.7329        19.1379        19.1384         0.7573         0.8550      -999.2500         2.0699     
 5046.5000        17.6248        17.6250        -0.0090       137.7593        18.9830        18.9815         0.7534         0.8550      -999.2500         2.0680     
 5047.0000        17.5941        17.5938        -0.0070       138.6214        18.2631        18.2677         0.7539         0.8564      -999.2500         2.0780     
 5047.5000        17.5780        17.5781        -0.0060       138.3759        16.7536        16.7536         0.7534         0.8569      -999.2500         2.0760     
 5048.0000        17.5778        17.5781        -0.0020       138.5020        16.7322        16.7302         0.7520         0.8530      -999.2500         2.0820     
 5048.5000        17.5471        17.5469         0.0010       139.2482        16.0364        16.0350         0.7500         0.8486      -999.2500         2.0840     
 5049.0000        17.5311        17.5313         0.0030       139.2512        17.4858        17.4870         0.7471         0.8452      -999.2500         2.0840     
