~Version Information Section
VERS.          2.0                                     : CWLS LOG ASCII Standard
WRAP.          NO                                      : One line per depth step
CREA.          01/08/16                                : LAS Creation Date
~Well Information Section
STRT.ft        492.5000                                : Start Depth
STOP.ft        11509.0000                              : Stop Depth
STEP.ft        0.5000                                  : Step
NULL.          -999.2500                               : Null Value
COMP.          ENTERPRISE OIL                          : Company
WELL.          15/19-5                                 : Well
FLD .          WILDCAT                                 : Field
LOC .          CENTRAL NORTH SEA                       : Location
LOC1.          6474668.67mN 36212.73mE                 : Location (UTM)
CTRY.          UK                                      : Country
PROV.          UKCS                                    : Province
UWI .          7073                                    : UWI Number
API .                                                  : API Number
SECT.                                                  : Section
TOWN.                                                  : Township
RNGE.                                                  : Range
PDAT.          MSL                                     : Perm Datum
EPD.           0.00                                    : Elevation
LMF .          RT                                      : Log Measured From
DMF .          RT                                      : Drill Measured From
APD .          83.00                                   : Above Perm Datum
EKB .ft        83.00                                   : Elev-Kelly Bushing
EDF .                                                  : Elev-Drill Floor
EGL .ft        -483.00                                 : Elev-Ground Level
TDD .ft        11500.00                                : Total Depth (Driller)
TDL .ft        11512.00                                : Total Depth (Logger)
LAT.           58 23 25.503 N                          : Latitude
LONG.          00 40 38.117 E                          : Longitude
DATE.          MAR-APR-1986                            : Date
SRVC.          SCHLUMBERGER                            : Service Company
PROJ.          UKCS                                    : Project
SET .          COMP WIRE                               : Set
~Curve Information Section
DEPTH.ft                                               : Depth Curve
CALI.in                                                : LDT Caliper 
CAL.in                                                 : DIL Caliper 
DRHO.g/c3                                              : Density Correction
DT.us/ft                                               : Delta-T 
GR.gAPI                                                : DIL Gamma Ray 
GRD.gAPI                                               : LDT Gamma Ray 
ILD.ohmm                                               : Deep Induction Standard Processed Resistivity
ILM.ohmm                                               : Medium Induction Standard Processed Resistivity
NPHI.%                                                 : Neutron Porosity
RHOB.g/c3                                              : Bulk Density
~ASCII Log Data Section
# ...
 6985.0000        12.1619      -999.2500        -0.0072       121.5000        65.2500        58.7124         0.5370         0.5540        48.5487         2.3146     
 6985.5000        12.1715      -999.2500        -0.0117       122.6550        71.7024        62.7794         0.5691         0.5902        48.0386         2.3141     
 6986.0000        12.1645      -999.2500        -0.0195       118.0767        67.5135        53.0505         0.5949         0.6369        43.5965         2.3037     
 6986.5000        12.1640      -999.2500        -0.0209       113.6901        60.4238        46.9713         0.6079         0.6879        38.1419         2.2917     
 6987.0000        12.1490      -999.2500        -0.0162       109.9380        48.8440        34.5760         0.5950         0.7140        32.2393         2.2674     
 6987.5000        12.1114      -999.2500        -0.0170       104.5114        39.9880        25.0687         0.5650         0.6978        30.6913         2.2217     
 6988.0000        12.1090      -999.2500        -0.0199       102.6251        37.0394        20.3695         0.5309         0.6298        29.9285         2.1899     
 6988.5000        12.1165      -999.2500        -0.0219       101.6910        36.8755        18.4364         0.4941         0.5622        31.3500         2.1655     
 6989.0000        12.1094      -999.2500        -0.0154       102.0586        34.5534        19.0664         0.4459         0.5129        30.9837         2.1678     
 6989.5000        12.1090      -999.2500        -0.0104       101.0034        31.9145        18.6544         0.4051         0.4721        29.2152         2.1680     
 6990.0000        12.1024      -999.2500        -0.0081       100.2508        32.8111        19.1980         0.3711         0.4381        29.6536         2.1774     
 6990.5000        12.0870      -999.2500        -0.0184        99.7421        33.4410        19.1907         0.3541         0.4231        30.1458         2.1705     
 6991.0000        12.1011      -999.2500        -0.0209        97.7500        34.5000        20.6012         0.3590         0.4290        30.4059         2.1870     
 6991.5000        12.1161      -999.2500        -0.0257        98.6866        37.6140        23.0031         0.3791         0.4461        28.0236         2.2210     
 6992.0000        12.1170      -999.2500        -0.0175        98.2514        43.7613        26.4553         0.4059         0.4809        28.4315         2.2718     
 6992.5000        12.1320      -999.2500        -0.0161        99.0666        45.4532        28.2581         0.4510         0.5340        27.1351         2.2825     
 6993.0000        12.1255      -999.2500        -0.0131       101.3048        42.2603        25.7894         0.4869         0.5888        29.6206         2.2322     
 6993.5000        12.1175      -999.2500        -0.0111       103.7500        36.5000        21.7892         0.5130         0.6550        29.7390         2.1772     
 6994.0000        12.1170      -999.2500        -0.0110       103.3161        34.8989        17.4898         0.5349         0.7118        33.5494         2.1335     
 6994.5000        12.1095      -999.2500        -0.0110       103.8732        32.3831        17.3823         0.5191         0.7110        32.6410         2.1216     
 6995.0000        12.1090      -999.2500        -0.0119       102.8734        32.2463        17.7871         0.4780         0.6469        31.3745         2.1229     
 6995.5000        12.1090      -999.2500        -0.0082       101.3750        30.9840        20.0881         0.4290         0.5640        30.4729         2.1362     
 6996.0000        12.1090      -999.2500        -0.0071       100.5028        32.5260        20.4104         0.3841         0.4853        30.6035         2.1408     
 6996.5000        12.1090      -999.2500        -0.0032        99.7476        33.9600        19.1406         0.3430         0.4510        31.7191         2.1448     
 6997.0000        12.1090      -999.2500        -0.0086        98.7532        33.0649        18.0663         0.3141         0.4261        29.8184         2.1394     
 6997.5000        12.1090      -999.2500        -0.0081        97.7478        33.3728        18.2652         0.2929         0.3919        29.7333         2.1494     
 6998.0000        12.1090      -999.2500        -0.0080        97.0581        32.6835        18.5752         0.2780         0.3710        29.3694         2.1613     
 6998.5000        12.1090      -999.2500        -0.0061        96.2526        31.7370        18.6824         0.2750         0.3650        30.2642         2.1676     
 6999.0000        12.1090      -999.2500        -0.0117        95.6282        33.0499        18.5843         0.2780         0.3710        28.2051         2.1642     
 6999.5000        12.1090      -999.2500        -0.0149        95.8742        31.4113        19.7352         0.2850         0.3810        28.5800         2.1565     
 7000.0000        12.1090      -999.2500        -0.0131        95.7500        32.9060        20.0338         0.2950         0.3920        28.3365         2.1711     
 7000.5000        12.1090      -999.2500        -0.0111        94.3071        31.8156        20.6775         0.3120         0.4050        29.4197         2.1870     
 7001.0000        12.1024      -999.2500        -0.0156        92.8168        34.1804        19.5006         0.3289         0.4180        27.7493         2.2002     
 7001.5000        12.1085      -999.2500        -0.0198        91.6267        35.2436        20.6002         0.3480         0.4360        26.5790         2.1991     
 7002.0000        12.1090      -999.2500        -0.0219        91.1880        34.6250        19.6723         0.3700         0.4540        25.6412         2.1896     
 7002.5000        12.1024      -999.2500        -0.0163        91.8778        35.2145        19.7712         0.3850         0.4620        26.8279         2.1880     
 7003.0000        12.1020      -999.2500        -0.0141        93.4365        34.4180        19.5007         0.3950         0.4700        28.6092         2.1861     
 7003.5000        12.1020      -999.2500        -0.0102        93.9982        35.9012        20.2187         0.3980         0.4770        29.5825         2.1889     
 7004.0000        12.1086      -999.2500        -0.0184        94.6260        33.3743        20.6492         0.3930         0.4810        28.8092         2.1806     
 7004.5000        12.1024      -999.2500        -0.0236        94.9380        33.1560        20.6870         0.3840         0.4740        28.3462         2.1725     
 7005.0000        12.1020      -999.2500        -0.0259        95.2514        33.8443        20.5845         0.3740         0.4580        27.8609         2.1645     
 7005.5000        12.1020      -999.2500        -0.0241        96.0015        34.6271        20.8124         0.3620         0.4420        28.2437         2.1640     
 7006.0000        12.1020      -999.2500        -0.0211        96.6230        35.3417        20.3584         0.3530         0.4350        28.2709         2.1678     
 7006.5000        12.1020      -999.2500        -0.0200        97.7518        32.9753        19.9442         0.3460         0.4290        29.2873         2.1642     
 7007.0000        12.1085      -999.2500        -0.0181        98.3102        34.9317        20.7147         0.3400         0.4260        30.1253         2.1602     
 7007.5000        12.1024      -999.2500        -0.0151        99.1182        35.7208        19.9717         0.3390         0.4320        31.5541         2.1487     
 7008.0000        12.1020      -999.2500        -0.0084        97.8162        37.0577        20.8313         0.3430         0.4400        31.2738         2.1518     
 7008.5000        12.1085      -999.2500        -0.0051        97.7500        36.3440        19.4187         0.3490         0.4500        29.8701         2.1558     
 7009.0000        12.1090      -999.2500        -0.0012        96.6265        34.2481        18.5328         0.3591         0.4621        29.2792         2.1654     
