~Version Information Section
VERS.          2.0                                     : CWLS LOG ASCII Standard
WRAP.          NO                                      : One line per depth step
CREA.          01/08/16                                : LAS Creation Date
~Well Information Section
STRT.ft        492.5000                                : Start Depth
STOP.ft        11509.0000                              : Stop Depth
STEP.ft        0.5000                                  : Step
NULL.          -999.2500                               : Null Value
COMP.          ENTERPRISE OIL                          : Company
WELL.          15/19-5                                 : Well
FLD .          WILDCAT                                 : Field
LOC .          CENTRAL NORTH SEA                       : Location
LOC1.          6474668.67mN 36212.73mE                 : Location (UTM)
CTRY.          UK                                      : Country
PROV.          UKCS                                    : Province
UWI .          7073                                    : UWI Number
API .                                                  : API Number
SECT.                                                  : Section
TOWN.                                                  : Township
RNGE.                                                  : Range
PDAT.          MSL                                     : Perm Datum
EPD.           0.00                                    : Elevation
LMF .          RT                                      : Log Measured From
DMF .          RT                                      : Drill Measured From
APD .          83.00                                   : Above Perm Datum
EKB .ft        83.00                                   : Elev-Kelly Bushing
EDF .                                                  : Elev-Drill Floor
EGL .ft        -483.00                                 : Elev-Ground Level
TDD .ft        11500.00                                : Total Depth (Driller)
TDL .ft        11512.00                                : Total Depth (Logger)
LAT.           58 23 25.503 N                          : Latitude
LONG.          00 40 38.117 E                          : Longitude
DATE.          MAR-APR-1986                            : Date
SRVC.          SCHLUMBERGER                            : Service Company
PROJ.          UKCS                                    : Project
SET .          COMP WIRE                               : Set
~Curve Information Section
DEPTH.ft                                               : Depth Curve
CALI.in                                                : LDT Caliper 
CAL.in                                                 : DIL Caliper 
DRHO.g/c3                                              : Density Correction
DT.us/ft                                               : Delta-T 
GR.gAPI                                                : DIL Gamma Ray 
GRD.gAPI                                               : LDT Gamma Ray 
ILD.ohmm                                               : Deep Induction Standard Processed Resistivity
ILM.ohmm                                               : Medium Induction Standard Processed Resistivity
NPHI.%                                                 : Neutron Porosity
RHOB.g/c3                                              : Bulk Density
~ASCII Log Data Section
# ...
11468.5000        14.5944      -999.2500        -0.0043       112.5690        90.1160        87.1005        10.1653        11.8705        48.1014         1.8501     
11469.0000        13.2373      -999.2500        -0.0093        94.1400       108.1851       110.6982         9.9222        10.9760        40.5464         2.0032     
11469.5000        12.4123      -999.2500         0.0014        72.0169       119.5516       137.0249         9.7974        10.1696        37.6566         2.2530     
11470.0000        12.3520      -999.2500         0.0060        71.3566       116.8764       158.0182         9.5542        10.0548        34.1236         2.4982     
11470.5000        12.3504      -999.2500         0.0048        65.6265       117.3081       170.9751         9.3118         9.9925        37.6903         2.5834     
11471.0000        12.3322      -999.2500        -0.0074        65.9370       116.5026       169.7995         9.2731        10.0937        39.2163         2.6007     
11471.5000        12.3040      -999.2500        -0.0113        68.0617       110.9841       160.9209         9.4234        10.4148        41.1458         2.6416     
11472.0000        12.2935      -999.2500        -0.0134        69.4336       103.9605       146.8438         9.8187        10.8038        41.3272         2.6730     
11472.5000        12.2730      -999.2500        -0.0090        69.4380        90.3750       134.1792        10.2340        11.0780        40.7748         2.6645     
11473.0000        12.2691      -999.2500        -0.0033      -999.2500        86.9427       126.3551        10.8212        11.6902        40.0876         2.6429     
11473.5000        12.2501      -999.2500        -0.0004      -999.2500        85.9412       118.8484        11.3035        12.3419        39.2195         2.6259     
11474.0000        12.2533      -999.2500         0.0007      -999.2500        91.3854       118.6933        11.8372        12.9640        39.3509         2.6256     
11474.5000        12.2625      -999.2500         0.0083      -999.2500        97.2500       118.1230        12.4450        14.0230        39.0184         2.6430     
11475.0000        12.2557      -999.2500         0.0177      -999.2500       100.2330       118.5314        13.0545        15.0546        38.3368         2.6501     
11475.5000        12.2769      -999.2500         0.0275      -999.2500        97.9533       118.3605        13.4987        15.9513        34.8512         2.6640     
11476.0000        12.2826      -999.2500         0.0100      -999.2500        99.1840       121.1976        13.5159        16.1404        31.6285         2.6324     
11476.5000        12.2549      -999.2500         0.0070      -999.2500        97.1870       131.1578        13.2643        15.7623        27.5019         2.6211     
11477.0000        12.2246      -999.2500         0.0076      -999.2500        96.8750       137.8497        12.7190        14.6090        25.1744         2.6134     
11477.5000        12.2282      -999.2500         0.0094      -999.2500        90.2270       144.4309        11.7975        13.0712        23.7906         2.6178     
11478.0000        12.2422      -999.2500         0.0044      -999.2500        95.7166       142.4037        11.0208        11.9007        22.6896         2.6085     
11478.5000        12.2318      -999.2500        -0.0030      -999.2500       102.9767       133.0904        10.2913        10.4816        21.1813         2.5906     
11479.0000        12.2533      -999.2500        -0.0073      -999.2500       100.8104       118.8351         9.7799         9.9048        19.8412         2.5793     
11479.5000        12.2648      -999.2500        -0.0026      -999.2500      -999.2500       111.3128         9.4540         9.5402        20.5463         2.5832     
11480.0000        12.2500      -999.2500         0.0073      -999.2500      -999.2500       120.2269         9.0382         9.5071        23.8043         2.5927     
11480.5000        12.2595      -999.2500         0.0102      -999.2500      -999.2500       134.8147         8.3851         9.2040        27.7572         2.5932     
11481.0000        12.2705      -999.2500         0.0082      -999.2500      -999.2500       144.6354         7.7070         8.7730        32.8326         2.5895     
11481.5000        12.2592      -999.2500         0.0009      -999.2500      -999.2500       142.1371         6.9140         8.2465        36.0873         2.5792     
11482.0000        12.2536      -999.2500        -0.0050      -999.2500      -999.2500       128.4268         6.3767         7.1794        34.4386         2.5700     
11482.5000        12.2580      -999.2500        -0.0059      -999.2500      -999.2500       107.5582         6.4258         5.8391        28.1948         2.5691     
11483.0000        12.2467      -999.2500        -0.0041      -999.2500      -999.2500        92.2053         6.4260         5.4730        23.8801         2.5624     
11483.5000        12.2497      -999.2500         0.0029      -999.2500      -999.2500        93.9537         6.3120         5.9060        25.7508         2.5315     
11484.0000        12.2729      -999.2500         0.0299      -999.2500      -999.2500       106.2007         6.2268         6.6113        32.4664         2.5121     
11484.5000        12.3058      -999.2500         0.0571      -999.2500      -999.2500      -999.2500         6.1293         6.7376        37.9930         2.5242     
11485.0000        12.3111      -999.2500         0.0495      -999.2500      -999.2500      -999.2500         6.2122         7.2735        38.7450         2.5520     
11485.5000        12.2709      -999.2500         0.0181      -999.2500      -999.2500      -999.2500         6.6600         7.9770        34.8394         2.5831     
11486.0000        12.2322      -999.2500         0.0001      -999.2500      -999.2500      -999.2500         7.0029         8.5532        29.3766         2.6109     
11486.5000        12.2144      -999.2500         0.0046      -999.2500      -999.2500      -999.2500         6.9837         8.5835        26.1924         2.6342     
11487.0000        12.2250      -999.2500         0.0078      -999.2500      -999.2500      -999.2500         6.9102         8.0876        24.8643         2.6304     
11487.5000        12.2388      -999.2500         0.0058      -999.2500      -999.2500      -999.2500         6.7533         7.4124        25.3594         2.6002     
11488.0000        12.2323      -999.2500         0.0013      -999.2500      -999.2500      -999.2500         6.5520         6.9262        28.8801         2.5473     
11488.5000        12.2219      -999.2500         0.0003      -999.2500      -999.2500      -999.2500         6.6128         6.7157        34.0095         2.5113     
11489.0000        12.2190      -999.2500         0.0000      -999.2500      -999.2500      -999.2500         6.7545         6.9517        37.4959         2.5131     
11489.5000        12.2347      -999.2500        -0.0010      -999.2500      -999.2500      -999.2500         6.9450         7.6840        34.8221         2.5527     
11490.0000        12.2583      -999.2500        -0.0024      -999.2500      -999.2500      -999.2500         7.5510         8.5230        30.1429         2.5876     
11490.5000        12.2604      -999.2500        -0.0002      -999.2500      -999.2500      -999.2500         8.2611         9.6594        28.1545         2.6053     
11491.0000        12.2466      -999.2500        -0.0004      -999.2500      -999.2500      -999.2500         9.1063        10.7625        29.0288         2.5915     
11491.5000        12.2309      -999.2500        -0.0020      -999.2500      -999.2500      -999.2500         9.7965        11.3831        30.6887         2.5418     
11492.0000        12.2379      -999.2500         0.0054      -999.2500      -999.2500      -999.2500        10.1640        11.8280        31.3696         2.4934     
11492.5000        12.2360      -999.2500         0.0060      -999.2500      -999.2500      -999.2500        10.4443        12.8038        32.2146         2.4805     
