~Version Information Section
VERS.          2.0                                     : CWLS LOG ASCII Standard
WRAP.          NO                                      : One line per depth step
CREA.          01/08/16                                : LAS Creation Date
~Well Information Section
STRT.ft        492.5000                                : Start Depth
STOP.ft        11509.0000                              : Stop Depth
STEP.ft        0.5000                                  : Step
NULL.          -999.2500                               : Null Value
COMP.          ENTERPRISE OIL                          : Company
WELL.          15/19-5                                 : Well
FLD .          WILDCAT                                 : Field
LOC .          CENTRAL NORTH SEA                       : Location
LOC1.          6474668.67mN 36212.73mE                 : Location (UTM)
CTRY.          UK                                      : Country
PROV.          UKCS                                    : Province
UWI .          7073                                    : UWI Number
API .                                                  : API Number
SECT.                                                  : Section
TOWN.                                                  : Township
RNGE.                                                  : Range
PDAT.          MSL                                     : Perm Datum
EPD.           0.00                                    : Elevation
LMF .          RT                                      : Log Measured From
DMF .          RT                                      : Drill Measured From
APD .          83.00                                   : Above Perm Datum
EKB .ft        83.00                                   : Elev-Kelly Bushing
EDF .                                                  : Elev-Drill Floor
EGL .ft        -483.00                                 : Elev-Ground Level
TDD .ft        11500.00                                : Total Depth (Driller)
TDL .ft        11512.00                                : Total Depth (Logger)
LAT.           58 23 25.503 N                          : Latitude
LONG.          00 40 38.117 E                          : Longitude
DATE.          MAR-APR-1986                            : Date
SRVC.          SCHLUMBERGER                            : Service Company
PROJ.          UKCS                                    : Project
SET .          COMP WIRE                               : Set
~Curve Information Section
DEPTH.ft                                               : Depth Curve
CALI.in                                                : LDT Caliper 
CAL.in                                                 : DIL Caliper 
DRHO.g/c3                                              : Density Correction
DT.us/ft                                               : Delta-T 
GR.gAPI                                                : DIL Gamma Ray 
GRD.gAPI                                               : LDT Gamma Ray 
ILD.ohmm                                               : Deep Induction Standard Processed Resistivity
ILM.ohmm                                               : Medium Induction Standard Processed Resistivity
NPHI.%                                                 : Neutron Porosity
RHOB.g/c3                                              : Bulk Density
~ASCII Log Data Section
# ...
10194.5000        12.5812      -999.2500        -0.0022        87.1250        57.0000        51.9717         1.7190         1.9200        24.2777         2.3484     
10195.0000        12.5860      -999.2500        -0.0018        87.5610        57.8115        59.3285         1.7240         1.9260        24.7055         2.3468     
10195.5000        12.5828      -999.2500        -0.0022        87.6781        58.4736        61.4667         1.7340         1.9390        23.9923         2.3536     
10196.0000        12.5812      -999.2500         0.0006        86.1928        59.5276        58.4516         1.7450         1.9510        23.2451         2.3686     
10196.5000        12.5860      -999.2500         0.0022        84.9972        60.6602        54.6487         1.7500         1.9580        23.8942         2.3802     
10197.0000        12.5892      -999.2500         0.0000        84.1278        61.9648        55.2988         1.7420         1.9570        24.9691         2.3874     
10197.5000        12.6090      -999.2500        -0.0008        80.8782        61.2850        58.3063         1.7490         1.9540        24.9561         2.3949     
10198.0000        12.6448      -999.2500         0.0004        78.6322        61.8422        60.9209         1.7570         1.9610        23.0179         2.4111     
10198.5000        12.6703      -999.2500         0.0014        78.1880        60.3440        57.5832         1.7570         1.9770        21.2296         2.4241     
10199.0000        12.6673      -999.2500        -0.0036        80.7685        59.4200        51.9397         1.7470         1.9749        21.4048         2.4093     
10199.5000        12.6425      -999.2500        -0.0068        86.2943        61.6807        51.0350         1.7350         1.9610        22.5671         2.3810     
10200.0000        12.6058      -999.2500        -0.0072        91.3070        64.1888        59.0508         1.7270         1.9680        23.9153         2.3516     
10200.5000        12.5502      -999.2500        -0.0068        94.7500        66.9380        61.5070         1.7230         1.9690        24.1982         2.3357     
10201.0000        12.5497      -999.2500        -0.0078        95.8120        65.8750        61.7372         1.7320         1.9600        24.7901         2.3268     
10201.5000        12.5903      -999.2500        -0.0072        95.8084        63.4438        60.0051         1.7420         1.9590        24.9376         2.3327     
10202.0000        12.6058      -999.2500        -0.0034        95.0644        63.0323        64.0893         1.7570         1.9640        25.4329         2.3486     
10202.5000        12.5989      -999.2500        -0.0008        93.4398        62.1247        65.1555         1.7580         1.9800        24.8815         2.3602     
10203.0000        12.5608      -999.2500        -0.0010        92.3750        61.1250        63.6333         1.7490         2.0020        24.4962         2.3559     
10203.5000        12.4959      -999.2500        -0.0015        92.9362        59.0686        62.6178         1.7331         2.0269        23.8309         2.3489     
10204.0000        12.4771      -999.2500        -0.0030        92.2492        56.6897        62.6971         1.7210         2.0158        23.2372         2.3448     
10204.5000        12.4770      -999.2500        -0.0030        91.6270        55.4729        60.7521         1.7110         1.9711        23.8546         2.3483     
10205.0000        12.4770      -999.2500        -0.0030        93.1258        56.1732        60.4850         1.7140         1.9289        24.7752         2.3528     
10205.5000        12.4770      -999.2500        -0.0061        93.3828        61.5299        59.6688         1.7049         1.8898        25.6991         2.3486     
10206.0000        12.4770      -999.2500        -0.0115        95.1822        64.0539        59.7929         1.6791         1.8382        26.0107         2.3385     
10206.5000        12.4770      -999.2500        -0.0157        96.0616        64.0583        58.9665         1.6369         1.7890        25.8306         2.3345     
10207.0000        12.4709      -999.2500        -0.0162        96.5620        63.2810        59.9123         1.5910         1.7460        25.7369         2.3351     
10207.5000        12.4580      -999.2500        -0.0150        97.1250        64.6250        64.3548         1.5570         1.7050        25.7329         2.3362     
10208.0000        12.4530      -999.2500        -0.0142        98.5578        66.2480        64.7189         1.5320         1.6619        25.7546         2.3270     
10208.5000        12.4560      -999.2500        -0.0138        98.6248        66.7484        63.4377         1.5151         1.6231        25.5734         2.3183     
10209.0000        12.4610      -999.2500        -0.0152        98.9349        65.3002        55.2266         1.5030         1.6010        25.5143         2.3120     
10209.5000        12.4610      -999.2500        -0.0148        98.5000        61.8440        47.4866         1.4940         1.5900        25.3224         2.3102     
10210.0000        12.4550      -999.2500        -0.0152        98.7476        59.8508        43.1239         1.4860         1.5810        26.3334         2.3090     
10210.5000        12.4510      -999.2500        -0.0125        98.2547        59.9976        44.6132         1.4790         1.5800        27.0901         2.3105     
10211.0000        12.4610      -999.2500        -0.0103        98.7484        64.5474        49.8554         1.4740         1.5840        27.5428         2.3150     
10211.5000        12.4610      -999.2500        -0.0100        98.6218        65.9410        56.9664         1.4710         1.5780        27.3307         2.3244     
10212.0000        12.4610      -999.2500        -0.0100        97.6282        66.8720        61.7117         1.4740         1.5780        26.6462         2.3342     
10212.5000        12.4610      -999.2500        -0.0100        97.3096        65.7552        63.0975         1.4870         1.5850        26.6543         2.3365     
10213.0000        12.4698      -999.2500        -0.0103        96.2418        66.2493        58.4134         1.5041         1.5971        26.8405         2.3347     
10213.5000        12.4869      -999.2500        -0.0065        93.8120        66.4380        54.7474         1.5350         1.6320        26.1396         2.3382     
10214.0000        12.4920      -999.2500        -0.0018        92.4374        66.1864        54.2535         1.5802         1.6973        24.9349         2.3479     
10214.5000        12.4920      -999.2500         0.0010        92.2506        65.6896        53.4850         1.6318         1.7867        23.3756         2.3584     
10215.0000        12.4920      -999.2500        -0.0007        91.3706        65.1886        53.9563         1.6990         1.9229        23.5336         2.3660     
10215.5000        12.4920      -999.2500        -0.0024        89.1322        64.8760        53.5268         1.7618         2.0287        23.5039         2.3917     
10216.0000        12.5008      -999.2500        -0.0033        85.3120        62.6560        52.4347         1.8340         2.1170        21.9075         2.4454     
10216.5000        12.5188      -999.2500        -0.0056        79.6192        60.8306        47.9638         1.9272         2.1840        19.4596         2.4923     
10217.0000        12.5230      -999.2500        -0.0120        74.6409        56.8568        42.9733         2.0307         2.2378        18.2696         2.4938     
10217.5000        12.5209      -999.2500        -0.0130        76.4520        54.9842        46.7320         2.1050         2.3010        19.9465         2.4600     
10218.0000        12.5017      -999.2500        -0.0101        82.6250        57.8440        53.9010         2.1660         2.3650        23.2112         2.4193     
10218.5000        12.4685      -999.2500        -0.0064        90.4380        61.1250        58.9694         2.1880         2.4470        25.5373         2.3908     
