~Version Information Section
VERS.          2.0                                     : CWLS LOG ASCII Standard
WRAP.          NO                                      : One line per depth step
CREA.          01/08/16                                : LAS Creation Date
~Well Information Section
STRT.ft        492.5000                                : Start Depth
STOP.ft        11509.0000                              : Stop Depth
STEP.ft        0.5000                                  : Step
NULL.          -999.2500                               : Null Value
COMP.          ENTERPRISE OIL                          : Company
WELL.          15/19-5                                 : Well
FLD .          WILDCAT                                 : Field
LOC .          CENTRAL NORTH SEA                       : Location
LOC1.          6474668.67mN 36212.73mE                 : Location (UTM)
CTRY.          UK                                      : Country
PROV.          UKCS                                    : Province
UWI .          7073                                    : UWI Number
API .                                                  : API Number
SECT.                                                  : Section
TOWN.                                                  : Township
RNGE.                                                  : Range
PDAT.          MSL                                     : Perm Datum
EPD.           0.00                                    : Elevation
LMF .          RT                                      : Log Measured From
DMF .          RT                                      : Drill Measured From
APD .          83.00                                   : Above Perm Datum
EKB .ft        83.00                                   : Elev-Kelly Bushing
EDF .                                                  : Elev-Drill Floor
EGL .ft        -483.00                                 : Elev-Ground Level
TDD .ft        11500.00                                : Total Depth (Driller)
TDL .ft        11512.00                                : Total Depth (Logger)
LAT.           58 23 25.503 N                          : Latitude
LONG.          00 40 38.117 E                          : Longitude
DATE.          MAR-APR-1986                            : Date
SRVC.          SCHLUMBERGER                            : Service Company
PROJ.          UKCS                                    : Project
SET .          COMP WIRE                               : Set
~Curve Information Section
DEPTH.ft                                               : Depth Curve
CALI.in                                                : LDT Caliper 
CAL.in                                                 : DIL Caliper 
DRHO.g/c3                                              : Density Correction
DT.us/ft                                               : Delta-T 
GR.gAPI                                                : DIL Gamma Ray 
GRD.gAPI                                               : LDT Gamma Ray 
ILD.ohmm                                               : Deep Induction Standard Processed Resistivity
ILM.ohmm                                               : Medium Induction Standard Processed Resistivity
NPHI.%                                                 : Neutron Porosity
RHOB.g/c3                                              : Bulk Density
~ASCII Log Data Section
# ...
10831.5000        12.5940      -999.2500        -0.0030        88.1171        41.2806        26.1398         2.4259         2.8399        38.9303         2.3777     
10832.0000        12.5940      -999.2500        -0.0044        86.7500        41.8750        27.6978         2.4000         2.7990        40.0309         2.3828     
10832.5000        12.5940      -999.2500        -0.0074        87.3750        39.0000        29.9495         2.3790         2.7170        40.3945         2.3931     
10833.0000        12.5968      -999.2500        -0.0126        87.6740        39.5482        29.6513         2.3853         2.6429        38.5173         2.4092     
10833.5000        12.6090      -999.2500        -0.0053        85.6316        42.5214        29.0739         2.4299         2.5961        35.6335         2.4367     
10834.0000        12.6118      -999.2500         0.0030        88.9315        43.9789        27.4181         2.5202         2.6508        35.6192         2.4478     
10834.5000        12.6305      -999.2500         0.0030        89.8120        47.0310        25.4377         2.6250         2.8550        37.5277         2.4302     
10835.0000        12.6507      -999.2500         0.0023        87.0082        44.7241        26.1472         2.7622         3.1412        40.0453         2.4068     
10835.5000        12.6172      -999.2500        -0.0006        86.7445        43.9885        24.9647         2.9742         3.4915        42.4743         2.3787     
10836.0000        12.5727      -999.2500        -0.0003        85.7532        41.8190        25.5925         3.2671         3.9027        42.5575         2.3643     
10836.5000        12.5470      -999.2500        -0.0027        87.1361        43.4763        26.3886         3.6221         4.3919        41.4963         2.3492     
10837.0000        12.5521      -999.2500        -0.0053        90.6138        45.7736        26.8119         3.9519         4.6871        40.2540         2.3357     
10837.5000        12.5779      -999.2500        -0.0017        90.6828        48.7994        26.2080         4.1719         4.8634        40.3348         2.3360     
10838.0000        12.5806      -999.2500         0.0056        89.1392        47.8955        25.6713         4.3670         5.1484        41.4204         2.3479     
10838.5000        12.6003      -999.2500         0.0090        91.0620        45.0940        26.8857         4.5040         5.4140        40.5190         2.3567     
10839.0000        12.6290      -999.2500         0.0130        91.8152        39.4041        27.8703         4.6091         5.6460        39.2098         2.3517     
10839.5000        12.6077      -999.2500         0.0083        92.8088        38.8139        29.5029         4.6289         5.9401        39.5199         2.3321     
10840.0000        12.5994      -999.2500         0.0090        90.9452        40.9072        27.8186         4.4880         5.7219        42.3171         2.3243     
10840.5000        12.5886      -999.2500         0.0024        91.3108        43.3671        27.0551         4.3325         5.1658        41.8342         2.3404     
10841.0000        12.6020      -999.2500        -0.0016        93.7500        42.2500        25.0614         4.2300         4.7850        39.2099         2.3653     
10841.5000        12.6007      -999.2500        -0.0050        93.5716        38.3565        25.0363         3.9253         4.7805        38.3794         2.3757     
10842.0000        12.5953      -999.2500        -0.0050        95.4320        38.3440        26.3719         3.5771         4.6684        40.6564         2.3668     
10842.5000        12.6042      -999.2500        -0.0053        94.1743        38.3871        27.4093         3.2687         4.3114        40.5946         2.3563     
10843.0000        12.6170      -999.2500        -0.0086        88.6250        42.2190        27.2470         3.1640         3.7680        38.4452         2.3642     
10843.5000        12.6158      -999.2500        -0.0123        88.0020        40.8793        24.8175         3.1251         3.4351        34.7591         2.3716     
10844.0000        12.6090      -999.2500        -0.0133        91.0516        42.0082        22.6301         3.0609         3.4448        36.5444         2.3716     
10844.5000        12.6090      -999.2500        -0.0141        90.9384        44.4531        23.1196         2.9902         3.4081        39.1844         2.3504     
10845.0000        12.6068      -999.2500        -0.0087        95.9984        46.6872        23.2584         2.8979         3.3107        44.1132         2.3284     
10845.5000        12.5846      -999.2500        -0.0083        95.4970        46.4184        26.4685         2.8590         3.2069        43.6865         2.3227     
10846.0000        12.5300      -999.2500        -0.0096        94.8770        42.3251        27.0576         2.8690         3.1891        42.9816         2.3428     
10846.5000        12.5230      -999.2500        -0.0133        94.4519        39.8158        29.0014         2.8694         3.2210        39.4834         2.3730     
10847.0000        12.5230      -999.2500        -0.0141        97.0536        38.9408        26.7161         2.9587         3.2499        39.2716         2.3841     
10847.5000        12.5197      -999.2500        -0.0084        97.8750        39.8120        25.5177         3.1020         3.4280        39.4507         2.3769     
10848.0000        12.4966      -999.2500        -0.0037        97.0052        41.9981        24.2912         3.2423         3.6763        41.9626         2.3647     
10848.5000        12.4779      -999.2500        -0.0023        97.3738        42.8094        24.7794         3.3606         3.8455        43.9573         2.3624     
10849.0000        12.4851      -999.2500        -0.0049        98.1297        43.9342        24.6620         3.3316         3.8979        44.1692         2.3575     
10849.5000        12.4931      -999.2500        -0.0084        99.6250        43.9060        24.0652         3.2320         3.9160        41.6437         2.3497     
10850.0000        12.5023      -999.2500        -0.0037        99.5622        45.8713        25.0706         3.1351         3.7905        42.5201         2.3610     
10850.5000        12.5160      -999.2500        -0.0026        97.6814        46.6923        27.7910         3.0546         3.4931        43.3589         2.3782     
10851.0000        12.5160      -999.2500        -0.0058        95.6944        47.7775        28.7944         2.9473         3.2019        46.3867         2.4096     
10851.5000        12.5214      -999.2500        -0.0107        93.0568        47.4342        28.1499         2.8690         2.9958        43.6386         2.4217     
10852.0000        12.5657      -999.2500        -0.0077        91.4380        46.2500        28.4421         2.8670         2.9380        40.5578         2.4309     
10852.5000        12.6328      -999.2500        -0.0047        91.7492        47.4967        29.9699         2.8300         2.9862        38.1862         2.4240     
10853.0000        12.6330      -999.2500        -0.0035        91.8185        47.7301        29.8367         2.8011         3.0823        37.7104         2.4232     
10853.5000        12.6297      -999.2500        -0.0071        92.8716        49.5880        27.9875         2.8030         3.1717        38.6436         2.4175     
10854.0000        12.6071      -999.2500        -0.0130        98.4372        49.5545        27.2332         2.8776         3.2976        38.3654         2.4115     
10854.5000        12.5919      -999.2500        -0.0127        98.1888        47.2265        28.3233         3.0584         3.4994        39.5581         2.3944     
10855.0000        12.5856      -999.2500        -0.0094        97.8070        45.1222        33.2209         3.3034         3.8095        39.9732         2.3803     
10855.5000        12.6328      -999.2500         0.0026        95.8812        42.1655        32.2517         3.6688         4.2645        40.2621         2.3665     
