~Version Information Section
VERS.          2.0                                     : CWLS LOG ASCII Standard
WRAP.          NO                                      : One line per depth step
CREA.          01/08/16                                : LAS Creation Date
~Well Information Section
STRT.ft        492.5000                                : Start Depth
STOP.ft        11509.0000                              : Stop Depth
STEP.ft        0.5000                                  : Step
NULL.          -999.2500                               : Null Value
COMP.          ENTERPRISE OIL                          : Company
WELL.          15/19-5                                 : Well
FLD .          WILDCAT                                 : Field
LOC .          CENTRAL NORTH SEA                       : Location
LOC1.          6474668.67mN 36212.73mE                 : Location (UTM)
CTRY.          UK                                      : Country
PROV.          UKCS                                    : Province
UWI .          7073                                    : UWI Number
API .                                                  : API Number
SECT.                                                  : Section
TOWN.                                                  : Township
RNGE.                                                  : Range
PDAT.          MSL                                     : Perm Datum
EPD.           0.00                                    : Elevation
LMF .          RT                                      : Log Measured From
DMF .          RT                                      : Drill Measured From
APD .          83.00                                   : Above Perm Datum
EKB .ft        83.00                                   : Elev-Kelly Bushing
EDF .                                                  : Elev-Drill Floor
EGL .ft        -483.00                                 : Elev-Ground Level
TDD .ft        11500.00                                : Total Depth (Driller)
TDL .ft        11512.00                                : Total Depth (Logger)
LAT.           58 23 25.503 N                          : Latitude
LONG.          00 40 38.117 E                          : Longitude
DATE.          MAR-APR-1986                            : Date
SRVC.          SCHLUMBERGER                            : Service Company
PROJ.          UKCS                                    : Project
SET .          COMP WIRE                               : Set
~Curve Information Section
DEPTH.ft                                               : Depth Curve
CALI.in                                                : LDT Caliper 
CAL.in                                                 : DIL Caliper 
DRHO.g/c3                                              : Density Correction
DT.us/ft                                               : Delta-T 
GR.gAPI                                                : DIL Gamma Ray 
GRD.gAPI                                               : LDT Gamma Ray 
ILD.ohmm                                               : Deep Induction Standard Processed Resistivity
ILM.ohmm                                               : Medium Induction Standard Processed Resistivity
NPHI.%                                                 : Neutron Porosity
RHOB.g/c3                                              : Bulk Density
~ASCII Log Data Section
# ...
 1815.5000        22.6409        22.6406        -0.0600      -999.2500        18.4223        18.4213         1.1190         1.2148      -999.2500         1.3860     
 1816.0000        22.6409        22.6406        -0.0570      -999.2500        18.0337        18.0327         1.1815         1.2431      -999.2500         1.3900     
 1816.5000        22.5942        22.5938        -0.0530      -999.2500        18.4985        18.4984         1.2069         1.2490      -999.2500         1.3980     
 1817.0000        22.6249        22.6250        -0.0540      -999.2500        18.4198        18.4222         1.1943         1.2500      -999.2500         1.4020     
 1817.5000        22.6090        22.6094        -0.0540      -999.2500        17.5954        17.5957         1.1573         1.2510      -999.2500         1.4050     
 1818.0000        22.6091        22.6094        -0.0550      -999.2500        17.3602        17.3601         1.1611         1.2549      -999.2500         1.4020     
 1818.5000        22.6249        22.6250        -0.0580      -999.2500        17.4388        17.4386         1.1689         1.2637      -999.2500         1.3990     
 1819.0000        22.6092        22.6094        -0.0630      -999.2500        17.9672        17.9674         1.1728         1.2754      -999.2500         1.4030     
 1819.5000        22.6409        22.6406        -0.0670       230.1184        17.9519        17.9530         1.1709         1.2812      -999.2500         1.4040     
 1820.0000        22.6559        22.6563        -0.0660       225.1370        17.5220        17.5216         1.1641         1.2812      -999.2500         1.4050     
 1820.5000        22.6410        22.6406        -0.0570       225.1175        19.4181        19.4190         1.1582         1.2773      -999.2500         1.4050     
 1821.0000        22.6410        22.6406        -0.0460       222.0012        19.7216        19.7198         1.1523         1.2734      -999.2500         1.4120     
 1821.5000        22.6250        22.6250        -0.0320       219.3788        20.9757        20.9736         1.1475         1.2695      -999.2500         1.4310     
 1822.0000        22.6250        22.6250        -0.0310       217.8743        19.1658        19.1604         1.1465         1.2705      -999.2500         1.4390     
 1822.5000        22.6092        22.6094        -0.0340       216.1320        20.7452        20.7451         1.1514         1.2764      -999.2500         1.4410     
 1823.0000        22.6558        22.6563        -0.0440       216.8705        20.6148        20.6186         1.1621         1.2881      -999.2500         1.4270     
 1823.5000        22.6410        22.6406        -0.0480       215.9965        22.3978        22.3990         1.1719         1.3086      -999.2500         1.4190     
 1824.0000        22.5943        22.5938        -0.0490       213.8792        21.1932        21.1947         1.1914         1.3291      -999.2500         1.4140     
 1824.5000        22.6409        22.6406        -0.0540       213.2462        22.0102        22.0137         1.2207         1.3584      -999.2500         1.4120     
 1825.0000        22.5943        22.5938        -0.0570       211.2521        20.9042        20.9039         1.2422         1.3818      -999.2500         1.4140     
 1825.5000        22.6407        22.6406        -0.0610       210.0030        19.0512        19.0511         1.2676         1.4053      -999.2500         1.4140     
 1826.0000        22.6091        22.6094        -0.0640       209.9991        18.9820        18.9829         1.2832         1.4199      -999.2500         1.4070     
 1826.5000        22.6250        22.6250        -0.0640       209.6181        17.9273        17.9293         1.2920         1.4297      -999.2500         1.4010     
 1827.0000        22.6410        22.6406        -0.0630       206.3792        19.1018        19.1062         1.2988         1.4307      -999.2500         1.3960     
 1827.5000        22.6251        22.6250        -0.0560       204.8855        17.1481        17.1484         1.3067         1.4316      -999.2500         1.4020     
 1828.0000        22.6410        22.6406        -0.0560       207.7388        18.1075        18.1083         1.3174         1.4346      -999.2500         1.4010     
 1828.5000        22.6410        22.6406        -0.0550       206.5967        18.4217        18.4214         1.3340         1.4444      -999.2500         1.4030     
 1829.0000        22.6558        22.6563        -0.0560       195.3921        18.6849        18.6846         1.3496         1.4726      -999.2500         1.4030     
 1829.5000        22.6251        22.6250        -0.0560       190.2661        18.0181        18.0179         1.3584         1.4961      -999.2500         1.4020     
 1830.0000        22.6559        22.6563        -0.0530       190.8816        18.2384        18.2380         1.3809         1.5098      -999.2500         1.4010     
 1830.5000        22.6411        22.6406        -0.0550       193.8705        19.8896        19.8935         1.4053         1.5254      -999.2500         1.3960     
 1831.0000        22.6559        22.6563        -0.0580       195.2538        21.1685        21.1686         1.4288         1.5468      -999.2500         1.3940     
 1831.5000        22.6251        22.6250        -0.0590       198.0000        21.2462        21.2447         1.4667         1.5576      -999.2500         1.3970     
 1832.0000        22.6410        22.6406        -0.0540       200.7392        19.9758        19.9721         1.4725         1.5723      -999.2500         1.4060     
 1832.5000        22.6558        22.6563        -0.0440       198.9907        21.6380        21.6380         1.4181         1.5926      -999.2500         1.4562     
 1833.0000        22.5888        22.5938        -0.0299       193.3591        28.6910        28.7147         1.4121         1.5263      -999.2500         1.5937     
 1833.5000        21.5613        21.5625        -0.0080       181.1025        37.1893        37.1772         1.4004         1.4229      -999.2500         1.7957     
 1834.0000        18.9740        18.9688         0.0100       159.5545        45.1182        45.1280         1.3897         1.3567      -999.2500         1.9748     
 1834.5000        18.6727        18.6719         0.0180       157.0059        50.6267        50.6118         1.4100         1.3760      -999.2500         2.0209     
 1835.0000        18.3596        18.3594         0.0080       156.6246        56.7407        56.7406         1.3925         1.4061      -999.2500         2.0311     
 1835.5000        18.2503        18.2500         0.0070       156.1341        59.5164        59.5102         1.3380         1.3828      -999.2500         2.0660     
 1836.0000        18.2500        18.2500        -0.0040       158.8683        57.0055        57.0062         1.3213         1.3711      -999.2500         2.0760     
 1836.5000        18.2342        18.2344        -0.0000       159.2482        56.4327        56.4304         1.3115         1.3681      -999.2500         2.0979     
 1837.0000        18.2659        18.2656         0.0010       159.0049        54.1777        54.1624         1.2950         1.3467      -999.2500         2.1000     
 1837.5000        18.3907        18.3906         0.0070       160.4958        59.5578        59.5573         1.2939         1.3291      -999.2500         2.1070     
 1838.0000        18.4218        18.4219         0.0010       160.5010        63.2675        63.2640         1.2910         1.3194      -999.2500         2.1020     
 1838.5000        18.4061        18.4063        -0.0020       160.8738        62.0961        62.0966         1.2754         1.3154      -999.2500         2.0940     
 1839.0000        18.4828        18.4844        -0.0060       160.7497        61.9095        61.9112         1.2607         1.3076      -999.2500         2.0800     
 1839.5000        18.2196        18.2188        -0.0020       160.5015        63.1053        63.0912         1.2461         1.2988      -999.2500         2.0660     
