~Version Information Section
VERS.          2.0                                     : CWLS LOG ASCII Standard
WRAP.          NO                                      : One line per depth step
CREA.          01/08/16                                : LAS Creation Date
~Well Information Section
STRT.ft        492.5000                                : Start Depth
STOP.ft        11509.0000                              : Stop Depth
STEP.ft        0.5000                                  : Step
NULL.          -999.2500                               : Null Value
COMP.          ENTERPRISE OIL                          : Company
WELL.          15/19-5                                 : Well
FLD .          WILDCAT                                 : Field
LOC .          CENTRAL NORTH SEA                       : Location
LOC1.          6474668.67mN 36212.73mE                 : Location (UTM)
CTRY.          UK                                      : Country
PROV.          UKCS                                    : Province
UWI .          7073                                    : UWI Number
API .                                                  : API Number
SECT.                                                  : Section
TOWN.                                                  : Township
RNGE.                                                  : Range
PDAT.          MSL                                     : Perm Datum
EPD.           0.00                                    : Elevation
LMF .          RT                                      : Log Measured From
DMF .          RT                                      : Drill Measured From
APD .          83.00                                   : Above Perm Datum
EKB .ft        83.00                                   : Elev-Kelly Bushing
EDF .                                                  : Elev-Drill Floor
EGL .ft        -483.00                                 : Elev-Ground Level
TDD .ft        11500.00                                : Total Depth (Driller)
TDL .ft        11512.00                                : Total Depth (Logger)
LAT.           58 23 25.503 N                          : Latitude
LONG.          00 40 38.117 E                          : Longitude
DATE.          MAR-APR-1986                            : Date
SRVC.          SCHLUMBERGER                            : Service Company
PROJ.          UKCS                                    : Project
SET .          COMP WIRE                               : Set
~Curve Information Section
DEPTH.ft                                               : Depth Curve
CALI.in                                                : LDT Caliper 
CAL.in                                                 : DIL Caliper 
DRHO.g/c3                                              : Density Correction
DT.us/ft                                               : Delta-T 
GR.gAPI                                                : DIL Gamma Ray 
GRD.gAPI                                               : LDT Gamma Ray 
ILD.ohmm                                               : Deep Induction Standard Processed Resistivity
ILM.ohmm                                               : Medium Induction Standard Processed Resistivity
NPHI.%                                                 : Neutron Porosity
RHOB.g/c3                                              : Bulk Density
~ASCII Log Data Section
# ...
 3089.5000        17.5000        17.5000        -0.0160       138.6235        19.8157        19.8127         1.0186         1.1435      -999.2500         2.0960     
 3090.0000        17.4841        17.4844        -0.0130       138.7500        20.8430        20.8435         1.0254         1.1358      -999.2500         2.0900     
 3090.5000        17.5000        17.5000        -0.0120       138.8750        21.5600        21.5585         1.0450         1.1416      -999.2500         2.0900     
 3091.0000        17.5000        17.5000        -0.0060       138.9924        21.2178        21.2189         1.0781         1.1632      -999.2500         2.0980     
 3091.5000        17.5160        17.5156        -0.0060       135.9801        20.4221        20.4210         1.1006         1.2168      -999.2500         2.1112     
 3092.0000        17.5160        17.5156        -0.0100       125.8792        19.7014        19.7050         1.1113         1.2646      -999.2500         2.1619     
 3092.5000        17.5469        17.5469        -0.0140       117.2573        18.3788        18.3789         1.1240         1.3007      -999.2500         2.2499     
 3093.0000        17.5310        17.5313        -0.0190       111.2846        18.4205        18.4194         1.1279         1.3183      -999.2500         2.3045     
 3093.5000        17.5310        17.5313        -0.0140       117.6295        17.9913        17.9885         1.1299         1.2998      -999.2500         2.2420     
 3094.0000        17.5160        17.5156        -0.0140       125.6407        20.0239        20.0230         1.1308         1.2627      -999.2500         2.1450     
 3094.5000        17.5160        17.5156        -0.0150       139.2119        19.4565        19.4546         1.1279         1.2354      -999.2500         2.0882     
 3095.0000        17.5160        17.5156        -0.0190       139.2493        20.0758        20.0756         1.1103         1.2197      -999.2500         2.0740     
 3095.5000        17.5000        17.5000        -0.0210       139.0012        19.8594        19.8585         1.0898         1.1982      -999.2500         2.0720     
 3096.0000        17.4840        17.4844        -0.0180       139.2497        19.6558        19.6560         1.0517         1.1631      -999.2500         2.0740     
 3096.5000        17.4841        17.4844        -0.0180       139.3753        19.2792        19.2770         1.0020         1.1231      -999.2500         2.0740     
 3097.0000        17.5159        17.5156        -0.0200       139.6247        18.0659        18.0649         0.9673         1.0879      -999.2500         2.0720     
 3097.5000        17.5618        17.5625        -0.0240       139.7499        18.2794        18.2790         0.9429         1.0694      -999.2500         2.0660     
 3098.0000        17.5160        17.5156        -0.0250       139.8795        17.7688        17.7704         0.9326         1.0547      -999.2500         2.0590     
 3098.5000        17.5000        17.5000        -0.0200       141.6169        18.3915        18.3907         0.9292         1.0411      -999.2500         2.0570     
 3099.0000        17.4839        17.4844        -0.0110       140.5042        19.3195        19.3232         0.9258         1.0401      -999.2500         2.0640     
 3099.5000        17.4531        17.4531        -0.0090       140.8736        22.7393        22.7404         0.9268         1.0440      -999.2500         2.0660     
 3100.0000        17.4221        17.4219        -0.0030       140.7472        22.3389        22.3391         0.9287         1.0498      -999.2500         2.0760     
 3100.5000        17.4217        17.4219        -0.0020       139.6278        20.2020        20.1950         0.9336         1.0576      -999.2500         2.0720     
 3101.0000        17.3591        17.3594        -0.0020       139.5014        17.6815        17.6805         0.9380         1.0654      -999.2500         2.0700     
 3101.5000        17.3283        17.3281        -0.0070       139.8726        18.5966        18.6003         0.9434         1.0703      -999.2500         2.0680     
 3102.0000        17.3749        17.3750        -0.0080       139.2479        20.7132        20.7139         0.9473         1.0742      -999.2500         2.0640     
 3102.5000        17.3910        17.3906        -0.0120       137.7536        20.5339        20.5337         0.9492         1.0723      -999.2500         2.0570     
 3103.0000        17.3908        17.3906        -0.0110       137.7491        21.4509        21.4508         0.9526         1.0703      -999.2500         2.0570     
 3103.5000        17.3591        17.3594        -0.0090       137.3777        21.4526        21.4527         0.9560         1.0674      -999.2500         2.0610     
 3104.0000        17.4061        17.4063        -0.0070       138.1271        21.2316        21.2297         0.9570         1.0713      -999.2500         2.0700     
 3104.5000        17.4688        17.4688        -0.0110       139.6194        20.0414        20.0344         0.9595         1.0723      -999.2500         2.0740     
 3105.0000        17.5159        17.5156        -0.0210       139.1260        22.4487        22.4485         0.9634         1.0772      -999.2500         2.0740     
 3105.5000        17.5309        17.5313        -0.0210       138.9979        23.2766        23.2743         0.9683         1.0850      -999.2500         2.0820     
 3106.0000        17.5160        17.5156        -0.0260       138.1288        22.4306        22.4350         0.9736         1.0928      -999.2500         2.0840     
 3106.5000        17.5160        17.5156        -0.0190       138.6229        19.1187        19.1183         0.9810         1.1016      -999.2500         2.0980     
 3107.0000        17.5160        17.5156        -0.0130       138.3764        19.1108        19.1090         0.9883         1.1064      -999.2500         2.1070     
 3107.5000        17.5309        17.5313        -0.0010       138.6250        19.6070        19.6066         0.9932         1.1094      -999.2500         2.1130     
 3108.0000        17.5160        17.5156        -0.0010       138.8741        19.2490        19.2468         0.9961         1.1103      -999.2500         2.1050     
 3108.5000        17.5000        17.5000        -0.0020       138.7509        18.4569        18.4558         0.9990         1.1103      -999.2500         2.1020     
 3109.0000        17.4842        17.4844        -0.0120       138.9994        19.2175        19.2183         1.0000         1.1074      -999.2500         2.0940     
 3109.5000        17.5159        17.5156        -0.0180       138.9982        19.4998        19.4993         1.0010         1.1045      -999.2500         2.0820     
 3110.0000        17.5309        17.5313        -0.0210       138.2521        19.6857        19.6861         1.0020         1.1045      -999.2500         2.0800     
 3110.5000        17.5160        17.5156        -0.0180       138.2496        19.1765        19.1790         1.0039         1.1133      -999.2500         2.0800     
 3111.0000        17.5160        17.5156        -0.0210       138.1274        20.2937        20.2939         1.0059         1.1191      -999.2500         2.0780     
 3111.5000        17.5160        17.5156        -0.0220       138.8736        20.2969        20.2971         1.0088         1.1230      -999.2500         2.0740     
 3112.0000        17.5160        17.5156        -0.0230       139.1253        20.3097        20.3120         1.0147         1.1260      -999.2500         2.0700     
 3112.5000        17.5160        17.5156        -0.0170       139.5000        19.3138        19.3133         1.0264         1.1319      -999.2500         2.0760     
 3113.0000        17.5160        17.5156        -0.0180       139.8708        18.7840        18.7850         1.0361         1.1455      -999.2500         2.0800     
 3113.5000        17.5160        17.5156        -0.0200       138.7510        19.2340        19.2333         1.0449         1.1611      -999.2500         2.0820     
