~Version Information Section
VERS.          2.0                                     : CWLS LOG ASCII Standard
WRAP.          NO                                      : One line per depth step
CREA.          01/08/16                                : LAS Creation Date
~Well Information Section
STRT.ft        492.5000                                : Start Depth
STOP.ft        11509.0000                              : Stop Depth
STEP.ft        0.5000                                  : Step
NULL.          -999.2500                               : Null Value
COMP.          ENTERPRISE OIL                          : Company
WELL.          15/19-5                                 : Well
FLD .          WILDCAT                                 : Field
LOC .          CENTRAL NORTH SEA                       : Location
LOC1.          6474668.67mN 36212.73mE                 : Location (UTM)
CTRY.          UK                                      : Country
PROV.          UKCS                                    : Province
UWI .          7073                                    : UWI Number
API .                                                  : API Number
SECT.                                                  : Section
TOWN.                                                  : Township
RNGE.                                                  : Range
PDAT.          MSL                                     : Perm Datum
EPD.           0.00                                    : Elevation
LMF .          RT                                      : Log Measured From
DMF .          RT                                      : Drill Measured From
APD .          83.00                                   : Above Perm Datum
EKB .ft        83.00                                   : Elev-Kelly Bushing
EDF .                                                  : Elev-Drill Floor
EGL .ft        -483.00                                 : Elev-Ground Level
TDD .ft        11500.00                                : Total Depth (Driller)
TDL .ft        11512.00                                : Total Depth (Logger)
LAT.           58 23 25.503 N                          : Latitude
LONG.          00 40 38.117 E                          : Longitude
DATE.          MAR-APR-1986                            : Date
SRVC.          SCHLUMBERGER                            : Service Company
PROJ.          UKCS                                    : Project
SET .          COMP WIRE                               : Set
~Curve Information Section
DEPTH.ft                                               : Depth Curve
CALI.in                                                : LDT Caliper 
CAL.in                                                 : DIL Caliper 
DRHO.g/c3                                              : Density Correction
DT.us/ft                                               : Delta-T 
GR.gAPI                                                : DIL Gamma Ray 
GRD.gAPI                                               : LDT Gamma Ray 
ILD.ohmm                                               : Deep Induction Standard Processed Resistivity
ILM.ohmm                                               : Medium Induction Standard Processed Resistivity
NPHI.%                                                 : Neutron Porosity
RHOB.g/c3                                              : Bulk Density
~ASCII Log Data Section
# ...
 2452.5000        17.4691        17.4688        -0.0130       146.7479        26.4641        26.4635         1.4150         1.5498      -999.2500         2.0250     
 2453.0000        17.4840        17.4844        -0.0120       147.2483        24.4295        24.4311         1.4228         1.5576      -999.2500         2.0270     
 2453.5000        17.4999        17.5000        -0.0150       147.1229        25.2335        25.2326         1.4248         1.5625      -999.2500         2.0210     
 2454.0000        17.4531        17.4531        -0.0150       146.2503        25.7264        25.7305         1.4199         1.5664      -999.2500         2.0210     
 2454.5000        17.4530        17.4531        -0.0170       145.5017        28.9285        28.9290         1.4004         1.5546      -999.2500         2.0180     
 2455.0000        17.4531        17.4531        -0.0190       145.3767        28.9354        28.9359         1.3740         1.5215      -999.2500         2.0200     
 2455.5000        17.4841        17.4844        -0.0110       145.8795        28.1809        28.1730         1.3418         1.4892      -999.2500         2.0289     
 2456.0000        17.5159        17.5156        -0.0140       148.0017        25.0963        25.0991         1.3057         1.4482      -999.2500         2.0210     
 2456.5000        17.5160        17.5156        -0.0160       150.7448        22.9108        22.9099         1.2715         1.4034      -999.2500         2.0120     
 2457.0000        17.5160        17.5156        -0.0190       151.6246        22.3541        22.3456         1.2393         1.3721      -999.2500         1.9960     
 2457.5000        17.5160        17.5156        -0.0170       152.3693        25.4619        25.4622         1.2110         1.3457      -999.2500         1.9960     
 2458.0000        17.5311        17.5313        -0.0170       150.7497        25.7510        25.7530         1.1895         1.3164      -999.2500         2.0041     
 2458.5000        17.5619        17.5625        -0.0170       149.0006        26.4588        26.4632         1.1748         1.2989      -999.2500         2.0200     
 2459.0000        17.5470        17.5469        -0.0210       147.5027        23.0442        23.0471         1.1621         1.2940      -999.2500         2.0230     
 2459.5000        17.5470        17.5469        -0.0190       147.1257        24.9966        24.9953         1.1563         1.2969      -999.2500         2.0290     
 2460.0000        17.5779        17.5781        -0.0250       147.0021        25.8560        25.8559         1.1504         1.2969      -999.2500         2.0210     
 2460.5000        17.5778        17.5781        -0.0240       147.6271        25.4987        25.4967         1.1445         1.2881      -999.2500         2.0230     
 2461.0000        17.5471        17.5469        -0.0300       148.9996        24.6719        24.6730         1.1396         1.2754      -999.2500         2.0160     
 2461.5000        17.5309        17.5313        -0.0260       150.2472        23.8467        23.8472         1.1318         1.2646      -999.2500         2.0140     
 2462.0000        17.5001        17.5000        -0.0250       150.4986        24.0632        24.0614         1.1230         1.2539      -999.2500         2.0100     
 2462.5000        17.5160        17.5156        -0.0210       150.2503        24.5109        24.5113         1.1133         1.2432      -999.2500         2.0060     
 2463.0000        17.5160        17.5156        -0.0230       150.1278        23.2877        23.2903         1.1016         1.2353      -999.2500         1.9960     
 2463.5000        17.5160        17.5156        -0.0200       150.9997        24.3393        24.3406         1.0928         1.2266      -999.2500         1.9980     
 2464.0000        17.5161        17.5156        -0.0170       151.7524        23.6619        23.6644         1.0908         1.2276      -999.2500         2.0040     
 2464.5000        17.5310        17.5313        -0.0130       153.4943        25.3445        25.3400         1.0928         1.2334      -999.2500         2.0080     
 2465.0000        17.5469        17.5469        -0.0140       152.8732        27.3426        27.3435         1.1055         1.2344      -999.2500         2.0120     
 2465.5000        17.5310        17.5313        -0.0190       151.5003        28.8704        28.8692         1.1201         1.2383      -999.2500         2.0100     
 2466.0000        17.5310        17.5313        -0.0160       150.2462        28.4654        28.4681         1.1397         1.2598      -999.2500         2.0160     
 2466.5000        17.5001        17.5000        -0.0170       147.6271        26.8956        26.9026         1.1670         1.2832      -999.2500         2.0140     
 2467.0000        17.5000        17.5000        -0.0200       145.7545        32.6511        32.6399         1.1963         1.3125      -999.2500         2.0100     
 2467.5000        17.5160        17.5156        -0.0210       145.4962        36.5827        36.5829         1.2276         1.3496      -999.2500         2.0160     
 2468.0000        17.5159        17.5156        -0.0220       143.8816        36.5478        36.5328         1.2695         1.3887      -999.2500         2.0291     
 2468.5000        17.5000        17.5000        -0.0160       144.6219        31.2752        31.2778         1.3086         1.4355      -999.2500         2.0469     
 2469.0000        17.4691        17.4688        -0.0170       144.2489        29.3955        29.3957         1.3389         1.4795      -999.2500         2.0450     
 2469.5000        17.4690        17.4688        -0.0110       143.5035        29.2737        29.2663         1.3769         1.5185      -999.2500         2.0550     
 2470.0000        17.4840        17.4844        -0.0080       144.0000        32.0342        32.0340         1.4062         1.5478      -999.2500         2.0720     
 2470.5000        17.4997        17.5000        -0.0150       144.5015        36.0269        36.0326         1.4189         1.5674      -999.2500         2.0819     
 2471.0000        17.4531        17.4531        -0.0210       145.6280        38.2100        38.2120         1.4238         1.5742      -999.2500         2.0760     
 2471.5000        17.4840        17.4844        -0.0270       148.0012        36.7501        36.7479         1.4179         1.5644      -999.2500         2.0510     
 2472.0000        17.5000        17.5000        -0.0240       150.8684        35.3409        35.3474         1.4014         1.5449      -999.2500         2.0410     
 2472.5000        17.4999        17.5000        -0.0260       151.4976        32.5313        32.5299         1.3809         1.5283      -999.2500         2.0310     
 2473.0000        17.4532        17.4531        -0.0230       151.2475        29.7152        29.7058         1.3574         1.4990      -999.2500         2.0370     
 2473.5000        17.4689        17.4688        -0.0280       150.1274        25.6515        25.6450         1.3262         1.4707      -999.2500         2.0350     
 2474.0000        17.4531        17.4531        -0.0260       149.8767        30.9843        30.9840         1.2979         1.4424      -999.2500         2.0430     
 2474.5000        17.4690        17.4688        -0.0260       150.2524        30.7674        30.7667         1.2735         1.4151      -999.2500         2.0390     
 2475.0000        17.5158        17.5156        -0.0240       151.4990        31.1525        31.1526         1.2588         1.3955      -999.2500         2.0430     
 2475.5000        17.4999        17.5000        -0.0240       152.3746        24.6724        24.6701         1.2481         1.3838      -999.2500         2.0390     
 2476.0000        17.4691        17.4688        -0.0280       153.1215        23.9049        23.9061         1.2393         1.3770      -999.2500         2.0310     
 2476.5000        17.4841        17.4844        -0.0220       152.6199        22.6792        22.6823         1.2295         1.3740      -999.2500         2.0310     
