~Version Information Section
VERS.          2.0                                     : CWLS LOG ASCII Standard
WRAP.          NO                                      : One line per depth step
CREA.          01/08/16                                : LAS Creation Date
~Well Information Section
STRT.ft        492.5000                                : Start Depth
STOP.ft        11509.0000                              : Stop Depth
STEP.ft        0.5000                                  : Step
NULL.          -999.2500                               : Null Value
COMP.          ENTERPRISE OIL                          : Company
WELL.          15/19-5                                 : Well
FLD .          WILDCAT                                 : Field
LOC .          CENTRAL NORTH SEA                       : Location
LOC1.          6474668.67mN 36212.73mE                 : Location (UTM)
CTRY.          UK                                      : Country
PROV.          UKCS                                    : Province
UWI .          7073                                    : UWI Number
API .                                                  : API Number
SECT.                                                  : Section
TOWN.                                                  : Township
RNGE.                                                  : Range
PDAT.          MSL                                     : Perm Datum
EPD.           0.00                                    : Elevation
LMF .          RT                                      : Log Measured From
DMF .          RT                                      : Drill Measured From
APD .          83.00                                   : Above Perm Datum
EKB .ft        83.00                                   : Elev-Kelly Bushing
EDF .                                                  : Elev-Drill Floor
EGL .ft        -483.00                                 : Elev-Ground Level
TDD .ft        11500.00                                : Total Depth (Driller)
TDL .ft        11512.00                                : Total Depth (Logger)
LAT.           58 23 25.503 N                          : Latitude
LONG.          00 40 38.117 E                          : Longitude
DATE.          MAR-APR-1986                            : Date
SRVC.          SCHLUMBERGER                            : Service Company
PROJ.          UKCS                                    : Project
SET .          COMP WIRE                               : Set
~Curve Information Section
DEPTH.ft                                               : Depth Curve
CALI.in                                                : LDT Caliper 
CAL.in                                                 : DIL Caliper 
DRHO.g/c3                                              : Density Correction
DT.us/ft                                               : Delta-T 
GR.gAPI                                                : DIL Gamma Ray 
GRD.gAPI                                               : LDT Gamma Ray 
ILD.ohmm                                               : Deep Induction Standard Processed Resistivity
ILM.ohmm                                               : Medium Induction Standard Processed Resistivity
NPHI.%                                                 : Neutron Porosity
RHOB.g/c3                                              : Bulk Density
~ASCII Log Data Section
# ...
 3726.5000        17.5311        17.5313        -0.0070       124.8806        23.2367        23.2366         1.2344         1.3057      -999.2500         2.1701     
 3727.0000        17.5470        17.5469        -0.0100       128.8657        23.6085        23.6081         1.2188         1.2803      -999.2500         2.1660     
 3727.5000        17.5618        17.5625        -0.0021       129.0028        23.6053        23.6035         1.2041         1.2608      -999.2500         2.1759     
 3728.0000        17.5160        17.5156        -0.0130       129.9994        21.9075        21.9035         1.1719         1.2402      -999.2500         2.1500     
 3728.5000        17.4999        17.5000        -0.0130       130.7488        20.7210        20.7218         1.1485         1.2198      -999.2500         2.1350     
 3729.0000        17.3910        17.3906        -0.0139       131.1229        20.1009        20.1049         1.1416         1.2100      -999.2500         2.1151     
 3729.5000        17.3282        17.3281         0.0010       130.6266        22.4496        22.4455         1.1377         1.2070      -999.2500         2.1230     
 3730.0000        17.3280        17.3281         0.0120       130.6241        23.7273        23.7247         1.1397         1.2031      -999.2500         2.1290     
 3730.5000        17.3118        17.3125         0.0239       130.2485        27.3498        27.3486         1.1426         1.2041      -999.2500         2.1459     
 3731.0000        17.2665        17.2656         0.0100       129.2512        27.0245        27.0208         1.1455         1.2110      -999.2500         2.1430     
 3731.5000        17.4835        17.4844         0.0020       128.7506        29.5176        29.5122         1.1455         1.2217      -999.2500         2.1480     
 3732.0000        17.5000        17.5000        -0.0060       128.4984        26.3491        26.3516         1.1455         1.2334      -999.2500         2.1430     
 3732.5000        17.4838        17.4844        -0.0010       127.5006        24.8368        24.8370         1.1367         1.2412      -999.2500         2.1520     
 3733.0000        17.3750        17.3750        -0.0010       126.7524        20.4620        20.4580         1.1122         1.2451      -999.2500         2.1580     
 3733.5000        17.3121        17.3125         0.0010       126.7551        18.8245        18.8269         1.0497         1.2323      -999.2500         2.1679     
 3734.0000        17.2972        17.2969        -0.0040       128.8850        15.7156        15.7144         0.9517         1.1785      -999.2500         2.1449     
 3734.5000        17.3279        17.3281        -0.0110       134.1199        14.0599        14.0659         0.8652         1.0459      -999.2500         2.0941     
 3735.0000        17.3590        17.3594        -0.0120       137.2392        11.3423        11.3424         0.7778         0.9098      -999.2500         2.0621     
 3735.5000        17.3756        17.3750        -0.0210       136.9931        10.6072        10.6018         0.6910         0.8096      -999.2500         2.0451     
 3736.0000        17.4837        17.4844        -0.0290       133.8738         8.9952         8.9960         0.6255         0.7106      -999.2500         2.0590     
 3736.5000        17.4841        17.4844        -0.0380       130.3828         8.3034         8.3017         0.5669         0.6519      -999.2500         2.0610     
 3737.0000        17.5159        17.5156        -0.0380       130.1259         7.0695         7.0690         0.5215         0.6123      -999.2500         2.0660     
 3737.5000        17.4999        17.5000        -0.0300       130.2488         7.1333         7.1337         0.4951         0.5894      -999.2500         2.0660     
 3738.0000        17.4689        17.4688        -0.0270       129.8750         7.3944         7.3953         0.4810         0.5816      -999.2500         2.0640     
 3738.5000        17.4380        17.4375        -0.0230       129.4997         7.5816         7.5817         0.4741         0.5772      -999.2500         2.0530     
 3739.0000        17.4222        17.4219        -0.0220       128.8738         7.6588         7.6578         0.4741         0.5752      -999.2500         2.0570     
 3739.5000        17.4529        17.4531        -0.0190       127.7520         7.1667         7.1656         0.4771         0.5752      -999.2500         2.0620     
 3740.0000        17.5159        17.5156        -0.0200       127.2503         7.5930         7.5932         0.4814         0.5762      -999.2500         2.0760     
 3740.5000        17.5159        17.5156        -0.0190       126.8778         7.7062         7.7056         0.4868         0.5767      -999.2500         2.0840     
 3741.0000        17.5000        17.5000        -0.0200       127.3759         7.5228         7.5228         0.4907         0.5752      -999.2500         2.0840     
 3741.5000        17.4840        17.4844        -0.0170       128.2492         7.0950         7.0951         0.4932         0.5732      -999.2500         2.0860     
 3742.0000        17.4690        17.4688        -0.0160       128.8768         7.0247         7.0232         0.4941         0.5693      -999.2500         2.0840     
 3742.5000        17.4532        17.4531        -0.0130       130.2468         7.4634         7.4636         0.4927         0.5654      -999.2500         2.0860     
 3743.0000        17.5000        17.5000        -0.0170       130.6256         7.4656         7.4667         0.4897         0.5620      -999.2500         2.0780     
 3743.5000        17.5160        17.5156        -0.0270       131.2491         7.7680         7.7693         0.4868         0.5576      -999.2500         2.0680     
 3744.0000        17.5780        17.5781        -0.0290       131.4976         7.4441         7.4433         0.4839         0.5532      -999.2500         2.0590     
 3744.5000        17.6089        17.6094        -0.0250       130.7521         6.8332         6.8335         0.4810         0.5503      -999.2500         2.0570     
 3745.0000        17.5619        17.5625        -0.0250       130.8737         6.7149         6.7149         0.4790         0.5493      -999.2500         2.0510     
 3745.5000        17.5001        17.5000        -0.0270       130.4997         6.6042         6.6070         0.4785         0.5488      -999.2500         2.0530     
 3746.0000        17.5000        17.5000        -0.0260       130.0008         7.5966         7.5979         0.4790         0.5483      -999.2500         2.0570     
 3746.5000        17.5309        17.5313        -0.0160       129.7518         7.0362         7.0359         0.4795         0.5479      -999.2500         2.0739     
 3747.0000        17.5160        17.5156        -0.0230       130.2488         6.9160         6.9144         0.4800         0.5483      -999.2500         2.0680     
 3747.5000        17.5161        17.5156        -0.0210       130.3738         7.3891         7.3894         0.4819         0.5488      -999.2500         2.0700     
 3748.0000        17.5777        17.5781        -0.0269       130.0028         7.2141         7.2160         0.4849         0.5513      -999.2500         2.0720     
 3748.5000        17.5620        17.5625        -0.0200       130.4961         8.0131         8.0137         0.4907         0.5557      -999.2500         2.0820     
 3749.0000        17.5310        17.5313        -0.0210       129.3754         7.7848         7.7859         0.4985         0.5620      -999.2500         2.0900     
 3749.5000        17.5001        17.5000        -0.0210       128.3819         8.6483         8.6459         0.5019         0.5718      -999.2500         2.0900     
 3750.0000        17.5309        17.5313        -0.0180       130.2512         9.4359         9.4364         0.5020         0.5786      -999.2500         2.0919     
 3750.5000        17.5309        17.5313        -0.0220       132.6205         9.5630         9.5636         0.5024         0.5771      -999.2500         2.0660     
