~Version Information Section
VERS.          2.0                                     : CWLS LOG ASCII Standard
WRAP.          NO                                      : One line per depth step
CREA.          01/08/16                                : LAS Creation Date
~Well Information Section
STRT.ft        492.5000                                : Start Depth
STOP.ft        11509.0000                              : Stop Depth
STEP.ft        0.5000                                  : Step
NULL.          -999.2500                               : Null Value
COMP.          ENTERPRISE OIL                          : Company
WELL.          15/19-5                                 : Well
FLD .          WILDCAT                                 : Field
LOC .          CENTRAL NORTH SEA                       : Location
LOC1.          6474668.67mN 36212.73mE                 : Location (UTM)
CTRY.          UK                                      : Country
PROV.          UKCS                                    : Province
UWI .          7073                                    : UWI Number
API .                                                  : API Number
SECT.                                                  : Section
TOWN.                                                  : Township
RNGE.                                                  : Range
PDAT.          MSL                                     : Perm Datum
EPD.           0.00                                    : Elevation
LMF .          RT                                      : Log Measured From
DMF .          RT                                      : Drill Measured From
APD .          83.00                                   : Above Perm Datum
EKB .ft        83.00                                   : Elev-Kelly Bushing
EDF .                                                  : Elev-Drill Floor
EGL .ft        -483.00                                 : Elev-Ground Level
TDD .ft        11500.00                                : Total Depth (Driller)
TDL .ft        11512.00                                : Total Depth (Logger)
LAT.           58 23 25.503 N                          : Latitude
LONG.          00 40 38.117 E                          : Longitude
DATE.          MAR-APR-1986                            : Date
SRVC.          SCHLUMBERGER                            : Service Company
PROJ.          UKCS                                    : Project
SET .          COMP WIRE                               : Set
~Curve Information Section
DEPTH.ft                                               : Depth Curve
CALI.in                                                : LDT Caliper 
CAL.in                                                 : DIL Caliper 
DRHO.g/c3                                              : Density Correction
DT.us/ft                                               : Delta-T 
GR.gAPI                                                : DIL Gamma Ray 
GRD.gAPI                                               : LDT Gamma Ray 
ILD.ohmm                                               : Deep Induction Standard Processed Resistivity
ILM.ohmm                                               : Medium Induction Standard Processed Resistivity
NPHI.%                                                 : Neutron Porosity
RHOB.g/c3                                              : Bulk Density
~ASCII Log Data Section
# ...
 8259.0000        12.5141      -999.2500        -0.0108        83.5416        28.1151        15.2018         1.4133         1.5387        30.6536         2.5303     
 8259.5000        12.5305      -999.2500        -0.0071        80.1360        24.3710        13.4593         1.5924         1.7384        30.4756         2.5561     
 8260.0000        12.5465      -999.2500        -0.0089        77.9932        20.0234        12.4912         1.7779         1.9898        27.3493         2.5609     
 8260.5000        12.5393      -999.2500        -0.0071        73.7500        17.9840        11.7370         1.9450         2.1680        25.9737         2.5716     
 8261.0000        12.5390      -999.2500        -0.0061        70.1880        16.3440        10.1760         2.1290         2.3570        25.6444         2.5701     
 8261.5000        12.5390      -999.2500        -0.0021        74.9105        15.2724         8.5446         2.3282         2.6185        24.7368         2.5952     
 8262.0000        12.5613      -999.2500        -0.0011        72.3832        15.8890         8.1298         2.5054         2.6928        25.6512         2.5921     
 8262.5000        12.5775      -999.2500        -0.0039        73.3182        17.0883        10.1805         2.6818         2.6584        25.1616         2.5901     
 8263.0000        12.5780      -999.2500        -0.0117        76.1698        16.5122        10.8540         2.7874         2.7350        25.6188         2.5687     
 8263.5000        12.5557      -999.2500        -0.0139        72.3871        15.7136         9.8864         2.8727         2.9383        24.5024         2.5680     
 8264.0000        12.5473      -999.2500        -0.0159        71.0068        17.1223         8.4303         2.8956         3.1034        24.2269         2.5622     
 8264.5000        12.5393      -999.2500        -0.0199        71.4984        17.4988         7.7502         2.8342         3.0841        25.7734         2.5611     
 8265.0000        12.5235      -999.2500        -0.0248        74.1250        16.8750         8.0979         2.8050         3.0370        26.3990         2.5474     
 8265.5000        12.5230      -999.2500        -0.0182        76.4805        16.5233         9.4736         2.8320         2.9797        27.9707         2.5509     
 8266.0000        12.5163      -999.2500        -0.0141        74.6310        17.4809        10.1578         2.8400         2.9003        27.4606         2.5491     
 8266.5000        12.5228      -999.2500        -0.0140        74.0596        17.6645        10.4223         2.8149         2.8833        28.1992         2.5471     
 8267.0000        12.5230      -999.2500        -0.0188        72.7500        16.4220         8.8286         2.7700         2.9360        25.9102         2.5431     
 8267.5000        12.5230      -999.2500        -0.0209        70.9380        15.8360         8.8876         2.7090         2.9320        25.6407         2.5508     
 8268.0000        12.5230      -999.2500        -0.0239        72.4324        16.6522         8.8910         2.6414         2.8552        25.0660         2.5452     
 8268.5000        12.5230      -999.2500        -0.0221        72.3124        16.4696         8.5508         2.6779         2.8460        25.8985         2.5489     
 8269.0000        12.5162      -999.2500        -0.0191        71.5004        16.0921         8.0225         2.7829         2.9410        26.2607         2.5334     
 8269.5000        12.5228      -999.2500        -0.0113        70.8120        15.1090         8.1742         2.8540         3.0490        26.6941         2.5407     
 8270.0000        12.5230      -999.2500        -0.0100        70.0560        16.3540         8.1046         2.8932         3.1520        25.8122         2.5313     
 8270.5000        12.5230      -999.2500        -0.0052        67.4362        16.0359         7.3744         2.9942         3.2705        24.5093         2.5445     
 8271.0000        12.5230      -999.2500        -0.0060        65.8172        16.6391         7.2949         3.0698         3.4135        23.5190         2.5653     
 8271.5000        12.5230      -999.2500        -0.0031        70.3096        15.4238         7.2969         3.1316         3.4588        22.8693         2.5952     
 8272.0000        12.5230      -999.2500        -0.0079        69.5644        15.9752         8.3231         3.3114         3.4002        25.3991         2.5863     
 8272.5000        12.5307      -999.2500        -0.0041        71.3566        14.9476         8.7296         3.4978         3.5007        26.1972         2.5724     
 8273.0000        12.5233      -999.2500        -0.0040        67.4464        14.7068         9.2323         3.6350         3.8055        26.1736         2.5594     
 8273.5000        12.5230      -999.2500        -0.0050        66.5620        13.6800         8.3338         3.7270         4.1130        22.5741         2.5609     
 8274.0000        12.5230      -999.2500        -0.0098        66.1288        13.2731         7.7165         3.7303         4.1987        22.1764         2.5610     
 8274.5000        12.5230      -999.2500        -0.0119        67.3082        13.3119         7.4468         3.8177         4.1173        22.3565         2.5591     
 8275.0000        12.5230      -999.2500        -0.0159        67.8706        12.7143         7.4409         4.0162         4.2582        24.9631         2.5658     
 8275.5000        12.5163      -999.2500        -0.0189        67.0646        13.1396         7.2759         4.2612         4.4524        23.7293         2.5592     
 8276.0000        12.5160      -999.2500        -0.0199        65.5000        11.9140         7.3223         4.4260         4.6090        23.7760         2.5609     
 8276.5000        12.5160      -999.2500        -0.0142        64.3681        12.1103         7.3201         4.5859         4.9620        22.3119         2.5571     
 8277.0000        12.5005      -999.2500        -0.0159        62.1950        10.8710         6.8366         4.6757         5.3966        21.3216         2.5551     
 8277.5000        12.4923      -999.2500        -0.0160        61.5156         9.8234         6.0941         4.6050         5.4832        23.6994         2.5589     
 8278.0000        12.4843      -999.2500        -0.0169        65.6880         9.8360         6.7757         4.5230         5.3050        23.6853         2.5571     
 8278.5000        12.4695      -999.2500        -0.0103        66.4356        12.0947         7.8195         4.6017         4.8644        26.1355         2.5589     
 8279.0000        12.4690      -999.2500        -0.0081        66.0629        13.3342         8.9409         4.8397         4.6895        23.8570         2.5571     
 8279.5000        12.4989      -999.2500        -0.0099        66.0002        12.1369         8.5765         4.9257         4.8784        23.0730         2.5638     
 8280.0000        12.5000      -999.2500        -0.0109        62.8774        10.9167         7.7929         4.8394         5.3713        21.2447         2.5698     
 8280.5000        12.5000      -999.2500        -0.0100        63.6292        11.7659         7.0633         4.6444         5.4722        21.8049         2.5758     
 8281.0000        12.5000      -999.2500        -0.0081        64.4972        13.4167         6.4805         4.5234         5.2976        22.4870         2.5721     
 8281.5000        12.4622      -999.2500        -0.0080        63.8737        13.6185         6.6198         4.6721         5.3376        24.7317         2.5623     
 8282.0000        12.4610      -999.2500        -0.0071        63.1902        12.3870         6.0934         4.8006         5.7058        24.1921         2.5611     
 8282.5000        12.4688      -999.2500        -0.0031        62.1880        10.2890         6.4877         4.7850         6.0510        24.1700         2.5658     
 8283.0000        12.4690      -999.2500        -0.0021        61.0707         9.2547         5.5541         4.6831         6.0536        23.3689         2.5679     
