~Version Information Section
VERS.          2.0                                     : CWLS LOG ASCII Standard
WRAP.          NO                                      : One line per depth step
CREA.          01/08/16                                : LAS Creation Date
~Well Information Section
STRT.ft        492.5000                                : Start Depth
STOP.ft        11509.0000                              : Stop Depth
STEP.ft        0.5000                                  : Step
NULL.          -999.2500                               : Null Value
COMP.          ENTERPRISE OIL                          : Company
WELL.          15/19-5                                 : Well
FLD .          WILDCAT                                 : Field
LOC .          CENTRAL NORTH SEA                       : Location
LOC1.          6474668.67mN 36212.73mE                 : Location (UTM)
CTRY.          UK                                      : Country
PROV.          UKCS                                    : Province
UWI .          7073                                    : UWI Number
API .                                                  : API Number
SECT.                                                  : Section
TOWN.                                                  : Township
RNGE.                                                  : Range
PDAT.          MSL                                     : Perm Datum
EPD.           0.00                                    : Elevation
LMF .          RT                                      : Log Measured From
DMF .          RT                                      : Drill Measured From
APD .          83.00                                   : Above Perm Datum
EKB .ft        83.00                                   : Elev-Kelly Bushing
EDF .                                                  : Elev-Drill Floor
EGL .ft        -483.00                                 : Elev-Ground Level
TDD .ft        11500.00                                : Total Depth (Driller)
TDL .ft        11512.00                                : Total Depth (Logger)
LAT.           58 23 25.503 N                          : Latitude
LONG.          00 40 38.117 E                          : Longitude
DATE.          MAR-APR-1986                            : Date
SRVC.          SCHLUMBERGER                            : Service Company
PROJ.          UKCS                                    : Project
SET .          COMP WIRE                               : Set
~Curve Information Section
DEPTH.ft                                               : Depth Curve
CALI.in                                                : LDT Caliper 
CAL.in                                                 : DIL Caliper 
DRHO.g/c3                                              : Density Correction
DT.us/ft                                               : Delta-T 
GR.gAPI                                                : DIL Gamma Ray 
GRD.gAPI                                               : LDT Gamma Ray 
ILD.ohmm                                               : Deep Induction Standard Processed Resistivity
ILM.ohmm                                               : Medium Induction Standard Processed Resistivity
NPHI.%                                                 : Neutron Porosity
RHOB.g/c3                                              : Bulk Density
~ASCII Log Data Section
# ...
 9557.5000        12.3440      -999.2500        -0.0020        88.8786        32.5663        17.1255         1.6299         1.8829        21.7334         2.5140     
 9558.0000        12.3361      -999.2500        -0.0010        90.6194        32.4065        17.7292         1.5901         1.8362        21.4859         2.5180     
 9558.5000        12.3590      -999.2500        -0.0010        92.1880        35.8750        20.0310         1.5490         1.7550        22.8520         2.5270     
 9559.0000        12.3590      -999.2500        -0.0030        94.3151        39.0680        21.8531         1.5020         1.6780        24.4578         2.5200     
 9559.5000        12.3670      -999.2500        -0.0070        96.3684        42.4272        25.3328         1.4661         1.6252        26.2154         2.5041     
 9560.0000        12.3590      -999.2500        -0.0100        96.3116        40.3201        25.8424         1.4381         1.5951        26.6097         2.4900     
 9560.5000        12.3590      -999.2500        -0.0110        96.1250        40.7190        27.9556         1.4260         1.5880        26.2721         2.4900     
 9561.0000        12.3590      -999.2500        -0.0110        94.1942        37.6349        24.9477         1.4300         1.6010        25.7337         2.4860     
 9561.5000        12.3670      -999.2500        -0.0090        91.6140        35.1140        23.9721         1.4511         1.6342        25.4399         2.5000     
 9562.0000        12.3829      -999.2500        -0.0090        87.6378        31.1846        17.8365         1.4879         1.6958        23.6932         2.5099     
 9562.5000        12.3910      -999.2500        -0.0050        85.1236        29.1672        16.4530         1.5291         1.7632        22.2660         2.5310     
 9563.0000        12.3830      -999.2500        -0.0080        84.6954        27.6829        15.1681         1.5621         1.8131        21.1944         2.5330     
 9563.5000        12.3910      -999.2500        -0.0130        86.2450        26.6124        16.6981         1.5899         1.8389        21.2399         2.5210     
 9564.0000        12.3910      -999.2500        -0.0100        87.3158        28.8520        17.1545         1.5839         1.8419        22.1162         2.5230     
 9564.5000        12.3672      -999.2500        -0.0011        88.8072        31.9899        16.7059         1.5661         1.8231        21.6341         2.5200     
 9565.0000        12.3590      -999.2500         0.0030        87.8750        33.2810        16.3280         1.5420         1.7690        21.8750         2.5160     
 9565.5000        12.3441      -999.2500         0.0000        87.7551        29.6778        15.9087         1.5159         1.7049        20.5167         2.5061     
 9566.0000        12.3440      -999.2500        -0.0080        88.4976        26.2609        15.4076         1.4821         1.6621        21.4330         2.4881     
 9566.5000        12.3281      -999.2500        -0.0120        87.3801        24.8094        15.6927         1.4589         1.6350        21.6322         2.4859     
 9567.0000        12.3360      -999.2500        -0.0170        87.6880        26.4220        15.2744         1.4320         1.6190        22.2151         2.4671     
 9567.5000        12.3440      -999.2500        -0.0140        87.1268        27.3678        15.9359         1.4090         1.6020        22.3137         2.4690     
 9568.0000        12.3440      -999.2500        -0.0060        88.1364        31.0370        14.9669         1.3900         1.5850        22.1677         2.4790     
 9568.5000        12.3440      -999.2500         0.0030        90.4306        33.8350        15.8492         1.3790         1.5710        21.9248         2.4959     
 9569.0000        12.3200      -999.2500         0.0010        91.7492        35.0306        17.1090         1.3781         1.5630        21.7290         2.4960     
 9569.5000        12.3120      -999.2500        -0.0020        91.5000        34.9060        17.2495         1.3960         1.5560        20.7551         2.4880     
 9570.0000        12.3200      -999.2500        -0.0110        92.4314        33.6318        16.5492         1.4190         1.5641        22.0658         2.4770     
 9570.5000        12.3200      -999.2500        -0.0110        91.3065        34.4574        14.5210         1.4491         1.5912        22.0700         2.4790     
 9571.0000        12.3120      -999.2500        -0.0120        89.8796        33.0665        15.5666         1.4799         1.6379        23.6768         2.4820     
 9571.5000        12.3050      -999.2500        -0.0100        88.4980        32.8710        15.7810         1.5131         1.7012        23.8280         2.4880     
 9572.0000        12.3050      -999.2500        -0.0100        87.8770        31.6449        15.5946         1.5359         1.7648        22.4165         2.4980     
 9572.5000        12.3050      -999.2500        -0.0140        87.3162        31.9963        16.2947         1.5680         1.8000        22.1199         2.4880     
 9573.0000        12.3050      -999.2500        -0.0110        88.0596        31.2215        16.6855         1.6039         1.8209        22.3128         2.4880     
 9573.5000        12.3050      -999.2500        -0.0140        88.8750        29.7190        17.9060         1.6320         1.8430        23.5840         2.4860     
 9574.0000        12.3050      -999.2500        -0.0110        88.7478        28.0001        16.5982         1.6359         1.8409        23.7784         2.5019     
 9574.5000        12.2970      -999.2500        -0.0120        87.9406        26.8786        17.1073         1.6131         1.8131        21.9299         2.5060     
 9575.0000        12.2970      -999.2500        -0.0120        88.8728        26.7548        17.6861         1.5810         1.7820        22.4104         2.4940     
 9575.5000        12.2970      -999.2500        -0.0130        89.1250        28.1090        18.4494         1.5560         1.7580        22.2179         2.4821     
 9576.0000        12.3050      -999.2500        -0.0140        90.0000        31.3120        18.5780         1.5390         1.7270        22.5100         2.4790     
 9576.5000        12.3050      -999.2500        -0.0120        89.5019        31.0918        17.2233         1.5220         1.6990        21.0497         2.4800     
 9577.0000        12.2891      -999.2500        -0.0120        89.5618        27.4029        15.8016         1.5160         1.6880        20.1688         2.4750     
 9577.5000        12.2661      -999.2500        -0.0080        89.0600        24.2756        15.2288         1.5120         1.6821        21.1399         2.4790     
 9578.0000        12.2500      -999.2500        -0.0070        87.9380        24.1410        14.6110         1.5130         1.6930        21.9704         2.4800     
 9578.5000        12.2500      -999.2500        -0.0050        87.3140        26.6639        15.2320         1.5180         1.7089        21.9241         2.4800     
 9579.0000        12.2500      -999.2500        -0.0070        87.0025        25.9265        14.4979         1.5320         1.7220        20.6155         2.4691     
 9579.5000        12.2500      -999.2500        -0.0080        87.3110        26.3576        14.4841         1.5440         1.7290        19.7803         2.4670     
 9580.0000        12.2500      -999.2500        -0.0090        87.0618        24.1693        13.5470         1.5641         1.7391        19.8730         2.4650     
 9580.5000        12.2500      -999.2500        -0.0070        86.9976        23.3058        13.8969         1.5871         1.7621        20.2139         2.4670     
 9581.0000        12.2500      -999.2500        -0.0000        86.5016        22.0201        14.0076         1.6119         1.7889        20.0685         2.4790     
 9581.5000        12.2500      -999.2500         0.0010        85.6228        23.3445        14.9560         1.6330         1.8190        19.8733         2.4820     
