~Version Information Section
VERS.          2.0                                     : CWLS LOG ASCII Standard
WRAP.          NO                                      : One line per depth step
CREA.          01/08/16                                : LAS Creation Date
~Well Information Section
STRT.ft        492.5000                                : Start Depth
STOP.ft        11509.0000                              : Stop Depth
STEP.ft        0.5000                                  : Step
NULL.          -999.2500                               : Null Value
COMP.          ENTERPRISE OIL                          : Company
WELL.          15/19-5                                 : Well
FLD .          WILDCAT                                 : Field
LOC .          CENTRAL NORTH SEA                       : Location
LOC1.          6474668.67mN 36212.73mE                 : Location (UTM)
CTRY.          UK                                      : Country
PROV.          UKCS                                    : Province
UWI .          7073                                    : UWI Number
API .                                                  : API Number
SECT.                                                  : Section
TOWN.                                                  : Township
RNGE.                                                  : Range
PDAT.          MSL                                     : Perm Datum
EPD.           0.00                                    : Elevation
LMF .          RT                                      : Log Measured From
DMF .          RT                                      : Drill Measured From
APD .          83.00                                   : Above Perm Datum
EKB .ft        83.00                                   : Elev-Kelly Bushing
EDF .                                                  : Elev-Drill Floor
EGL .ft        -483.00                                 : Elev-Ground Level
TDD .ft        11500.00                                : Total Depth (Driller)
TDL .ft        11512.00                                : Total Depth (Logger)
LAT.           58 23 25.503 N                          : Latitude
LONG.          00 40 38.117 E                          : Longitude
DATE.          MAR-APR-1986                            : Date
SRVC.          SCHLUMBERGER                            : Service Company
PROJ.          UKCS                                    : Project
SET .          COMP WIRE                               : Set
~Curve Information Section
DEPTH.ft                                               : Depth Curve
CALI.in                                                : LDT Caliper 
CAL.in                                                 : DIL Caliper 
DRHO.g/c3                                              : Density Correction
DT.us/ft                                               : Delta-T 
GR.gAPI                                                : DIL Gamma Ray 
GRD.gAPI                                               : LDT Gamma Ray 
ILD.ohmm                                               : Deep Induction Standard Processed Resistivity
ILM.ohmm                                               : Medium Induction Standard Processed Resistivity
NPHI.%                                                 : Neutron Porosity
RHOB.g/c3                                              : Bulk Density
~ASCII Log Data Section
# ...
 6348.0000        12.8366      -999.2500         0.0027       127.8647        55.2159        35.4540         0.5710         0.6420        41.1691         2.3032     
 6348.5000        12.8794      -999.2500         0.0021       126.8759        53.7808        34.6049         0.5780         0.6430        37.7761         2.3012     
 6349.0000        12.9265      -999.2500         0.0011       125.9380        51.5343        33.3990         0.5850         0.6470        36.5951         2.3066     
 6349.5000        12.9512      -999.2500        -0.0054       125.1898        50.5643        27.6259         0.5900         0.6560        37.5605         2.3015     
 6350.0000        13.0038      -999.2500        -0.0041       122.8700        51.7780        29.0233         0.5980         0.6680        38.6407         2.3150     
 6350.5000        13.0948      -999.2500        -0.0087       118.9941        52.0437        30.0515         0.6120         0.6810        36.4664         2.3326     
 6351.0000        13.2027      -999.2500        -0.0117       116.2572        48.8796        31.6559         0.6250         0.6960        33.5714         2.3488     
 6351.5000        13.3122      -999.2500        -0.0184       115.2599        45.4089        32.8828         0.6350         0.7100        36.4305         2.3389     
 6352.0000        13.4142      -999.2500        -0.0217       117.1190        44.0663        32.6222         0.6370         0.7190        37.5266         2.3177     
 6352.5000        13.5739      -999.2500        -0.0154       120.8742        43.1627        32.3913         0.6290         0.7160        39.1807         2.3022     
 6353.0000        13.7014      -999.2500        -0.0168       123.4384        44.5641        32.6642         0.6189         0.7059        40.0282         2.2862     
 6353.5000        13.8046      -999.2500        -0.0077       124.8096        45.7187        32.7166         0.6030         0.6880        38.9570         2.2961     
 6354.0000        13.9141      -999.2500        -0.0099       125.3744        47.2755        31.8197         0.5830         0.6610        41.7218         2.3147     
 6354.5000        14.0300      -999.2500        -0.0026       125.5614        46.8454        28.5884         0.5651         0.6411        41.7624         2.3493     
 6355.0000        14.1261      -999.2500        -0.0066       126.1270        47.6580        28.7049         0.5490         0.6290        43.1059         2.3316     
 6355.5000        14.1404      -999.2500        -0.0052       127.5032        49.2770        28.7054         0.5300         0.6190        42.3113         2.2995     
 6356.0000        14.2057      -999.2500        -0.0087       128.8691        49.4960        32.5025         0.5220         0.6080        41.5593         2.2730     
 6356.5000        14.2398      -999.2500        -0.0146       127.2407        47.3141        34.0285         0.5250         0.6111        39.6479         2.2710     
 6357.0000        14.1986      -999.2500        -0.0158       123.6337        46.0969        36.3473         0.5350         0.6280        37.1116         2.2913     
 6357.5000        14.1089      -999.2500        -0.0197       122.0018        48.8929        37.6874         0.5440         0.6480        33.8869         2.2967     
 6358.0000        14.0512      -999.2500        -0.0200       120.9340        47.6371        36.1939         0.5491         0.6550        35.3109         2.3025     
 6358.5000        13.9888      -999.2500        -0.0237       119.7528        49.2461        38.3168         0.5680         0.6590        36.7129         2.2956     
 6359.0000        13.9265      -999.2500        -0.0211       115.0430        49.0086        41.4277         0.5930         0.6721        39.1714         2.2969     
 6359.5000        13.8933      -999.2500        -0.0145       107.5181        50.9952        40.6447         0.6139         0.6949        38.4982         2.3099     
 6360.0000        13.8548      -999.2500        -0.0047        93.7845        52.3666        36.9442         0.6280         0.7090        37.6140         2.3518     
 6360.5000        13.8011      -999.2500        -0.0132        74.9847        50.7781        27.9511         0.6400         0.7261        37.0983         2.3864     
 6361.0000        13.7174      -999.2500        -0.0158        75.2466        49.3778        27.5106         0.6560         0.7460        38.2355         2.4011     
 6361.5000        13.6239      -999.2500        -0.0160        73.7801        48.3537        28.2410         0.6680         0.7580        36.7909         2.3659     
 6362.0000        13.5524      -999.2500        -0.0049        80.3539        50.1502        33.9658         0.6839         0.7710        36.4903         2.3472     
 6362.5000        13.4385      -999.2500        -0.0069       101.7687        51.0585        35.1894         0.6970         0.7790        35.3433         2.3312     
 6363.0000        13.3358      -999.2500        -0.0080       105.2390        50.5327        35.5674         0.7000         0.7790        38.4553         2.3429     
 6363.5000        13.2707      -999.2500        -0.0043       114.1118        49.2836        35.5939         0.6960         0.7710        39.3971         2.3579     
 6364.0000        13.1936      -999.2500         0.0007       119.1793        49.0362        34.5788         0.6809         0.7560        39.4074         2.3776     
 6364.5000        13.1086      -999.2500        -0.0017       120.7463        49.9358        33.4610         0.6571         0.7360        41.0731         2.3558     
 6365.0000        13.0001      -999.2500        -0.0057       124.6850        50.4442        28.8163         0.6410         0.7140        41.3014         2.3262     
 6365.5000        12.9487      -999.2500        -0.0134       127.3679        53.5219        29.7087         0.6230         0.6910        41.8500         2.3010     
 6366.0000        12.9090      -999.2500        -0.0150       127.2503        53.2197        32.0664         0.6070         0.6810        38.9595         2.3046     
 6366.5000        12.8986      -999.2500        -0.0150       126.1212        51.1136        32.8582         0.6010         0.6770        36.9094         2.3069     
 6367.0000        12.9128      -999.2500        -0.0168       124.5039        47.0408        31.5932         0.5960         0.6750        35.8210         2.3070     
 6367.5000        12.9649      -999.2500        -0.0226       122.6318        43.4214        30.5005         0.5900         0.6760        35.4708         2.2885     
 6368.0000        13.0697      -999.2500        -0.0211       122.8779        44.6086        31.3754         0.5830         0.6790        37.7966         2.2796     
 6368.5000        13.1576      -999.2500        -0.0210       123.5030        47.7456        37.1066         0.5810         0.6750        39.3433         2.2596     
 6369.0000        13.2586      -999.2500        -0.0089       126.6300        51.2408        35.9374         0.5790         0.6620        40.2682         2.2599     
 6369.5000        13.3455      -999.2500        -0.0090       129.7400        51.0626        35.4372         0.5820         0.6461        37.8053         2.2471     
 6370.0000        13.4316      -999.2500        -0.0063       129.9979        49.1858        30.3618         0.5840         0.6460        37.1448         2.2479     
 6370.5000        13.4518      -999.2500        -0.0097       129.3770        46.4149        29.7103         0.5790         0.6490        38.0578         2.2517     
 6371.0000        13.5113      -999.2500        -0.0110       127.3796        47.1266        29.0219         0.5700         0.6540        38.4516         2.2613     
 6371.5000        13.5447      -999.2500        -0.0100       127.2458        49.1942        29.5784         0.5621         0.6550        40.4719         2.2694     
 6372.0000        13.5756      -999.2500        -0.0082       126.1277        51.9623        30.0585         0.5700         0.6540        38.6831         2.2782     
