~Version Information Section
VERS.          2.0                                     : CWLS LOG ASCII Standard
WRAP.          NO                                      : One line per depth step
CREA.          01/08/16                                : LAS Creation Date
~Well Information Section
STRT.ft        492.5000                                : Start Depth
STOP.ft        11509.0000                              : Stop Depth
STEP.ft        0.5000                                  : Step
NULL.          -999.2500                               : Null Value
COMP.          ENTERPRISE OIL                          : Company
WELL.          15/19-5                                 : Well
FLD .          WILDCAT                                 : Field
LOC .          CENTRAL NORTH SEA                       : Location
LOC1.          6474668.67mN 36212.73mE                 : Location (UTM)
CTRY.          UK                                      : Country
PROV.          UKCS                                    : Province
UWI .          7073                                    : UWI Number
API .                                                  : API Number
SECT.                                                  : Section
TOWN.                                                  : Township
RNGE.                                                  : Range
PDAT.          MSL                                     : Perm Datum
EPD.           0.00                                    : Elevation
LMF .          RT                                      : Log Measured From
DMF .          RT                                      : Drill Measured From
APD .          83.00                                   : Above Perm Datum
EKB .ft        83.00                                   : Elev-Kelly Bushing
EDF .                                                  : Elev-Drill Floor
EGL .ft        -483.00                                 : Elev-Ground Level
TDD .ft        11500.00                                : Total Depth (Driller)
TDL .ft        11512.00                                : Total Depth (Logger)
LAT.           58 23 25.503 N                          : Latitude
LONG.          00 40 38.117 E                          : Longitude
DATE.          MAR-APR-1986                            : Date
SRVC.          SCHLUMBERGER                            : Service Company
PROJ.          UKCS                                    : Project
SET .          COMP WIRE                               : Set
~Curve Information Section
DEPTH.ft                                               : Depth Curve
CALI.in                                                : LDT Caliper 
CAL.in                                                 : DIL Caliper 
DRHO.g/c3                                              : Density Correction
DT.us/ft                                               : Delta-T 
GR.gAPI                                                : DIL Gamma Ray 
GRD.gAPI                                               : LDT Gamma Ray 
ILD.ohmm                                               : Deep Induction Standard Processed Resistivity
ILM.ohmm                                               : Medium Induction Standard Processed Resistivity
NPHI.%                                                 : Neutron Porosity
RHOB.g/c3                                              : Bulk Density
~ASCII Log Data Section
# ...
 5662.0000        17.5160        17.5156        -0.0140       135.3806        18.5700        18.5653         0.5288         0.6079      -999.2500         2.1540     
 5662.5000        17.5468        17.5469        -0.0150       136.2461        19.8859        19.8859         0.5132         0.6025      -999.2500         2.1450     
 5663.0000        17.5161        17.5156        -0.0080       135.5060        25.7052        25.7092         0.5074         0.5987      -999.2500         2.1450     
 5663.5000        17.5160        17.5156        -0.0100       136.6223        27.3261        27.3260         0.5161         0.6011      -999.2500         2.1540     
 5664.0000        17.5161        17.5156        -0.0030       136.6262        28.4547        28.4474         0.5278         0.6074      -999.2500         2.1699     
 5664.5000        17.5310        17.5313        -0.0060       137.1226        23.7604        23.7613         0.5356         0.6182      -999.2500         2.1660     
 5665.0000        17.5779        17.5781         0.0000       136.6241        23.1864        23.1869         0.5439         0.6313      -999.2500         2.1501     
 5665.5000        17.5779        17.5781         0.0050       135.7531        22.1740        22.1706         0.5527         0.6416      -999.2500         2.1580     
 5666.0000        17.5621        17.5625         0.0030       135.8744        21.4868        21.4862         0.5644         0.6528      -999.2500         2.1600     
 5666.5000        17.6088        17.6093        -0.0010       135.7502        21.8274        21.8279         0.5737         0.6621      -999.2500         2.1600     
 5667.0000        17.5940        17.5938        -0.0060       135.6244        22.0803        22.0774         0.5747         0.6660      -999.2500         2.1560     
 5667.5000        17.5629        17.5625        -0.0080       135.2506        23.2165        23.2162         0.5688         0.6641      -999.2500         2.1600     
 5668.0000        17.5162        17.5156        -0.0130       134.8789        24.1064        24.1050         0.5581         0.6577      -999.2500         2.1679     
 5668.5000        17.5311        17.5313        -0.0180       136.1194        23.7841        23.7832         0.5474         0.6445      -999.2500         2.1620     
 5669.0000        17.5937        17.5938        -0.0170       135.6274        24.5247        24.5212         0.5386         0.6270      -999.2500         2.1600     
 5669.5000        17.5621        17.5625        -0.0110       136.1211        22.5346        22.5358         0.5317         0.6148      -999.2500         2.1660     
 5670.0000        17.5311        17.5313        -0.0070       135.0012        21.9371        21.9370         0.5254         0.6113      -999.2500         2.1740     
 5670.5000        17.5312        17.5313        -0.0070       134.3756        21.1916        21.1944         0.5225         0.6138      -999.2500         2.1820     
 5671.0000        17.5619        17.5625        -0.0060       134.0003        22.1561        22.1551         0.5225         0.6201      -999.2500         2.1780     
 5671.5000        17.5620        17.5625        -0.0050       133.7542        23.0594        23.0583         0.5239         0.6255      -999.2500         2.1700     
 5672.0000        17.5620        17.5625        -0.0010       135.2432        22.6874        22.6889         0.5322         0.6294      -999.2500         2.1700     
 5672.5000        17.5311        17.5313        -0.0050       134.6265        22.2780        22.2778         0.5444         0.6362      -999.2500         2.1720     
 5673.0000        17.5309        17.5313        -0.0090       134.6242        20.5339        20.5315         0.5591         0.6489      -999.2500         2.1719     
 5673.5000        17.5161        17.5156        -0.0110       134.3747        19.6096        19.6099         0.5757         0.6655      -999.2500         2.1600     
 5674.0000        17.5309        17.5313        -0.0130       133.9984        18.7856        18.7858         0.5933         0.6787      -999.2500         2.1560     
 5674.5000        17.5160        17.5156        -0.0130       133.1265        19.3138        19.3107         0.6118         0.6904      -999.2500         2.1560     
 5675.0000        17.5160        17.5156        -0.0190       132.8706        20.3869        20.3873         0.6294         0.7105      -999.2500         2.1640     
 5675.5000        17.5160        17.5156        -0.0190       131.2509        20.3127        20.3122         0.6470         0.7382      -999.2500         2.1741     
 5676.0000        17.5160        17.5156        -0.0170       130.0012        20.3124        20.3120         0.6567         0.7529      -999.2500         2.1880     
 5676.5000        17.5159        17.5156        -0.0210       129.2554        20.2823        20.2835         0.6616         0.7583      -999.2500         2.1910     
 5677.0000        17.5000        17.5000        -0.0210       130.7464        20.8725        20.8736         0.6621         0.7568      -999.2500         2.1860     
 5677.5000        17.5308        17.5313        -0.0280       130.7518        20.4214        20.4199         0.6577         0.7456      -999.2500         2.1740     
 5678.0000        17.5000        17.5000        -0.0240       131.5006        19.4239        19.4236         0.6489         0.7310      -999.2500         2.1780     
 5678.5000        17.4840        17.4844        -0.0250       132.4976        19.2495        19.2493         0.6387         0.7173      -999.2500         2.1760     
 5679.0000        17.4840        17.4844        -0.0200       133.2431        18.5613        18.5590         0.6255         0.7090      -999.2500         2.1660     
 5679.5000        17.4840        17.4844        -0.0210       131.1316        17.3942        17.3957         0.6099         0.7002      -999.2500         2.1580     
 5680.0000        17.5159        17.5156        -0.0100       130.0018        17.3170        17.3165         0.6025         0.6939      -999.2500         2.1860     
 5680.5000        17.5160        17.5156        -0.0030       129.6300        19.1068        19.1121         0.5986         0.6924      -999.2500         2.2070     
 5681.0000        17.5160        17.5156        -0.0000       130.6268        21.0616        21.0599         0.6011         0.6958      -999.2500         2.2129     
 5681.5000        17.5159        17.5156        -0.0000       132.3702        22.6470        22.6531         0.6060         0.7017      -999.2500         2.1891     
 5682.0000        17.5000        17.5000        -0.0030       132.6187        26.2075        26.2104         0.6128         0.7129      -999.2500         2.1880     
 5682.5000        17.5160        17.5156        -0.0070       130.2518        25.0975        25.0977         0.6206         0.7226      -999.2500         2.1910     
 5683.0000        17.5160        17.5156        -0.0140       128.6286        25.5055        25.4941         0.6201         0.7119      -999.2500         2.1989     
 5683.5000        17.5160        17.5156        -0.0160       128.5102        21.7498        21.7430         0.6152         0.7027      -999.2500         2.1840     
 5684.0000        17.5161        17.5156        -0.0080       132.6190        24.3817        24.3804         0.6148         0.7070      -999.2500         2.1839     
 5684.5000        17.5310        17.5313        -0.0100       134.2458        23.3361        23.3305         0.6216         0.7124      -999.2500         2.1700     
 5685.0000        17.5309        17.5313        -0.0160       134.1218        25.5994        25.6009         0.6440         0.7193      -999.2500         2.1680     
 5685.5000        17.5161        17.5156        -0.0190       133.0006        24.7869        24.7915         0.6557         0.7305      -999.2500         2.1600     
 5686.0000        17.5309        17.5313        -0.0170       132.1238        26.3127        26.3178         0.6533         0.7368      -999.2500         2.1600     
