~Version Information Section
VERS.          2.0                                     : CWLS LOG ASCII Standard
WRAP.          NO                                      : One line per depth step
CREA.          01/08/16                                : LAS Creation Date
~Well Information Section
STRT.ft        492.5000                                : Start Depth
STOP.ft        11509.0000                              : Stop Depth
STEP.ft        0.5000                                  : Step
NULL.          -999.2500                               : Null Value
COMP.          ENTERPRISE OIL                          : Company
WELL.          15/19-5                                 : Well
FLD .          WILDCAT                                 : Field
LOC .          CENTRAL NORTH SEA                       : Location
LOC1.          6474668.67mN 36212.73mE                 : Location (UTM)
CTRY.          UK                                      : Country
PROV.          UKCS                                    : Province
UWI .          7073                                    : UWI Number
API .                                                  : API Number
SECT.                                                  : Section
TOWN.                                                  : Township
RNGE.                                                  : Range
PDAT.          MSL                                     : Perm Datum
EPD.           0.00                                    : Elevation
LMF .          RT                                      : Log Measured From
DMF .          RT                                      : Drill Measured From
APD .          83.00                                   : Above Perm Datum
EKB .ft        83.00                                   : Elev-Kelly Bushing
EDF .                                                  : Elev-Drill Floor
EGL .ft        -483.00                                 : Elev-Ground Level
TDD .ft        11500.00                                : Total Depth (Driller)
TDL .ft        11512.00                                : Total Depth (Logger)
LAT.           58 23 25.503 N                          : Latitude
LONG.          00 40 38.117 E                          : Longitude
DATE.          MAR-APR-1986                            : Date
SRVC.          SCHLUMBERGER                            : Service Company
PROJ.          UKCS                                    : Project
SET .          COMP WIRE                               : Set
~Curve Information Section
DEPTH.ft                                               : Depth Curve
CALI.in                                                : LDT Caliper 
CAL.in                                                 : DIL Caliper 
DRHO.g/c3                                              : Density Correction
DT.us/ft                                               : Delta-T 
GR.gAPI                                                : DIL Gamma Ray 
GRD.gAPI                                               : LDT Gamma Ray 
ILD.ohmm                                               : Deep Induction Standard Processed Resistivity
ILM.ohmm                                               : Medium Induction Standard Processed Resistivity
NPHI.%                                                 : Neutron Porosity
RHOB.g/c3                                              : Bulk Density
~ASCII Log Data Section
# ...
 4388.0000        17.6723        17.6719         0.0131       132.3723        19.4336        19.4330         1.0762         1.1904      -999.2500         2.0492     
 4388.5000        17.7500        17.7500         0.0469       129.8834        18.9692        18.9695         1.0762         1.2021      -999.2500         2.0860     
 4389.0000        17.8433        17.8438         0.0509       130.8723        18.5785        18.5779         1.0654         1.1982      -999.2500         2.1130     
 4389.5000        17.7343        17.7344         0.0231       130.7504        18.3293        18.3286         1.0508         1.1768      -999.2500         2.1210     
 4390.0000        17.7031        17.7031         0.0000       130.7518        18.5666        18.5661         1.0391         1.1524      -999.2500         2.1190     
 4390.5000        17.7339        17.7343        -0.0100       131.4952        20.4930        20.4879         1.0254         1.1319      -999.2500         2.1150     
 4391.0000        17.7340        17.7344        -0.0080       131.1265        19.9725        19.9719         1.0107         1.1172      -999.2500         2.1090     
 4391.5000        17.7031        17.7032        -0.0030       131.3762        20.9803        20.9778         0.9986         1.1065      -999.2500         2.1090     
 4392.0000        17.7030        17.7031         0.0030       132.1226        20.4874        20.4852         0.9917         1.0996      -999.2500         2.1090     
 4392.5000        17.6879        17.6875        -0.0020       131.8766        21.2301        21.2291         0.9878         1.0938      -999.2500         2.1070     
 4393.0000        17.6410        17.6406        -0.0010       132.1241        20.4536        20.4518         0.9878         1.0928      -999.2500         2.1050     
 4393.5000        17.6250        17.6250        -0.0070       131.9997        19.8915        19.8923         0.9888         1.0957      -999.2500         2.1020     
 4394.0000        17.6251        17.6250        -0.0060       131.7500        19.6896        19.6911         0.9897         1.0996      -999.2500         2.1020     
 4394.5000        17.6410        17.6406        -0.0100       131.5003        20.3406        20.3424         0.9907         1.1035      -999.2500         2.1000     
 4395.0000        17.6559        17.6563        -0.0050       131.3771        19.6895        19.6901         0.9902         1.1025      -999.2500         2.1039     
 4395.5000        17.6410        17.6406        -0.0080       132.1262        19.8569        19.8544         0.9888         1.0986      -999.2500         2.0880     
 4396.0000        17.6249        17.6250        -0.0020       133.3726        18.9926        18.9888         0.9868         1.0918      -999.2500         2.0720     
 4396.5000        17.5619        17.5625         0.0010       133.8753        20.6832        20.6835         0.9844         1.0830      -999.2500         2.0590     
 4397.0000        17.5002        17.5000         0.0050       134.4952        20.5797        20.5784         0.9829         1.0781      -999.2500         2.0620     
 4397.5000        17.5160        17.5156         0.0050       133.6256        20.9676        20.9678         0.9814         1.0762      -999.2500         2.0760     
 4398.0000        17.5470        17.5469         0.0000       133.0016        20.8702        20.8664         0.9815         1.0781      -999.2500         2.0780     
 4398.5000        17.5620        17.5625         0.0000       132.8750        19.2693        19.2697         0.9854         1.0811      -999.2500         2.0760     
 4399.0000        17.5779        17.5781         0.0000       132.7508        19.1836        19.1820         0.9912         1.0889      -999.2500         2.0740     
 4399.5000        17.5780        17.5781         0.0010       132.8726        17.8930        17.8941         0.9995         1.0957      -999.2500         2.0820     
 4400.0000        17.6090        17.6094         0.0020       132.0027        17.5936        17.5938         1.0068         1.0996      -999.2500         2.0900     
 4400.5000        17.6410        17.6406         0.0020       132.2479        17.2336        17.2311         1.0137         1.1055      -999.2500         2.0960     
 4401.0000        17.6560        17.6563         0.0000       131.6265        16.5519        16.5486         1.0205         1.1143      -999.2500         2.1000     
 4401.5000        17.6251        17.6250        -0.0050       131.6280        17.9505        17.9514         1.0244         1.1250      -999.2500         2.0980     
 4402.0000        17.6250        17.6250        -0.0100       132.8717        18.3921        18.3899         1.0264         1.1299      -999.2500         2.0920     
 4402.5000        17.6090        17.6094        -0.0110       132.7498        19.4348        19.4348         1.0254         1.1279      -999.2500         2.0880     
 4403.0000        17.5943        17.5938        -0.0080       132.5003        19.8576        19.8565         1.0254         1.1260      -999.2500         2.0860     
 4403.5000        17.6557        17.6562        -0.0050       132.3724        19.5462        19.5463         1.0273         1.1240      -999.2500         2.0880     
 4404.0000        17.5783        17.5781        -0.0110       131.3768        18.5004        18.4990         1.0303         1.1221      -999.2500         2.0860     
 4404.5000        17.5939        17.5937        -0.0100       131.1262        17.6279        17.6288         1.0332         1.1260      -999.2500         2.0960     
 4405.0000        17.6252        17.6250        -0.0100       131.1244        17.7049        17.7048         1.0312         1.1377      -999.2500         2.0860     
 4405.5000        17.7337        17.7344         0.0030       130.8758        18.5290        18.5290         1.0283         1.1396      -999.2500         2.0939     
 4406.0000        17.7340        17.7344         0.0060       130.8774        18.6543        18.6546         1.0234         1.1338      -999.2500         2.0840     
 4406.5000        17.7190        17.7188         0.0000       131.8720        17.9719        17.9731         1.0205         1.1221      -999.2500         2.0840     
 4407.0000        17.7030        17.7031         0.0000       131.6283        18.5757        18.5765         1.0176         1.1123      -999.2500         2.0900     
 4407.5000        17.7190        17.7188         0.0000       132.7458        18.1720        18.1721         1.0137         1.1045      -999.2500         2.0980     
 4408.0000        17.7188        17.7188         0.0049       132.1271        17.7960        17.7937         1.0078         1.0957      -999.2500         2.1019     
 4408.5000        17.6881        17.6875        -0.0040       132.3762        17.0489        17.0488         0.9961         1.0918      -999.2500         2.0900     
 4409.0000        17.6560        17.6563        -0.0050       133.1230        17.1587        17.1592         0.9868         1.0879      -999.2500         2.0980     
 4409.5000        17.6410        17.6406        -0.0050       133.2482        18.0290        18.0289         0.9854         1.0820      -999.2500         2.1040     
 4410.0000        17.6411        17.6406        -0.0060       132.6058        17.9523        17.9521         0.9888         1.0840      -999.2500         2.1020     
 4410.5000        17.6717        17.6719        -0.0040       125.9937        17.6102        17.6098         0.9927         1.0928      -999.2500         2.1132     
 4411.0000        17.6411        17.6406        -0.0060       116.7720        17.6080        17.6083         1.0010         1.0996      -999.2500         2.1460     
 4411.5000        17.6250        17.6250         0.0010       114.3825        17.1739        17.1747         1.0078         1.1065      -999.2500         2.1968     
 4412.0000        17.6091        17.6094         0.0010       115.1414        17.5744        17.5767         1.0107         1.1162      -999.2500         2.1880     
