~Version Information Section
VERS.          2.0                                     : CWLS LOG ASCII Standard
WRAP.          NO                                      : One line per depth step
CREA.          01/08/16                                : LAS Creation Date
~Well Information Section
STRT.ft        492.5000                                : Start Depth
STOP.ft        11509.0000                              : Stop Depth
STEP.ft        0.5000                                  : Step
NULL.          -999.2500                               : Null Value
COMP.          ENTERPRISE OIL                          : Company
WELL.          15/19-5                                 : Well
FLD .          WILDCAT                                 : Field
LOC .          CENTRAL NORTH SEA                       : Location
LOC1.          6474668.67mN 36212.73mE                 : Location (UTM)
CTRY.          UK                                      : Country
PROV.          UKCS                                    : Province
UWI .          7073                                    : UWI Number
API .                                                  : API Number
SECT.                                                  : Section
TOWN.                                                  : Township
RNGE.                                                  : Range
PDAT.          MSL                                     : Perm Datum
EPD.           0.00                                    : Elevation
LMF .          RT                                      : Log Measured From
DMF .          RT                                      : Drill Measured From
APD .          83.00                                   : Above Perm Datum
EKB .ft        83.00                                   : Elev-Kelly Bushing
EDF .                                                  : Elev-Drill Floor
EGL .ft        -483.00                                 : Elev-Ground Level
TDD .ft        11500.00                                : Total Depth (Driller)
TDL .ft        11512.00                                : Total Depth (Logger)
LAT.           58 23 25.503 N                          : Latitude
LONG.          00 40 38.117 E                          : Longitude
DATE.          MAR-APR-1986                            : Date
SRVC.          SCHLUMBERGER                            : Service Company
PROJ.          UKCS                                    : Project
SET .          COMP WIRE                               : Set
~Curve Information Section
DEPTH.ft                                               : Depth Curve
CALI.in                                                : LDT Caliper 
CAL.in                                                 : DIL Caliper 
DRHO.g/c3                                              : Density Correction
DT.us/ft                                               : Delta-T 
GR.gAPI                                                : DIL Gamma Ray 
GRD.gAPI                                               : LDT Gamma Ray 
ILD.ohmm                                               : Deep Induction Standard Processed Resistivity
ILM.ohmm                                               : Medium Induction Standard Processed Resistivity
NPHI.%                                                 : Neutron Porosity
RHOB.g/c3                                              : Bulk Density
~ASCII Log Data Section
# ...
 7622.0000        12.0860      -999.2500        -0.0210        93.1212        34.1947        23.9309         0.6161         0.8061        29.3775         2.2431     
 7622.5000        12.0937      -999.2500        -0.0220        94.3876        35.6764        24.0780         0.5919         0.7910        31.1716         2.2238     
 7623.0000        12.0864      -999.2500        -0.0248        98.3138        32.0724        22.6919         0.5578         0.7829        29.3869         2.1906     
 7623.5000        12.0936      -999.2500        -0.0259        98.6868        34.2430        19.2376         0.5102         0.7581        28.5045         2.1671     
 7624.0000        12.0940      -999.2500        -0.0260        99.6261        34.0397        17.0904         0.4811         0.7039        28.8872         2.1583     
 7624.5000        12.0940      -999.2500        -0.0213       100.4972        35.7136        17.0448         0.4770         0.6422        30.8150         2.1675     
 7625.0000        12.0863      -999.2500        -0.0229        98.3120        38.8120        17.7347         0.4950         0.6050        28.9929         2.1871     
 7625.5000        12.0860      -999.2500        -0.0230        96.2424        38.2682        20.4732         0.5270         0.6143        27.3722         2.2270     
 7626.0000        12.0936      -999.2500        -0.0240        94.0072        40.8357        22.9476         0.5459         0.6638        25.5722         2.2710     
 7626.5000        12.1084      -999.2500        -0.0212        93.0706        40.9714        24.4968         0.5531         0.7280        27.5911         2.3036     
 7627.0000        12.0871      -999.2500        -0.0134        94.2500        41.5620        26.6067         0.5700         0.7790        28.7584         2.2993     
 7627.5000        12.0936      -999.2500        -0.0092        96.0008        39.7790        25.3599         0.5980         0.8089        30.3474         2.2723     
 7628.0000        12.0940      -999.2500        -0.0081        97.9920        37.3785        24.6696         0.6290         0.8179        27.5697         2.2376     
 7628.5000        12.0940      -999.2500        -0.0118        97.7508        36.7211        21.8139         0.6509         0.8070        27.1167         2.2141     
 7629.0000        12.1017      -999.2500        -0.0129        98.4362        35.6005        22.4216         0.6509         0.7769        28.9275         2.2092     
 7629.5000        12.1086      -999.2500        -0.0092        97.8750        37.6250        22.6173         0.6330         0.7530        31.7083         2.2224     
 7630.0000        12.1090      -999.2500        -0.0109        99.4258        37.4121        21.8638         0.6080         0.7430        32.0687         2.2192     
 7630.5000        12.1090      -999.2500        -0.0129        97.1932        39.0833        20.3580         0.5910         0.7310        29.5283         2.2171     
 7631.0000        12.1090      -999.2500        -0.0120        96.8760        38.2527        18.9536         0.5890         0.7190        27.8087         2.2265     
 7631.5000        12.1244      -999.2500        -0.0148        98.4302        39.2558        18.2010         0.5971         0.7141        27.8280         2.2414     
 7632.0000        12.1250      -999.2500        -0.0083        96.0078        41.0562        19.7957         0.6159         0.7299        30.4853         2.2697     
 7632.5000        12.1174      -999.2500        -0.0080        96.8078        41.4980        21.3075         0.6300         0.7570        33.3663         2.2805     
 7633.0000        12.1094      -999.2500        -0.0042        96.3136        41.3126        24.3961         0.6320         0.7869        33.0774         2.2962     
 7633.5000        12.1090      -999.2500        -0.0155        96.5620        40.8440        23.7100         0.6390         0.8020        31.0952         2.2798     
 7634.0000        12.0794      -999.2500        -0.0160        94.9432        40.6059        22.9699         0.6530         0.8110        29.5109         2.2665     
 7634.5000        12.0856      -999.2500        -0.0198        94.9380        36.5132        20.9264         0.6620         0.8269        28.6986         2.2431     
 7635.0000        12.0860      -999.2500        -0.0114        94.8106        32.9678        19.7986         0.6590         0.8589        28.6621         2.2257     
 7635.5000        12.0860      -999.2500        -0.0100        94.2500        29.0780        18.7366         0.6470         0.8670        29.6410         2.2040     
 7636.0000        12.0783      -999.2500        -0.0043        94.3120        28.8120        18.0452         0.6260         0.8400        28.8930         2.2049     
 7636.5000        12.0780      -999.2500        -0.0087        92.3190        27.7847        16.7455         0.6010         0.8040        27.9233         2.2069     
 7637.0000        12.0780      -999.2500        -0.0147        92.4376        27.8587        16.5537         0.5831         0.7701        26.5774         2.2089     
 7637.5000        12.0856      -999.2500        -0.0178        91.0058        28.7220        16.8899         0.5690         0.7311        26.7004         2.2166     
 7638.0000        12.0860      -999.2500        -0.0113        91.3777        30.5355        17.8458         0.5590         0.7080        27.4074         2.2333     
 7638.5000        12.0860      -999.2500        -0.0014        91.9362        31.4660        17.8306         0.5560         0.7070        27.6281         2.2512     
 7639.0000        12.0937      -999.2500        -0.0039        91.9398        31.4329        16.7517         0.5510         0.7140        25.5809         2.2463     
 7639.5000        12.0940      -999.2500        -0.0116        92.3108        33.6489        16.7631         0.5580         0.7270        25.7207         2.2384     
 7640.0000        12.0863      -999.2500        -0.0197        92.6250        37.5940        17.4693         0.5600         0.7450        26.5273         2.2361     
 7640.5000        12.0936      -999.2500        -0.0276        93.4429        37.3947        19.4496         0.5620         0.7650        30.6091         2.2303     
 7641.0000        12.0864      -999.2500        -0.0261        94.6212        35.5370        19.6058         0.5570         0.7790        31.2758         2.2176     
 7641.5000        12.0783      -999.2500        -0.0212        95.8745        31.7879        18.5182         0.5460         0.7649        30.5517         2.1921     
 7642.0000        12.1009      -999.2500        -0.0124        96.6250        33.8440        18.3191         0.5440         0.7330        29.5848         2.1824     
 7642.5000        12.1087      -999.2500        -0.0082        98.5000        42.6560        19.8547         0.5620         0.7040        28.2311         2.2078     
 7643.0000        12.1090      -999.2500        -0.0099       100.1818        49.2525        29.2953         0.5891         0.6883        30.7474         2.2684     
 7643.5000        12.1090      -999.2500        -0.0128       100.0624        57.8165        35.4986         0.6129         0.7289        32.6288         2.3407     
 7644.0000        12.0947      -999.2500        -0.0168        99.5521        54.8057        46.5731         0.6290         0.7870        34.4895         2.3736     
 7644.5000        12.1016      -999.2500        -0.0179        95.9380        49.7810        43.1236         0.6440         0.8350        34.4306         2.3549     
 7645.0000        12.1020      -999.2500        -0.0208        95.2498        41.4786        38.3113         0.6640         0.8760        33.6311         2.3072     
 7645.5000        12.0944      -999.2500        -0.0210        94.5000        36.1822        26.1294         0.6960         0.9181        32.4312         2.2602     
 7646.0000        12.0864      -999.2500        -0.0229        94.1262        32.6054        19.3797         0.7159         0.9559        30.2316         2.2227     
