~Version Information Section
VERS.          2.0                                     : CWLS LOG ASCII Standard
WRAP.          NO                                      : One line per depth step
CREA.          01/08/16                                : LAS Creation Date
~Well Information Section
STRT.ft        492.5000                                : Start Depth
STOP.ft        11509.0000                              : Stop Depth
STEP.ft        0.5000                                  : Step
NULL.          -999.2500                               : Null Value
COMP.          ENTERPRISE OIL                          : Company
WELL.          15/19-5                                 : Well
FLD .          WILDCAT                                 : Field
LOC .          CENTRAL NORTH SEA                       : Location
LOC1.          6474668.67mN 36212.73mE                 : Location (UTM)
CTRY.          UK                                      : Country
PROV.          UKCS                                    : Province
UWI .          7073                                    : UWI Number
API .                                                  : API Number
SECT.                                                  : Section
TOWN.                                                  : Township
RNGE.                                                  : Range
PDAT.          MSL                                     : Perm Datum
EPD.           0.00                                    : Elevation
LMF .          RT                                      : Log Measured From
DMF .          RT                                      : Drill Measured From
APD .          83.00                                   : Above Perm Datum
EKB .ft        83.00                                   : Elev-Kelly Bushing
EDF .                                                  : Elev-Drill Floor
EGL .ft        -483.00                                 : Elev-Ground Level
TDD .ft        11500.00                                : Total Depth (Driller)
TDL .ft        11512.00                                : Total Depth (Logger)
LAT.           58 23 25.503 N                          : Latitude
LONG.          00 40 38.117 E                          : Longitude
DATE.          MAR-APR-1986                            : Date
SRVC.          SCHLUMBERGER                            : Service Company
PROJ.          UKCS                                    : Project
SET .          COMP WIRE                               : Set
~Curve Information Section
DEPTH.ft                                               : Depth Curve
CALI.in                                                : LDT Caliper 
CAL.in                                                 : DIL Caliper 
DRHO.g/c3                                              : Density Correction
DT.us/ft                                               : Delta-T 
GR.gAPI                                                : DIL Gamma Ray 
GRD.gAPI                                               : LDT Gamma Ray 
ILD.ohmm                                               : Deep Induction Standard Processed Resistivity
ILM.ohmm                                               : Medium Induction Standard Processed Resistivity
NPHI.%                                                 : Neutron Porosity
RHOB.g/c3                                              : Bulk Density
~ASCII Log Data Section
# ...
 8896.0000        12.5002      -999.2500        -0.0060        63.3764        14.6553         8.5635         4.1250         4.5942        15.0654         2.5942     
 8896.5000        12.5000      -999.2500        -0.0080        64.6330        14.0073         8.3697         4.0224         4.6087        15.9551         2.5861     
 8897.0000        12.5000      -999.2500        -0.0090        67.1170        13.8056         7.9384         3.8286         4.5003        17.1645         2.5840     
 8897.5000        12.4921      -999.2500        -0.0070        69.6852        17.2417         8.3521         3.7732         4.1054        19.1095         2.5781     
 8898.0000        12.4920      -999.2500        -0.0060        71.3758        18.0973         9.5372         3.7728         3.8366        19.5709         2.5741     
 8898.5000        12.4999      -999.2500        -0.0090        72.6880        19.3590         9.9766         3.7340         3.7850        19.1959         2.5612     
 8899.0000        12.5079      -999.2500        -0.0110        69.2510        16.7852         9.3680         3.6836         3.8591        18.8529         2.5590     
 8899.5000        12.5158      -999.2500        -0.0198        69.5610        18.0898         8.3635         3.5474         3.8749        17.9378         2.5590     
 8900.0000        12.5160      -999.2500        -0.0200        69.0084        18.3293         8.0016         3.4303         3.7729        19.0732         2.5659     
 8900.5000        12.5082      -999.2500        -0.0249        71.0554        18.9819         8.9872         3.4001         3.6504        17.9440         2.5591     
 8901.0000        12.5080      -999.2500        -0.0181        71.6880        17.8910         9.9285         3.4510         3.6310        18.7835         2.5659     
 8901.5000        12.5001      -999.2500        -0.0180        70.2564        16.1585        10.2913         3.5531         3.7136        19.0391         2.5611     
 8902.0000        12.5078      -999.2500        -0.0072        70.6238        15.5250         9.6535         3.6497         3.8845        20.0013         2.5777     
 8902.5000        12.5080      -999.2500        -0.0070        68.9432        15.9491         8.8185         3.7340         4.0082        19.2505         2.5721     
 8903.0000        12.5001      -999.2500        -0.0060        68.8750        17.6410         8.4591         3.8220         4.1800        17.5589         2.5799     
 8903.5000        12.5000      -999.2500        -0.0129        68.0028        16.7688         7.6527         3.9895         4.3973        17.2417         2.5722     
 8904.0000        12.5000      -999.2500        -0.0100        66.8047        15.0374         7.2140         4.2112         4.6027        16.6595         2.5779     
 8904.5000        12.5000      -999.2500        -0.0051        64.5074        13.5518         6.8554         4.3904         4.8781        16.9849         2.5839     
 8905.0000        12.5000      -999.2500        -0.0020        63.5642        12.4401         6.2498         4.5788         5.1725        15.0643         2.5978     
 8905.5000        12.5000      -999.2500        -0.0059        64.2464        13.0990         6.5181         4.8245         5.3247        15.7582         2.5941     
 8906.0000        12.5078      -999.2500        -0.0129        63.5024        12.4710         6.5848         4.9376         5.4795        14.3351         2.5881     
 8906.5000        12.5001      -999.2500        -0.0169        64.0611        12.9143         6.5781         5.0119         5.6087        15.0274         2.5841     
 8907.0000        12.5000      -999.2500        -0.0140        64.2494        11.6132         6.5662         5.0349         5.6409        13.8395         2.5899     
 8907.5000        12.5000      -999.2500        -0.0071        63.8120        11.8360         6.6509         5.0230         5.5620        15.3607         2.5979     
 8908.0000        12.4922      -999.2500        -0.0031        64.7529        12.2673         7.0777         5.0122         5.5313        16.3383         2.5902     
 8908.5000        12.4998      -999.2500        -0.0030        65.6850        12.6936         6.9673         5.0429         5.5619        17.2190         2.5900     
 8909.0000        12.5000      -999.2500        -0.0069        65.8086        13.3249         6.3382         4.9877         5.5892        17.1405         2.5900     
 8909.5000        12.5157      -999.2500        -0.0119        65.1880        13.1090         6.1866         4.8950         5.4410        16.6115         2.5841     
 8910.0000        12.5160      -999.2500        -0.0120        64.9990        12.9140         6.7449         4.7808         5.3519        16.9858         2.5742     
 8910.5000        12.5307      -999.2500        -0.0130        64.5170        12.7037         7.0187         4.5977         5.2291        16.0788         2.5701     
 8911.0000        12.5163      -999.2500        -0.0169        66.9302        11.4570         7.0230         4.4535         5.0207        16.1120         2.5622     
 8911.5000        12.4923      -999.2500        -0.0170        67.5592        14.0753         6.6765         4.4611         4.5975        16.1130         2.5512     
 8912.0000        12.4999      -999.2500        -0.0180        66.6880        13.2270         6.8675         4.4770         4.4530        18.1279         2.5353     
 8912.5000        12.5000      -999.2500        -0.0092        67.7972        14.5042         6.6562         4.4491         4.6451        18.3552         2.5566     
 8913.0000        12.5000      -999.2500        -0.0041        64.3263        12.1370         6.6451         4.4608         4.8626        17.5450         2.5697     
 8913.5000        12.4921      -999.2500         0.0009        64.8104        14.0558         6.7324         4.4411         4.9138        15.8020         2.5916     
 8914.0000        12.4920      -999.2500         0.0059        64.9328        14.8973         7.0163         4.5317         5.0558        15.3860         2.5979     
 8914.5000        12.4920      -999.2500         0.0021        63.3172        14.6727         7.3299         4.7573         5.3112        15.2369         2.5980     
 8915.0000        12.4999      -999.2500        -0.0068        62.3146        12.5049         7.3399         4.9725         5.6088        15.8106         2.5960     
 8915.5000        12.5000      -999.2500        -0.0197        62.1256        11.8461         7.4771         5.0428         5.8353        15.4380         2.5842     
 8916.0000        12.4921      -999.2500        -0.0220        64.0620        12.7270         7.3423         5.0550         5.7890        15.5255         2.5781     
 8916.5000        12.4999      -999.2500        -0.0171        65.3131        14.6578         7.9698         5.0305         5.5898        15.0950         2.5741     
 8917.0000        12.5000      -999.2500        -0.0091        66.3716        14.6720         7.5586         4.9223         5.4066        16.0950         2.5740     
 8917.5000        12.4921      -999.2500        -0.0001        68.1806        14.6519         8.0086         4.7419         5.2848        16.5941         2.5897     
 8918.0000        12.4920      -999.2500        -0.0020        67.6880        13.3520         6.8348         4.5430         5.1020        18.8055         2.5743     
 8918.5000        12.4999      -999.2500        -0.0049        68.7500        13.7810         7.8038         4.4140         4.7540        17.7903         2.5622     
 8919.0000        12.4921      -999.2500        -0.0119        69.9849        13.1309         6.9786         4.3242         4.4740        18.4944         2.5473     
 8919.5000        12.4920      -999.2500        -0.0130        67.6954        12.2757         7.7205         4.2971         4.4999        16.1551         2.5588     
 8920.0000        12.4772      -999.2500        -0.0100        66.5024        13.3274         7.2036         4.2770         4.5700        16.5943         2.5718     
