~Version Information Section
VERS.          2.0                                     : CWLS LOG ASCII Standard
WRAP.          NO                                      : One line per depth step
CREA.          03/06/17                                : LAS Creation Date
~Well Information Section
STRT.ft        501.0000                                : Start Depth
STOP.ft        9110.5000                               : Stop Depth
STEP.ft        0.5000                                  : Step
NULL.          -999.2500                               : Null Value
COMP.          TEXACO PRODUCTION SERVICES LTD.         : Company
WELL.          14/20-1                                 : Well
FLD .          MORAY FIRTH                             : Field
LOC .          NORTH SEA                               : Location
LOC1.          -                                       : Location (UTM)
CTRY.          UK                                      : Country
PROV.          UKCS                                    : Province
UWI .          853                                     : UWI Number
API .          -                                       : API Number
SECT.          -                                       : Section
TOWN.          -                                       : Township
RNGE.          -                                       : Range
PDAT.          MSL                                     : Perm Datum
EPD .ft        0.0                                     : Elevation
LMF .          KB                                      : Log Measured From
DMF .          KB                                      : Drill Measured From
APD .ft        0.0                                     : Above Perm Datum
EKB .ft        86.0                                    : Elev-Kelly Bushing
EDF .          -                                       : Elev-Drill Floor
EGL .ft        -454.0                                  : Elev-Ground Level (Water Depth)
TDD .ft        9120.0                                  : Total Depth (Driller)
SRVC.          SCHLUMBERGER                            : Service Company
LATI.          58 20 14.1" N                           : Latitude
LONG.          00 05 34.7" W                           : Longitude
DATE.          JAN-FEB-1975                            : Logging Date
PROJ.          UKCS                                    : Project
SET .          COMP_WIRE                               : Set
~Curve Information Section
DEPTH.ft                                               : Depth Curve
CALD.in                                                : Caliper (from FDC/CNL/GR)
MCAL.in                                                : Micro Caliper (from MLL/ML)
DRHO.g/cc                                              : Delta Rho
DT.us/ft                                               : Delta-T
GR.gAPI                                                : Gamma Ray (from ISF/BHC/GR)
GRD.gAPI                                               : Gamma Ray (from FDC/CNL/GR)
ILD.Ohmm                                               : Deep Induction Standard Processed Resistivity
MINV.Ohmm                                              : Micro-Inverse Resistivity
MLL.Ohmm                                               : Mll Resistivity
MNOR.Ohmm                                              : Micro-Normal Resistivity
NPHI.LPU                                               : Neutron Porosity
RHOB.g/cc                                              : Bulk Density
SFL.Ohmm                                               : Spherically Focussed Log
SP.mV                                                  : Spontaneous Potential
~ASCII Log Data Section
# ...
 8169.0000         9.1971         8.1633         0.0025        63.5253        48.8006        60.1311        27.8113         5.5586       151.8165         9.6177         4.3197         2.6412        38.0464        77.2469     
 8169.5000         9.1190         8.1499         0.0067        59.6334        46.9904        59.4555        31.4513         5.4788       157.3577        10.1882         2.8698         2.6875        48.1227        77.5621     
 8170.0000         9.0430         8.1560         0.0031        55.8755        43.5204        54.0888        36.0042         4.8863        89.8357         8.9905         1.8113         2.7059        57.6669        77.3879     
 8170.5000         9.0094         8.1627        -0.0056        53.7699        39.9982        46.2950        39.7657         3.7125        53.8819         4.4313         1.3789         2.6939        60.4042        77.0608     
 8171.0000         9.0223         8.1693         0.0030        52.9210        38.7936        43.5976        39.6629         3.9020        79.6799         5.6319         1.0238         2.7112        58.1942        77.3357     
 8171.5000         9.0353         8.1786         0.0134        53.3907        37.9342        44.6477        38.3745         6.5728       113.2922         6.8213         0.9229         2.6940        55.4915        77.7288     
 8172.0000         9.0445         8.1888         0.0182        54.4937        37.3936        45.4500        37.0356         5.7970       635.6399         5.7884         1.0144         2.7039        56.4359        77.7581     
 8172.5000         9.0358         8.1989         0.0109        55.7034        36.2025        43.6270        35.2649         7.8001      1802.2654         8.0764         1.1059         2.6878        59.1970        77.7556     
 8173.0000         9.0271         8.2091         0.0007        56.5130        33.7825        37.7505        33.4747         9.8556      1990.2600        10.3713         1.1161         2.6765        59.6263        78.0450     
 8173.5000         9.0184         8.1981        -0.0090        55.3033        31.4203        33.1617        32.5353         7.4161       488.4102        10.3706         0.6767         2.6832        55.6066        78.4477     
 8174.0000         9.0097         8.1522        -0.0177        52.9693        29.6104        30.4428        32.5417         7.4287       201.3492        10.3376         0.5019         2.6999        51.2978        78.4113     
 8174.5000         9.0079         8.0766        -0.0027        51.5045        28.0372        28.4541        33.2175         5.4539      1178.8782         6.8252         0.6610         2.7101        57.8967        78.4571     
 8175.0000         9.0184         8.0407         0.0116        50.9846        27.0978        28.0314        33.9780         3.0171      2014.1133         4.3421         0.8110         2.7214        94.3328        78.7904     
 8175.5000         9.0328         8.0615         0.0120        51.2865        27.2134        28.0973        34.7744         2.1654      2020.8428         3.5236         0.9523         2.7249       122.7190        79.2520     
 8176.0000         9.0505         8.0810        -0.0005        51.7715        27.4119        28.5415        35.7655         1.1886      2003.4670         2.9948         0.8921         2.7054       126.1957        79.5173     
 8176.5000         9.0681         8.0961         0.0167        51.9893        28.0563        30.9168        36.8598         1.1625      1961.6123         3.6323         0.8067         2.6870       117.9913        79.3994     
 8177.0000         9.0757         8.0998         0.0136        51.3887        29.1311        33.8401        37.9209         1.4228       921.6019         4.6439         0.7214         2.6751       105.7650        78.9110     
 8177.5000         9.0452         8.1006         0.0102        50.9795        31.4692        36.8522        39.1780         1.6043      1231.7515         5.9833         0.6369         2.6766        86.9053        78.1260     
 8178.0000         9.0146         8.1014         0.0220        51.4550        34.9724        40.8939        40.6442         1.5985      1397.9878         6.5118         0.5962         2.7155        70.1276        77.9721     
 8178.5000         8.9834         8.1407         0.0156        52.2017        38.3334        45.2352        41.0326         1.3621      1056.4861         6.1825         0.5706         2.7194        60.8883        78.2213     
 8179.0000         8.9305         8.1554         0.0089        52.9483        40.8623        49.9664        41.4153         1.0864       177.5564         4.1939         0.6812         2.7164        52.5177        77.8326     
 8179.5000         8.8871         8.1621         0.0022        53.6962        43.4714        53.7559        40.6033         1.2668       147.1407         4.1229         1.1496         2.6979        45.7805        77.5065     
 8180.0000         8.8442         8.1583        -0.0004        54.4486        45.0858        53.5723        39.5955         1.4421       199.4025         4.7479         1.6374         2.7068        40.7245        77.3703     
 8180.5000         8.8654         8.1544        -0.0013        55.3305        46.2651        53.0968        37.6669         1.2378       159.5926         3.7732         2.1444         2.7270        36.7056        77.1695     
 8181.0000         8.9303         8.1504         0.0080        56.3411        47.1626        53.8600        35.7467         1.0039        64.5208         3.0019         2.6685         2.7470        35.7324        77.1117     
 8181.5000         8.9844         8.1448         0.0115        56.8891        47.6139        55.4350        34.2581         1.3838       103.2166         4.5665         3.1933         2.7447        33.4644        77.1091     
 8182.0000         9.0083         8.1309        -0.0055        56.9800        47.9474        57.5852        33.0465         1.4569       220.3824         5.2575         3.6836         2.7181        30.0319        77.2404     
 8182.5000         8.8523         8.1161        -0.0070        57.0710        48.4131        59.2691        32.0828         1.0902        84.1671         4.1165         3.8031         2.6947        27.2060        78.0435     
 8183.0000         8.7811         8.1012         0.0013        57.2656        50.0555        63.3318        30.5398         1.1179        28.5581         3.8525         3.8653         2.7053        25.4613        79.5999     
 8183.5000         8.7206         8.0864         0.0094        58.4714        52.0563        65.9325        27.9936         1.5961        54.8247         5.6230         4.1693         2.7006        25.1941        79.7797     
 8184.0000         8.6387         8.0730         0.0117        59.7387        53.6697        66.2262        25.6703         1.6291        43.0173         7.1072         4.5801         2.6782        24.0169        78.6527     
 8184.5000         8.7459         8.0792         0.0140        60.5788        55.2046        66.8135        23.1170         1.7125        32.0263         6.6432         4.2749         2.6621        22.5145        77.7672     
 8185.0000         8.9249         8.0884         0.0150        60.9858        56.2627        65.8983        20.4594         1.5459        50.9149         5.7025         3.9624         2.6615        20.6418        77.2595     
 8185.5000         8.9465         8.0896         0.0138        60.7627        57.3082        64.0446        17.8017         1.7191        48.6099         6.0731         4.0805         2.6930        18.6687        77.1474     
 8186.0000         8.9562         8.0842         0.0042        60.6642        58.3803        64.3764        15.1399         2.1050        28.8434         7.2474         4.6366         2.6779        16.4028        76.8707     
 8186.5000         8.9611         8.0788        -0.0065        61.0706        59.4770        67.5110        12.4823         1.7846        27.6627         5.4590         5.1771         2.6531        13.9287        76.4049     
