~Version Information Section
VERS.          2.0                                     : CWLS LOG ASCII Standard
WRAP.          NO                                      : One line per depth step
CREA.          03/06/17                                : LAS Creation Date
~Well Information Section
STRT.ft        501.0000                                : Start Depth
STOP.ft        9110.5000                               : Stop Depth
STEP.ft        0.5000                                  : Step
NULL.          -999.2500                               : Null Value
COMP.          TEXACO PRODUCTION SERVICES LTD.         : Company
WELL.          14/20-1                                 : Well
FLD .          MORAY FIRTH                             : Field
LOC .          NORTH SEA                               : Location
LOC1.          -                                       : Location (UTM)
CTRY.          UK                                      : Country
PROV.          UKCS                                    : Province
UWI .          853                                     : UWI Number
API .          -                                       : API Number
SECT.          -                                       : Section
TOWN.          -                                       : Township
RNGE.          -                                       : Range
PDAT.          MSL                                     : Perm Datum
EPD .ft        0.0                                     : Elevation
LMF .          KB                                      : Log Measured From
DMF .          KB                                      : Drill Measured From
APD .ft        0.0                                     : Above Perm Datum
EKB .ft        86.0                                    : Elev-Kelly Bushing
EDF .          -                                       : Elev-Drill Floor
EGL .ft        -454.0                                  : Elev-Ground Level (Water Depth)
TDD .ft        9120.0                                  : Total Depth (Driller)
SRVC.          SCHLUMBERGER                            : Service Company
LATI.          58 20 14.1" N                           : Latitude
LONG.          00 05 34.7" W                           : Longitude
DATE.          JAN-FEB-1975                            : Logging Date
PROJ.          UKCS                                    : Project
SET .          COMP_WIRE                               : Set
~Curve Information Section
DEPTH.ft                                               : Depth Curve
CALD.in                                                : Caliper (from FDC/CNL/GR)
MCAL.in                                                : Micro Caliper (from MLL/ML)
DRHO.g/cc                                              : Delta Rho
DT.us/ft                                               : Delta-T
GR.gAPI                                                : Gamma Ray (from ISF/BHC/GR)
GRD.gAPI                                               : Gamma Ray (from FDC/CNL/GR)
ILD.Ohmm                                               : Deep Induction Standard Processed Resistivity
MINV.Ohmm                                              : Micro-Inverse Resistivity
MLL.Ohmm                                               : Mll Resistivity
MNOR.Ohmm                                              : Micro-Normal Resistivity
NPHI.LPU                                               : Neutron Porosity
RHOB.g/cc                                              : Bulk Density
SFL.Ohmm                                               : Spherically Focussed Log
SP.mV                                                  : Spontaneous Potential
~ASCII Log Data Section
# ...
 8439.0000         8.1473         7.7627         0.0068        81.2573        49.9306        58.0862         1.0096         0.5728         1.7382         1.0165        20.6395         2.3311         1.5032        71.3110     
 8439.5000         8.1516         7.7632         0.0118        80.6085        51.5339        57.6360         1.0237         0.5809         1.8760         1.0461        20.3682         2.3257         1.5114        70.6875     
 8440.0000         8.1588         7.7764         0.0162        80.5484        52.2830        56.2497         1.0469         0.5914         1.9779         1.0716        20.3026         2.3213         1.5301        70.5268     
 8440.5000         8.1661         7.8157         0.0152        80.6081        51.3758        54.8438         1.0727         0.6029         1.9473         1.0967        20.1764         2.3270         1.5654        70.9021     
 8441.0000         8.1773         7.8452         0.0066        80.5450        50.7344        53.3674         1.1017         0.6153         1.8786         1.1162        19.8224         2.3184         1.6017        71.8669     
 8441.5000         8.1962         7.8457        -0.0009        80.2434        50.7919        52.8006         1.1307         0.6278         1.9171         1.1202        19.6749         2.3163         1.6557        72.8737     
 8442.0000         8.2279         7.8463        -0.0000        79.9940        50.3716        53.8951         1.1598         0.6410         1.9992         1.1283        19.7468         2.3352         1.7107        71.7057     
 8442.5000         8.2606         7.8469         0.0090        79.6852        49.7058        54.5623         1.1889         0.6601         2.0674         1.1587        19.7685         2.3300         1.7621        71.5378     
 8443.0000         8.2932         7.8475         0.0099        79.1489        49.3469        54.1029         1.2392         0.6774         2.0297         1.1562        19.3853         2.3403         1.7919        71.5710     
 8443.5000         8.3227         7.8481         0.0085        78.9477        49.1351        54.5406         1.2943         0.6770         2.0877         1.1379        18.6237         2.3609         1.8460        71.7084     
 8444.0000         8.3448         7.8487         0.0046        78.8668        48.9672        54.7374         1.3495         0.6764         2.3220         1.1951        18.0303         2.3779         1.9268        71.7468     
 8444.5000         8.3374         7.8492         0.0013        78.8060        48.3098        53.3460         1.4045         0.6373         2.5687         1.2140        17.9145         2.3683         2.0233        71.7495     
 8445.0000         8.3305         7.8498        -0.0001        78.9710        47.9678        51.9943         1.5222         0.6056         2.4461         1.1628        18.3044         2.3657         2.1107        71.7523     
 8445.5000         8.3365         7.8504         0.0087        81.1051        47.9467        50.9644         1.6701         0.5945         2.3256         1.1460        18.7617         2.3720         2.1940        71.7550     
 8446.0000         8.3434         7.8519         0.0043        85.9249        47.7402        50.0738         1.8563         0.6070         2.4505         1.1704        19.2032         2.3648         2.5287        71.8322     
 8446.5000         8.3430         7.8586         0.0070        88.3886        46.8176        51.0461         2.0805         0.6367         2.4205         1.2059        19.1960         2.3757         2.8640        72.0025     
 8447.0000         8.3296         7.8661         0.0151        83.3561        45.6095        50.1163         2.3894         0.6708         2.5877         1.2377        18.9161         2.3932         3.8826        72.1568     
 8447.5000         8.3273         7.8735         0.0217        79.6031        46.1972        50.1744         2.7062         0.6836         2.4650         1.2485        17.5878         2.4155         5.4177        72.7416     
 8448.0000         8.3271         7.8806         0.0342        81.5218        47.0334        51.7412         3.0588         0.6596         2.2521         1.2243        15.5335         2.4493         8.9661        73.3496     
 8448.5000         8.3269         7.8877         0.0501        86.5725        47.0133        52.6122         3.2966         0.6392         2.2856         1.1988        13.2969         2.5097        13.6008        74.4079     
 8449.0000         8.3267         7.8963         0.0519        84.3429        46.6869        52.5610         3.3702         0.6701         2.5256         1.1917        10.8928         2.5807        11.4458        74.4905     
 8449.5000         8.3461         7.9182         0.0337        76.9696        46.3783        51.2882         3.3086         0.7201         3.5293         1.2499         9.2992         2.6587         8.6188        73.7993     
 8450.0000         8.3986         7.9408         0.0162        71.2816        46.3281        51.6566         3.0559         0.7975        11.7931         1.4123         8.7595         2.6756         6.5599        72.7317     
 8450.5000         8.4160         7.9632         0.0263        61.7920        47.1727        54.0340         2.7270         0.7766        39.4516         1.6247         9.2843         2.6510         4.0657        72.3883     
 8451.0000         8.3817         7.9858         0.0161        58.7618        48.8658        56.9521         2.4165         0.7855        49.2280         1.9955        11.0600         2.5992         3.3253        72.5560     
 8451.5000         8.3461         7.9812         0.0021        64.4048        51.7136        59.8885         2.2000         0.9326        35.2776         2.4101        13.3642         2.5365         2.9715        72.7287     
 8452.0000         8.3264         7.9391         0.0200        68.7187        53.8926        62.2022         2.0138         0.9663        37.1450         1.9664        16.1845         2.4869         2.9550        72.9014     
 8452.5000         8.3264         7.8948         0.0089        73.7051        56.3079        63.2482         1.9865         0.9374        10.9578         1.6403        18.6673         2.4511         3.0982        73.0741     
 8453.0000         8.3334         7.8794         0.0196        76.5435        57.2356        62.5259         2.0507         0.8864         3.1025         1.3666        18.4972         2.4173         3.2728        73.3661     
 8453.5000         8.3413         7.8822         0.0262        78.3325        57.3833        60.7255         2.2559         0.8526         2.5268         1.1953        18.3491         2.4130         3.5798        73.8825     
 8454.0000         8.3542         7.8933         0.0202        78.4532        56.7082        60.8232         2.6331         0.8737         2.4220         1.1290        17.9857         2.4303         4.1849        74.3990     
 8454.5000         8.3647         7.9044         0.0093        77.8968        56.2192        62.4158         3.0942         0.8643         2.5988         1.1398        17.2815         2.4215         5.6862        74.9155     
 8455.0000         8.3739         7.9155         0.0001        77.1680        56.1989        63.7884         3.6549         0.8781         2.5475         1.1714        16.5880         2.4183         7.9650        76.1740     
 8455.5000         8.4143         7.9286         0.0043        76.6065        55.1492        62.7921         4.5217         0.9611         2.5850         1.2190        15.8707         2.4464        12.6922        77.4338     
 8456.0000         8.4236         7.9450         0.0270        77.9135        52.9077        57.6282         5.4407         1.0235         3.1464         1.3394        14.0214         2.4813        23.7086        77.6086     
 8456.5000         8.4093         7.9614         0.0322        78.5447        50.6404        52.4511         6.3808         1.0828         3.4815         1.5351        11.4780         2.5223        25.9973        77.4314     
