~Version Information Section
VERS.          2.0                                     : CWLS LOG ASCII Standard
WRAP.          NO                                      : One line per depth step
CREA.          03/06/17                                : LAS Creation Date
~Well Information Section
STRT.ft        501.0000                                : Start Depth
STOP.ft        9110.5000                               : Stop Depth
STEP.ft        0.5000                                  : Step
NULL.          -999.2500                               : Null Value
COMP.          TEXACO PRODUCTION SERVICES LTD.         : Company
WELL.          14/20-1                                 : Well
FLD .          MORAY FIRTH                             : Field
LOC .          NORTH SEA                               : Location
LOC1.          -                                       : Location (UTM)
CTRY.          UK                                      : Country
PROV.          UKCS                                    : Province
UWI .          853                                     : UWI Number
API .          -                                       : API Number
SECT.          -                                       : Section
TOWN.          -                                       : Township
RNGE.          -                                       : Range
PDAT.          MSL                                     : Perm Datum
EPD .ft        0.0                                     : Elevation
LMF .          KB                                      : Log Measured From
DMF .          KB                                      : Drill Measured From
APD .ft        0.0                                     : Above Perm Datum
EKB .ft        86.0                                    : Elev-Kelly Bushing
EDF .          -                                       : Elev-Drill Floor
EGL .ft        -454.0                                  : Elev-Ground Level (Water Depth)
TDD .ft        9120.0                                  : Total Depth (Driller)
SRVC.          SCHLUMBERGER                            : Service Company
LATI.          58 20 14.1" N                           : Latitude
LONG.          00 05 34.7" W                           : Longitude
DATE.          JAN-FEB-1975                            : Logging Date
PROJ.          UKCS                                    : Project
SET .          COMP_WIRE                               : Set
~Curve Information Section
DEPTH.ft                                               : Depth Curve
CALD.in                                                : Caliper (from FDC/CNL/GR)
MCAL.in                                                : Micro Caliper (from MLL/ML)
DRHO.g/cc                                              : Delta Rho
DT.us/ft                                               : Delta-T
GR.gAPI                                                : Gamma Ray (from ISF/BHC/GR)
GRD.gAPI                                               : Gamma Ray (from FDC/CNL/GR)
ILD.Ohmm                                               : Deep Induction Standard Processed Resistivity
MINV.Ohmm                                              : Micro-Inverse Resistivity
MLL.Ohmm                                               : Mll Resistivity
MNOR.Ohmm                                              : Micro-Normal Resistivity
NPHI.LPU                                               : Neutron Porosity
RHOB.g/cc                                              : Bulk Density
SFL.Ohmm                                               : Spherically Focussed Log
SP.mV                                                  : Spontaneous Potential
~ASCII Log Data Section
# ...
 9087.0000         8.5322         8.0441         0.0258      -999.2500      -999.2500       143.7778         4.6070         1.5567         5.9604         2.1365        13.2442         2.4799         4.1018       103.2497     
 9087.5000         8.4945         8.0723         0.0158      -999.2500      -999.2500       140.6169         4.5848         1.3688         6.7063         1.9020        13.3702         2.4516         4.1035       102.7454     
 9088.0000         8.4505         8.0722         0.0059      -999.2500      -999.2500      -999.2500         4.5868         1.9552         9.7244         3.0596        13.4220         2.4401         4.1297       102.6329     
 9088.5000         8.4009         8.0575        -0.0039      -999.2500      -999.2500      -999.2500      -999.2500         1.4113         5.6342         3.2592        13.0851         2.4122         4.1871       102.6371     
 9089.0000         8.4011         8.0158        -0.0132      -999.2500      -999.2500      -999.2500      -999.2500         1.3325         6.0714         2.6330        12.8737         2.3914         4.2689       102.7121     
 9089.5000         8.5274         7.9664        -0.0102      -999.2500      -999.2500      -999.2500      -999.2500         1.3355         7.1629         2.6269        12.6620         2.3993         4.3507       102.7871     
 9090.0000         8.7241         7.9341        -0.0008      -999.2500      -999.2500      -999.2500      -999.2500         1.2335         6.4217         2.1364        12.5628         2.4149         4.4325       102.7310     
 9090.5000         8.8198         7.9345         0.0052      -999.2500      -999.2500      -999.2500      -999.2500         1.1371         5.7903         2.0126        12.6522         2.4306         4.5512       102.5972     
 9091.0000         8.8784         7.9483        -0.0025      -999.2500      -999.2500      -999.2500      -999.2500         0.9309         5.9778         1.8373        12.9932         2.4331         4.7014       102.4632     
 9091.5000         8.9205         7.9945        -0.0013      -999.2500      -999.2500      -999.2500      -999.2500         1.0637         5.9533         2.2449        13.3574         2.4127         4.8239       101.9163     
 9092.0000         8.8700         8.0158         0.0077      -999.2500      -999.2500      -999.2500      -999.2500         1.1629         7.1270         2.6442        13.7216         2.3883      -999.2500       101.2659     
 9092.5000         8.7488         7.9678         0.0198      -999.2500      -999.2500      -999.2500      -999.2500         1.4255         5.6987         2.4831        14.4374         2.3279      -999.2500       100.9950     
 9093.0000         8.6274         7.8837         0.0346      -999.2500      -999.2500      -999.2500      -999.2500         1.1956         4.5385         2.7110        15.1697         2.2623      -999.2500       100.6169     
 9093.5000         8.5219         7.8568         0.0409      -999.2500      -999.2500      -999.2500      -999.2500         0.8895         6.9494         2.0679      -999.2500         2.2060      -999.2500       100.1432     
 9094.0000         8.5106         7.8571         0.0209      -999.2500      -999.2500      -999.2500      -999.2500         0.7647         6.1436         1.6640      -999.2500         2.1338      -999.2500        99.7493     
 9094.5000         8.4994         7.8575         0.0028      -999.2500      -999.2500      -999.2500      -999.2500         0.7403         7.0086         1.5315      -999.2500         2.0561      -999.2500        99.5035     
 9095.0000         8.4882         7.8544        -0.0025      -999.2500      -999.2500      -999.2500      -999.2500         0.6750         5.9466         1.5407      -999.2500         1.9986      -999.2500        99.2919     
 9095.5000         8.4769         7.8414        -0.0060      -999.2500      -999.2500      -999.2500      -999.2500         0.6099         4.5262         1.4546      -999.2500         1.9574      -999.2500        99.1476     
 9096.0000         8.4657         7.7921        -0.0060      -999.2500      -999.2500      -999.2500      -999.2500         0.5774         4.6598         1.2951      -999.2500         1.9409      -999.2500        99.2771     
 9096.5000         8.4684         7.6929        -0.0052      -999.2500      -999.2500      -999.2500      -999.2500         0.5280         5.7559         1.1389      -999.2500         1.9415      -999.2500        99.5488     
 9097.0000         8.4740         7.5447        -0.0031      -999.2500      -999.2500      -999.2500      -999.2500         0.5378         4.4233         1.0641      -999.2500         1.9500      -999.2500        99.7978     
 9097.5000         8.4797         7.3006         0.0009      -999.2500      -999.2500      -999.2500      -999.2500         0.5462         2.8332         1.1620      -999.2500         1.9508      -999.2500       100.5181     
 9098.0000         8.4806         6.9560        -0.0039      -999.2500      -999.2500      -999.2500      -999.2500         0.4279         1.6713         1.0927      -999.2500         1.9307      -999.2500       101.9309     
 9098.5000         8.4564         6.8216        -0.0149      -999.2500      -999.2500      -999.2500      -999.2500         0.5211         1.7730         0.9055      -999.2500         1.9167      -999.2500       101.9759     
 9099.0000         8.4323         6.9257        -0.0048      -999.2500      -999.2500      -999.2500      -999.2500         0.6414         2.0482         0.6661      -999.2500         1.9305      -999.2500       100.2672     
 9099.5000         8.3919         6.9450         0.0087      -999.2500      -999.2500      -999.2500      -999.2500         0.5456         3.4509         0.4076      -999.2500         1.9323      -999.2500        99.7614     
 9100.0000         8.3435         6.8858        -0.0037      -999.2500      -999.2500      -999.2500      -999.2500         0.3218         3.3958         0.5987      -999.2500         1.9106      -999.2500        98.9663     
 9100.5000         8.3032         6.5477        -0.0200      -999.2500      -999.2500      -999.2500      -999.2500         0.5365         1.5717         0.9019      -999.2500         1.8803      -999.2500       100.1747     
 9101.0000         8.4899         5.9027        -0.0162      -999.2500      -999.2500      -999.2500      -999.2500      -999.2500      -999.2500      -999.2500      -999.2500         1.8573      -999.2500       103.8000     
 9101.5000         8.5858      -999.2500        -0.0180      -999.2500      -999.2500      -999.2500      -999.2500      -999.2500      -999.2500      -999.2500      -999.2500         1.8476      -999.2500       102.8693     
 9102.0000         8.5073      -999.2500        -0.0212      -999.2500      -999.2500      -999.2500      -999.2500      -999.2500      -999.2500      -999.2500      -999.2500         1.8353      -999.2500       100.4052     
 9102.5000         8.4286      -999.2500        -0.0249      -999.2500      -999.2500      -999.2500      -999.2500      -999.2500      -999.2500      -999.2500      -999.2500         1.8212      -999.2500        99.0238     
 9103.0000         8.3647      -999.2500        -0.0284      -999.2500      -999.2500      -999.2500      -999.2500      -999.2500      -999.2500      -999.2500      -999.2500         1.8073      -999.2500        99.2118     
 9103.5000         8.3649      -999.2500        -0.0314      -999.2500      -999.2500      -999.2500      -999.2500      -999.2500      -999.2500      -999.2500      -999.2500         1.7960      -999.2500        99.0015     
 9104.0000         8.3650      -999.2500        -0.0345      -999.2500      -999.2500      -999.2500      -999.2500      -999.2500      -999.2500      -999.2500      -999.2500         1.7848      -999.2500        98.5954     
 9104.5000         8.3651      -999.2500        -0.0321      -999.2500      -999.2500      -999.2500      -999.2500      -999.2500      -999.2500      -999.2500      -999.2500         1.7889      -999.2500        98.0844     
