~Version Information Section
VERS.          2.0                                     : CWLS LOG ASCII Standard
WRAP.          NO                                      : One line per depth step
CREA.          03/06/17                                : LAS Creation Date
~Well Information Section
STRT.ft        501.0000                                : Start Depth
STOP.ft        9110.5000                               : Stop Depth
STEP.ft        0.5000                                  : Step
NULL.          -999.2500                               : Null Value
COMP.          TEXACO PRODUCTION SERVICES LTD.         : Company
WELL.          14/20-1                                 : Well
FLD .          MORAY FIRTH                             : Field
LOC .          NORTH SEA                               : Location
LOC1.          -                                       : Location (UTM)
CTRY.          UK                                      : Country
PROV.          UKCS                                    : Province
UWI .          853                                     : UWI Number
API .          -                                       : API Number
SECT.          -                                       : Section
TOWN.          -                                       : Township
RNGE.          -                                       : Range
PDAT.          MSL                                     : Perm Datum
EPD .ft        0.0                                     : Elevation
LMF .          KB                                      : Log Measured From
DMF .          KB                                      : Drill Measured From
APD .ft        0.0                                     : Above Perm Datum
EKB .ft        86.0                                    : Elev-Kelly Bushing
EDF .          -                                       : Elev-Drill Floor
EGL .ft        -454.0                                  : Elev-Ground Level (Water Depth)
TDD .ft        9120.0                                  : Total Depth (Driller)
SRVC.          SCHLUMBERGER                            : Service Company
LATI.          58 20 14.1" N                           : Latitude
LONG.          00 05 34.7" W                           : Longitude
DATE.          JAN-FEB-1975                            : Logging Date
PROJ.          UKCS                                    : Project
SET .          COMP_WIRE                               : Set
~Curve Information Section
DEPTH.ft                                               : Depth Curve
CALD.in                                                : Caliper (from FDC/CNL/GR)
MCAL.in                                                : Micro Caliper (from MLL/ML)
DRHO.g/cc                                              : Delta Rho
DT.us/ft                                               : Delta-T
GR.gAPI                                                : Gamma Ray (from ISF/BHC/GR)
GRD.gAPI                                               : Gamma Ray (from FDC/CNL/GR)
ILD.Ohmm                                               : Deep Induction Standard Processed Resistivity
MINV.Ohmm                                              : Micro-Inverse Resistivity
MLL.Ohmm                                               : Mll Resistivity
MNOR.Ohmm                                              : Micro-Normal Resistivity
NPHI.LPU                                               : Neutron Porosity
RHOB.g/cc                                              : Bulk Density
SFL.Ohmm                                               : Spherically Focussed Log
SP.mV                                                  : Spontaneous Potential
~ASCII Log Data Section
# ...
 8961.0000         9.2394         8.9905         0.2197        83.4710       100.2471       124.8967         4.2773         0.5303         3.9750         1.0498        42.0214         2.4023         4.5199       100.2500     
 8961.5000         9.2838         9.1074         0.1824        82.0335        99.0297       123.4651         4.6673         0.4046         3.3265         0.9426        41.1200         2.3226         4.4609       102.0810     
 8962.0000         9.3407         9.2063         0.1495        84.7493        97.9958       119.7523         4.9008         0.2493         2.3164         0.7356        42.0854         2.2503         4.8657       103.1328     
 8962.5000         9.4186         9.1965         0.1207        87.8550        96.9328       120.0030         5.0698         0.3023         2.0532         0.6321        44.7050         2.1817         5.7612       103.7274     
 8963.0000         9.4862         8.9519         0.0844        93.5964        97.3059       121.6913         5.2719         0.2782         1.2599         0.5627        47.4378         2.1060         6.5175       103.8471     
 8963.5000         9.4459         8.6313         0.0481        94.3967        98.4039       124.4463         5.5012         0.6040         2.8434         0.8684        45.5398         2.1167         7.1756       103.8193     
 8964.0000         9.2796         8.4944         0.0323        88.6548       101.0220       128.3344         5.7329         0.5047         2.5976         1.2720        43.0333         2.1741         7.5289       103.7085     
 8964.5000         9.2838         8.4772         0.0429        80.9704       102.6791       132.0962         5.9686         0.8143         5.4343         1.4050        38.3974         2.2425         7.1036       104.1750     
 8965.0000         9.3869         8.4778         0.0509        76.9099       103.4163       134.9805         6.1696         1.3758         8.1915         2.8085        36.3345         2.3273         6.3975       104.4236     
 8965.5000         9.1801         8.4784         0.0179        78.3926       104.1672       137.2404         6.2689         1.6688        10.1740         3.4559        38.3709         2.4095         5.9592       104.2886     
 8966.0000         8.7952         8.4790         0.0331        80.6743       105.0963       139.9513         6.3057         2.2648        10.6160         4.2617        40.8319         2.4130         5.8883       103.0937     
 8966.5000         8.7785         8.4796         0.1109        84.5169       105.6053       140.3593         6.3055         1.6708         8.2732         3.8656        42.6915         2.3786         6.0413       102.5478     
 8967.0000         9.0159         8.4958         0.1394        86.6306       105.6860       138.4371         6.3186         0.4456         2.5692         1.2595        44.3986         2.3297         6.3951       102.6571     
 8967.5000         9.3133         8.5194         0.1268        83.9753       106.1467       135.9471         6.3910         0.5220         3.7941         1.1923        46.0367         2.3564         7.0692       102.9041     
 8968.0000         9.3695         8.5125         0.0905        79.7764       106.6541       134.8731         6.5431         0.6703         2.7064         1.2238        45.7227         2.4165         7.7909       103.0536     
 8968.5000         9.2632         8.4610         0.0330        75.7316       107.2259       136.1852         6.8231         1.6095         7.1476         3.2205        43.5212         2.4806         8.5076       103.2031     
 8969.0000         8.9534         8.4474        -0.0249        72.3385       107.6723       138.7954         7.4036         2.6227        11.3633         5.1433        40.4584         2.6107         8.8986       103.2768     
 8969.5000         8.7213         8.4561        -0.0185        71.0861       107.4140       142.0416         8.2127         3.3865        12.4675         5.2807        36.7778         2.6688         8.9552       103.2758     
 8970.0000         8.7342         8.4688        -0.0084        70.5221       106.6814       144.9931         8.6975         2.8036        12.1157         5.7474        34.1938         2.6544         9.0322       103.3278     
 8970.5000         8.8004         8.5016        -0.0016        70.9981       104.7671       145.8886         8.8619         2.8195        12.6251         5.6223        33.5684         2.6304         9.0679       103.6275     
 8971.0000         8.8507         8.5392         0.0038        71.6497       103.1258       143.0371         8.5617         3.7501        13.7588         5.3113        33.4877         2.6093         8.8938       103.9959     
 8971.5000         8.8577         8.5851         0.0088        72.2569       101.8719       139.0133         7.9297         4.8111        13.2587         4.6813        33.7115         2.5991         8.6091       104.6994     
 8972.0000         8.8629         8.6312         0.0111        72.6638       100.5903       137.8495         7.3050         4.7248        13.7795         4.5325        34.4701         2.6068         8.2726       106.4339     
 8972.5000         8.8681         8.6649         0.0026        73.0211        98.4727       136.7894         6.6951         4.5685        14.5201         5.1292        35.6258         2.5642         7.6990       105.2218     
 8973.0000         8.8730         8.6608         0.0059        73.6314        95.9517       135.4789         6.3189         3.5060        14.5215         5.9585        36.8209         2.5152         7.0786       103.7241     
 8973.5000         8.8735         8.6971         0.0217        74.9242        93.0144       134.2706         6.3014         2.4583        12.2491         6.1380        38.7337         2.4771         6.5595       102.8763     
 8974.0000         8.8783         8.7566         0.0590        76.7366        90.2339       131.2075         6.3033         1.8631         9.2893         5.6856        39.6298         2.4481         6.1397       102.5138     
 8974.5000         8.9495         8.8692         0.1030        77.0415        87.5936       125.2807         6.2208         0.9658         4.3149         2.4853        40.4550         2.4099         6.1309       102.3488     
 8975.0000         9.2620         9.0110         0.0856        78.3436        84.2375       118.4349         6.0345         0.3196         2.1235         0.9253        41.0920         2.3581         6.2206       102.3527     
 8975.5000         9.4946         9.0440         0.1083        80.0476        80.4017       109.5503         5.7775         0.2751         2.3095         0.7174        41.0101         2.3676         6.4315       103.0131     
 8976.0000         9.6817         8.9349         0.1542        83.3379        77.9633       101.2888         5.5107         0.3117         3.0999         0.8343        37.7577         2.3774         6.3924       104.5656     
 8976.5000         9.5002         8.7748         0.1673        75.6357        75.6843        95.1980         5.2343         0.6402         3.8760         1.4008        33.3824         2.3650         5.9371       102.0768     
 8977.0000         9.1194         8.6147         0.1300        71.6966        74.8583        90.4007         4.9477         1.2067         7.5856         3.1123        28.9521         2.3576         5.1038       101.2969     
 8977.5000         8.8852         8.5924         0.0859        68.8328        75.6565        90.4688         4.6778         1.3100        10.2623         3.4423        25.9092         2.3787         4.3283       102.1568     
 8978.0000         8.7449         8.7937         0.0836        73.3233        77.2410        93.8995         4.4347         0.8415         5.7093         2.8152        29.4664         2.4342         4.1096       103.5014     
 8978.5000         8.8584         8.9834         0.1604        82.7780        79.4052        97.8986         4.2320         0.2690         2.2299         0.7879        35.9601         2.4199         4.0246       104.3569     
