~Version Information Section
VERS.          2.0                                     : CWLS LOG ASCII Standard
WRAP.          NO                                      : One line per depth step
CREA.          03/06/17                                : LAS Creation Date
~Well Information Section
STRT.ft        501.0000                                : Start Depth
STOP.ft        9110.5000                               : Stop Depth
STEP.ft        0.5000                                  : Step
NULL.          -999.2500                               : Null Value
COMP.          TEXACO PRODUCTION SERVICES LTD.         : Company
WELL.          14/20-1                                 : Well
FLD .          MORAY FIRTH                             : Field
LOC .          NORTH SEA                               : Location
LOC1.          -                                       : Location (UTM)
CTRY.          UK                                      : Country
PROV.          UKCS                                    : Province
UWI .          853                                     : UWI Number
API .          -                                       : API Number
SECT.          -                                       : Section
TOWN.          -                                       : Township
RNGE.          -                                       : Range
PDAT.          MSL                                     : Perm Datum
EPD .ft        0.0                                     : Elevation
LMF .          KB                                      : Log Measured From
DMF .          KB                                      : Drill Measured From
APD .ft        0.0                                     : Above Perm Datum
EKB .ft        86.0                                    : Elev-Kelly Bushing
EDF .          -                                       : Elev-Drill Floor
EGL .ft        -454.0                                  : Elev-Ground Level (Water Depth)
TDD .ft        9120.0                                  : Total Depth (Driller)
SRVC.          SCHLUMBERGER                            : Service Company
LATI.          58 20 14.1" N                           : Latitude
LONG.          00 05 34.7" W                           : Longitude
DATE.          JAN-FEB-1975                            : Logging Date
PROJ.          UKCS                                    : Project
SET .          COMP_WIRE                               : Set
~Curve Information Section
DEPTH.ft                                               : Depth Curve
CALD.in                                                : Caliper (from FDC/CNL/GR)
MCAL.in                                                : Micro Caliper (from MLL/ML)
DRHO.g/cc                                              : Delta Rho
DT.us/ft                                               : Delta-T
GR.gAPI                                                : Gamma Ray (from ISF/BHC/GR)
GRD.gAPI                                               : Gamma Ray (from FDC/CNL/GR)
ILD.Ohmm                                               : Deep Induction Standard Processed Resistivity
MINV.Ohmm                                              : Micro-Inverse Resistivity
MLL.Ohmm                                               : Mll Resistivity
MNOR.Ohmm                                              : Micro-Normal Resistivity
NPHI.LPU                                               : Neutron Porosity
RHOB.g/cc                                              : Bulk Density
SFL.Ohmm                                               : Spherically Focussed Log
SP.mV                                                  : Spontaneous Potential
~ASCII Log Data Section
# ...
 8691.0000         8.8562         8.4879         0.0285        84.3356        98.1541       127.4282         7.0656         1.0102         7.9434         3.7296        41.6439         2.4313         8.3195        94.6120     
 8691.5000         8.7891         8.5004         0.0537        88.6046        96.9265       122.8278         7.0223         1.1287         7.2329         3.3697        44.4647         2.4036         7.9217        94.6684     
 8692.0000         8.7800         8.5461         0.0608        93.9781        93.7817       117.5022         6.8391         0.7129         4.2684         2.4093        47.8883         2.3890         7.6185        94.7682     
 8692.5000         8.7800         8.5340         0.0388        96.3651        91.9648       115.0141         6.4524         0.6216         5.0841         1.5326        47.7347         2.3494         7.6185        94.8598     
 8693.0000         8.7750         8.4988        -0.0076        96.7813        91.5888       113.0568         5.9928         0.7483         8.4300         1.9554        42.5968         2.3304         7.5542        94.9452     
 8693.5000         8.7540         8.4761        -0.0101        96.3210        92.8144       112.0854         5.5280         1.2150         9.9246         3.1719        38.0988         2.4248         7.3202        95.1115     
 8694.0000         8.7323         8.5031        -0.0011        95.7891        90.6160       114.7115         5.2321         1.8540        11.6505         4.5587        38.1562         2.4554         6.8316        95.5137     
 8694.5000         8.7333         8.6343         0.0221       103.9455        87.5605       115.0785         5.0251         2.0188         6.1784         4.9258        41.7731         2.3555         5.9508        95.0548     
 8695.0000         8.7640         8.8582         0.0565       116.7456        85.5783       115.6779         4.9072         0.8171         2.0525         1.6341        45.4343         2.2595         5.8360        95.1473     
 8695.5000         8.8580         9.0598         0.0574       115.7068        87.3915       118.8344         4.8022         0.4024         3.3417         0.9974        48.5362         2.1608         5.7719        95.2790     
 8696.0000         8.9734         9.1287         0.0629       121.2704        90.2999       119.8162         4.7935         0.6591         3.1142         1.0537        47.7058         2.0426         5.7117        95.3991     
 8696.5000         9.0252         9.2187         0.1002       118.5905        94.2527       122.2048         4.8804         1.0577         2.6408         0.9602        48.3407         2.0583         5.6950        95.8137     
 8697.0000         9.1223         9.3535         0.1056       107.0888        98.3571       125.2091         5.0172         0.3225         2.1779         0.7750        48.4776         2.1177         5.7850        96.2447     
 8697.5000         9.3828         9.5361         0.1285       104.8531       102.0509       130.5827         5.2844         0.4788         2.2555         0.7815        48.9529         2.2230         6.0260        96.8468     
 8698.0000         9.4443         9.5914         0.1004        95.4574       103.7415       136.2457         5.6491         0.3779         1.4695         0.7828        48.4669         2.3383         6.5009        97.5519     
 8698.5000         9.1371         9.2966         0.0505        84.1867       104.2199       139.0790         6.1458         0.2733         1.5489         0.7035        46.5206         2.4247         7.3542        98.1912     
 8699.0000         8.9354         8.9616         0.0128        78.3150       102.3695       137.4505         6.6295         0.3120         2.4773         0.6913        43.1564         2.4936         8.5331        98.8567     
 8699.5000         8.8828         8.6765         0.0102        77.4598       100.7855       134.1604         7.2840         0.5228         5.1078         1.3803        40.5254         2.5562         8.9946        97.6588     
 8700.0000         8.8342         8.5622         0.0196        78.2715        99.5352       131.3603         7.6296         0.9567        10.0814         2.7939        39.4855         2.6059         9.2371        96.3616     
 8700.5000         8.8586         8.5638         0.0145        78.2688        98.8841       131.0667         8.0545         1.2605        11.9331         5.1875        40.3532         2.6233         9.0683        95.5823     
 8701.0000         8.8852         8.5853         0.0024        77.0666        97.7995       133.7636         8.0853         1.0999        12.3309         4.9979        41.9844         2.6038         8.9033        95.4805     
 8701.5000         8.8924         8.5859        -0.0068        76.4265        96.4218       136.2737         7.8172         1.3332        11.9661         5.4034        43.6091         2.5739         8.6742        95.3843     
 8702.0000         8.8983         8.5877        -0.0094        76.9747        95.0102       139.3349         7.2949         1.1559        11.2371         5.3373        47.7186         2.5331         8.3879        95.3151     
 8702.5000         8.8942         8.6226         0.0101        77.8677        92.8750       136.6825         6.7288         1.2160        10.2643         4.9591        51.4407         2.4711         8.0209        95.2459     
 8703.0000         8.8880         8.6837         0.0501        79.2696        90.1399       128.4668         6.1316         1.2890         7.8815         4.8274        51.2823         2.4370         7.5625        95.1794     
 8703.5000         8.8819         8.8813         0.1251        82.4526        86.8415       120.6856         5.5272         1.1524         5.0012         4.0683        50.0488         2.4110         7.0528        95.1248     
 8704.0000         8.8969         9.0951         0.1898        85.9949        83.2854       112.1809         5.1001         0.7060         3.1429         2.1436        48.3731         2.3722         6.4866        95.0703     
 8704.5000         8.9214         9.2446         0.1687        93.4997        81.6026       103.2400         4.7921         0.2907         3.5264         1.0317        47.4827         2.2784         6.0390        95.0156     
 8705.0000         8.9611         9.1940         0.1073       100.2541        83.0445        96.9595         4.5318         0.3751         2.5748         0.6884        48.0646         2.1770         5.3710        95.0091     
 8705.5000         9.0642         9.0891         0.0805       103.0157        86.8476        98.5518         4.3058         0.5081         1.4690         0.6251        48.1192         2.1433         4.7608        95.0827     
 8706.0000         9.1459         9.1530         0.0896       102.9927        90.0962       106.2086         4.1074         0.2551         1.6143         0.6334        46.8326         2.2594         4.5316        95.1563     
 8706.5000         9.2243         9.2327         0.0794       101.9267        92.7324       113.8818         3.9995         0.3659         1.7502         0.6776        45.7161         2.3396         4.5476        95.1752     
 8707.0000         9.3140         9.2017         0.1228        99.8039        94.2364       118.5956         4.0528         0.4469         1.3534         0.9410        45.7207         2.3704         4.6412        95.1732     
 8707.5000         9.3260         9.1991         0.1140        95.8136        94.7394       121.1447         4.1838         0.5062         1.2794         1.0000        45.6774         2.3911         4.7273        95.1097     
 8708.0000         9.3383         9.2117         0.1261        92.7336        94.5011       122.8088         4.3486         0.3900         1.4767         0.8372        45.4495         2.4274         4.8576        94.9472     
 8708.5000         9.3813         9.1949         0.1360        89.8256        93.8892       122.4043         4.6379         0.2973         1.5259         0.6895        43.8585         2.4651         4.9997        94.6763     
