~Version Information Section
VERS.          2.0                                     : CWLS LOG ASCII Standard
WRAP.          NO                                      : One line per depth step
CREA.          03/06/17                                : LAS Creation Date
~Well Information Section
STRT.ft        501.0000                                : Start Depth
STOP.ft        9110.5000                               : Stop Depth
STEP.ft        0.5000                                  : Step
NULL.          -999.2500                               : Null Value
COMP.          TEXACO PRODUCTION SERVICES LTD.         : Company
WELL.          14/20-1                                 : Well
FLD .          MORAY FIRTH                             : Field
LOC .          NORTH SEA                               : Location
LOC1.          -                                       : Location (UTM)
CTRY.          UK                                      : Country
PROV.          UKCS                                    : Province
UWI .          853                                     : UWI Number
API .          -                                       : API Number
SECT.          -                                       : Section
TOWN.          -                                       : Township
RNGE.          -                                       : Range
PDAT.          MSL                                     : Perm Datum
EPD .ft        0.0                                     : Elevation
LMF .          KB                                      : Log Measured From
DMF .          KB                                      : Drill Measured From
APD .ft        0.0                                     : Above Perm Datum
EKB .ft        86.0                                    : Elev-Kelly Bushing
EDF .          -                                       : Elev-Drill Floor
EGL .ft        -454.0                                  : Elev-Ground Level (Water Depth)
TDD .ft        9120.0                                  : Total Depth (Driller)
SRVC.          SCHLUMBERGER                            : Service Company
LATI.          58 20 14.1" N                           : Latitude
LONG.          00 05 34.7" W                           : Longitude
DATE.          JAN-FEB-1975                            : Logging Date
PROJ.          UKCS                                    : Project
SET .          COMP_WIRE                               : Set
~Curve Information Section
DEPTH.ft                                               : Depth Curve
CALD.in                                                : Caliper (from FDC/CNL/GR)
MCAL.in                                                : Micro Caliper (from MLL/ML)
DRHO.g/cc                                              : Delta Rho
DT.us/ft                                               : Delta-T
GR.gAPI                                                : Gamma Ray (from ISF/BHC/GR)
GRD.gAPI                                               : Gamma Ray (from FDC/CNL/GR)
ILD.Ohmm                                               : Deep Induction Standard Processed Resistivity
MINV.Ohmm                                              : Micro-Inverse Resistivity
MLL.Ohmm                                               : Mll Resistivity
MNOR.Ohmm                                              : Micro-Normal Resistivity
NPHI.LPU                                               : Neutron Porosity
RHOB.g/cc                                              : Bulk Density
SFL.Ohmm                                               : Spherically Focussed Log
SP.mV                                                  : Spontaneous Potential
~ASCII Log Data Section
# ...
 7773.0000         8.2330         7.6952         0.0227        86.5795        58.5602        70.2711         0.6995         0.5414         1.7623         1.0668        22.5863         2.3077         1.1977        63.6231     
 7773.5000         8.2475         7.6943         0.0080        87.6603        58.8983        69.1986         0.6610         0.5207         1.6443         1.0354        23.0303         2.2851         1.1372        63.5816     
 7774.0000         8.2520         7.6934        -0.0030        88.4685        59.3788        69.0140         0.6260         0.5201         1.5459         0.9956        23.2548         2.2719         1.0779        63.5402     
 7774.5000         8.2522         7.6924        -0.0061        89.0323        59.8122        68.6640         0.5950         0.5396         1.5506         0.9924        23.2971         2.2584         1.0189        63.4988     
 7775.0000         8.2524         7.6915        -0.0032        89.1966        59.4498        68.3144         0.5686         0.5390         1.5013         1.0149        23.2589         2.2464         0.9735        63.4574     
 7775.5000         8.2526         7.6907         0.0044        89.1986        59.1505        69.4111         0.5447         0.5384         1.4274         0.9764        23.5062         2.2361         0.9367        63.5406     
 7776.0000         8.2512         7.6911         0.0150        88.9205        59.2448        70.8950         0.5260         0.5249         1.3010         0.9505        23.8354         2.2345         0.9092        63.7205     
 7776.5000         8.2456         7.6917         0.0242        88.5217        59.8015        69.7136         0.5145         0.5171         1.2116         0.9245        24.0520         2.2493         0.8924        63.9001     
 7777.0000         8.2400         7.6923         0.0136        88.2516        60.5824        68.2919         0.5031         0.5165         1.2374         0.8992        24.1612         2.2376         0.8817        64.0797     
 7777.5000         8.2345         7.6929         0.0159        88.0349        61.1378        67.3558         0.4968         0.5159         1.1960         0.8901        23.8817         2.2438         0.8712        64.2593     
 7778.0000         8.2308         7.6935         0.0186        88.0870        61.2866        67.1639         0.4928         0.5154         1.1586         0.8820        23.3613         2.2589         0.8590        64.4391     
 7778.5000         8.2276         7.6941         0.0095        88.1750        60.9289        68.1743         0.4929         0.5148         1.1473         0.8762        23.2494         2.2542         0.8460        64.3607     
 7779.0000         8.2244         7.6947         0.0010        88.2711        60.6864        70.3837         0.4995         0.5142         1.1313         0.8757        23.0882         2.2420         0.8438        64.2617     
 7779.5000         8.2212         7.6953        -0.0024        88.3734        61.0218        71.5504         0.5017         0.5334         1.1141         0.8965        23.3083         2.2381         0.8438        64.1627     
 7780.0000         8.2180         7.6959        -0.0051        88.4760        62.2793        71.4818         0.5039         0.5330         1.1496         0.9144        23.5590         2.2343         0.8443        64.0636     
 7780.5000         8.2154         7.6965        -0.0070        88.5784        63.0492        74.0184         0.5061         0.5324         1.1233         0.9032        23.3760         2.2252         0.8474        63.9073     
 7781.0000         8.2214         7.6967        -0.0005        88.7636        63.8910        74.8069         0.5083         0.5318         1.0477         0.8934        23.3721         2.2234         0.8505        63.7478     
 7781.5000         8.2290         7.6958         0.0118        89.0067        64.8327        74.0091         0.5207         0.5312         1.0310         0.8927        23.8028         2.2450         0.8640        63.7088     
 7782.0000         8.2366         7.6948         0.0046        89.2123        65.6494        73.5235         0.5342         0.5307         1.1139         0.8921        24.2970         2.2427         0.8821        63.8112     
 7782.5000         8.2442         7.6939         0.0002        89.4155        66.2077        73.3882         0.5507         0.5301         1.1128         0.8964        24.6301         2.2233         0.9005        64.0369     
 7783.0000         8.2518         7.6929         0.0092        89.0865        66.6423        73.1358         0.5714         0.5480         1.1189         0.9248        24.5512         2.2266         0.9261        64.4014     
 7783.5000         8.2542         7.6920         0.0021        88.7518        66.8888        74.5533         0.5916         0.5489         1.1277         0.9158        24.2814         2.2135         0.9516        65.2294     
 7784.0000         8.2510         7.6910        -0.0042        88.4764        66.7033        74.4804         0.6110         0.5483         1.1353         0.8967        24.6407         2.2130         0.9753        64.9289     
 7784.5000         8.2478         7.6901         0.0004        88.1754        66.5174        73.5048         0.6250         0.5477         1.1453         0.8966        24.0321         2.2316         1.0131        64.6211     
 7785.0000         8.2446         7.6892         0.0067        87.7068        66.1783        75.2100         0.6313         0.5650         1.1825         0.9083        23.4362         2.2436         1.0532        64.2772     
 7785.5000         8.2414         7.6882         0.0110        87.2382        65.6248        77.7342         0.6354         0.5928         1.2700         0.9256        23.3983         2.2545         1.0605        64.1059     
 7786.0000         8.2383         7.6873         0.0137        86.7696        64.7478        79.2400         0.6381         0.6043         1.3616         0.9435        23.2874         2.2725         1.0612        64.3690     
 7786.5000         8.2350         7.6863         0.0136        86.3108        63.7968        77.3682         0.6364         0.5942         1.4398         0.9614        22.8144         2.2865         1.0542        65.0288     
 7787.0000         8.2316         7.6854         0.0102        85.8758        62.7104        74.8067         0.6288         0.6002         1.4316         0.9793        22.4144         2.2980         1.0367        66.1108     
 7787.5000         8.2282         7.6853         0.0068        85.5699        61.5011        73.7073         0.6213         0.6044         1.4763         0.9941        22.3069         2.2820         1.0199        66.2532     
 7788.0000         8.2248         7.6878         0.0066        85.4000        60.2982        74.4311         0.6141         0.6038         1.5266         1.0029        22.6215         2.2885         1.0034        65.3087     
 7788.5000         8.2214         7.6904         0.0127        85.3381        60.1264        76.0314         0.6069         0.6032         1.5163         0.9953        22.7728         2.3020         0.9869        65.0175     
 7789.0000         8.2191         7.6931         0.0160        85.8232        60.6139        74.7015         0.5997         0.6026         1.3846         0.9861        22.8052         2.2943         0.9731        64.8175     
 7789.5000         8.2247         7.6957         0.0133        86.3694        60.5575        73.4865         0.5920         0.6020         1.3782         0.9666        23.0954         2.3059         0.9595        64.6083     
 7790.0000         8.2315         7.6983         0.0061        86.9748        59.9424        71.5097         0.5843         0.6014         1.3275         0.9458        23.3882         2.2962         0.9471        64.3834     
 7790.5000         8.2383         7.7010         0.0019        87.1777        60.2518        70.8860         0.5762         0.6008         1.2370         0.9422        23.3289         2.2899         0.9347        64.1586     
