~Version Information Section
VERS.          2.0                                     : CWLS LOG ASCII Standard
WRAP.          NO                                      : One line per depth step
CREA.          03/06/17                                : LAS Creation Date
~Well Information Section
STRT.ft        501.0000                                : Start Depth
STOP.ft        9110.5000                               : Stop Depth
STEP.ft        0.5000                                  : Step
NULL.          -999.2500                               : Null Value
COMP.          TEXACO PRODUCTION SERVICES LTD.         : Company
WELL.          14/20-1                                 : Well
FLD .          MORAY FIRTH                             : Field
LOC .          NORTH SEA                               : Location
LOC1.          -                                       : Location (UTM)
CTRY.          UK                                      : Country
PROV.          UKCS                                    : Province
UWI .          853                                     : UWI Number
API .          -                                       : API Number
SECT.          -                                       : Section
TOWN.          -                                       : Township
RNGE.          -                                       : Range
PDAT.          MSL                                     : Perm Datum
EPD .ft        0.0                                     : Elevation
LMF .          KB                                      : Log Measured From
DMF .          KB                                      : Drill Measured From
APD .ft        0.0                                     : Above Perm Datum
EKB .ft        86.0                                    : Elev-Kelly Bushing
EDF .          -                                       : Elev-Drill Floor
EGL .ft        -454.0                                  : Elev-Ground Level (Water Depth)
TDD .ft        9120.0                                  : Total Depth (Driller)
SRVC.          SCHLUMBERGER                            : Service Company
LATI.          58 20 14.1" N                           : Latitude
LONG.          00 05 34.7" W                           : Longitude
DATE.          JAN-FEB-1975                            : Logging Date
PROJ.          UKCS                                    : Project
SET .          COMP_WIRE                               : Set
~Curve Information Section
DEPTH.ft                                               : Depth Curve
CALD.in                                                : Caliper (from FDC/CNL/GR)
MCAL.in                                                : Micro Caliper (from MLL/ML)
DRHO.g/cc                                              : Delta Rho
DT.us/ft                                               : Delta-T
GR.gAPI                                                : Gamma Ray (from ISF/BHC/GR)
GRD.gAPI                                               : Gamma Ray (from FDC/CNL/GR)
ILD.Ohmm                                               : Deep Induction Standard Processed Resistivity
MINV.Ohmm                                              : Micro-Inverse Resistivity
MLL.Ohmm                                               : Mll Resistivity
MNOR.Ohmm                                              : Micro-Normal Resistivity
NPHI.LPU                                               : Neutron Porosity
RHOB.g/cc                                              : Bulk Density
SFL.Ohmm                                               : Spherically Focussed Log
SP.mV                                                  : Spontaneous Potential
~ASCII Log Data Section
# ...
 7125.0000         8.7222         8.4364      -999.2500        76.1541        21.1835        15.4322         3.4913      -999.2500      -999.2500      -999.2500        34.1559      -999.2500         2.6971        77.4720     
 7125.5000         8.7633         8.4066      -999.2500        75.1797        21.4644        15.1788         3.4832      -999.2500      -999.2500      -999.2500        33.3760      -999.2500         2.7596        77.3997     
 7126.0000         8.8919         7.9806      -999.2500        75.5995        21.3453        15.2898         3.4751      -999.2500      -999.2500      -999.2500        32.8874      -999.2500         2.7278        77.3276     
 7126.5000         8.9934         7.5526      -999.2500        76.8039        21.2054        16.1739         3.4669      -999.2500      -999.2500      -999.2500        31.2584      -999.2500         2.6289        77.2554     
 7127.0000         9.0319         7.5107      -999.2500        76.7383        20.9724        17.5423         3.4321      -999.2500      -999.2500      -999.2500        29.2223      -999.2500         2.6400        77.2065     
 7127.5000         9.2010         8.6000      -999.2500        76.2568        20.7371        18.7207         3.3559      -999.2500      -999.2500      -999.2500        29.3850      -999.2500         2.6459        77.4633     
 7128.0000         9.4051         9.2331      -999.2500        76.4184        20.5034        19.1431         3.2795      -999.2500      -999.2500      -999.2500        28.5407      -999.2500         2.6550        78.6553     
 7128.5000        10.6893        10.1461      -999.2500        76.5515        19.9662        19.6888         3.2042      -999.2500      -999.2500      -999.2500        25.2160      -999.2500         2.6640        79.4391     
 7129.0000        11.4685        11.4913         0.0418        75.6100        19.5938        20.2342         3.1541      -999.2500      -999.2500         3.7922        24.0916         2.4316         2.6691        78.5004     
 7129.5000        11.7071        12.4639         0.0152        74.4056        19.3936        20.7804         3.1136         1.3507         4.4414         3.1406        23.8962         2.4304         2.6160        79.3131     
 7130.0000        11.7338        12.7461         0.0220        75.7659        19.5305        21.3482         3.0981         1.5691         5.3562         3.0528        24.9940         2.4190         2.5613        80.7674     
 7130.5000        11.7553        12.7903         0.0158        77.4682        19.7918        22.1656         3.0984         2.0710         4.9707         3.3891        26.4920         2.4192         2.5842        81.0822     
 7131.0000        11.7757        12.7471         0.0030        80.3828        20.0040        23.3880         3.1103         1.2502         4.3393         1.6987        28.0835         2.4299         2.7186        79.7780     
 7131.5000        11.7960        12.7223         0.0029        81.5956        20.1340        23.1834         3.1357         1.5508         2.9322         1.8734        28.1122         2.4437         2.8599        78.8656     
 7132.0000        11.8003        12.7634         0.0205        81.0401        20.1398        22.1249         3.1593         2.0440         3.9578         2.7146        27.0696         2.4658         2.9613        79.1371     
 7132.5000        11.7994        12.8086         0.0317        79.7053        20.1422        20.9088         3.1735         2.0972         3.4710         2.6306        25.6815         2.4837         3.0185        79.3745     
 7133.0000        11.7985        12.8539         0.0112        78.4907        20.0710        20.1399         3.1834         2.0838         4.4946         2.9868        24.2928         2.4638         3.0403        79.5414     
 7133.5000        11.7976        12.8991         0.0077        77.7548        19.9075        20.5532         3.1643         2.7647         4.8605         2.8121        23.7538         2.4488         3.0264        79.2027     
 7134.0000        11.8249        12.9429         0.0354        77.0188        19.6682        20.5999         3.1409         3.0015         5.1183         3.0205        23.9766         2.4488         3.0126        78.7011     
 7134.5000        11.8540        12.9867         0.0286        76.4274        19.6756        18.7463         3.1090         2.9268         4.6608         2.4228        24.4729         2.4472         2.9987        78.2271     
 7135.0000        11.8915        13.0305         0.0073        76.4076        20.2466        18.6401         3.0691         3.1726         4.4997         2.6799        24.9693         2.4586         2.9778        78.0937     
 7135.5000        11.9540        13.0566         0.0245        76.4881        21.0180        20.4659         3.0205         2.9826         4.8445         2.6498        25.3176         2.4733         2.9285        78.1710     
 7136.0000        11.9531        13.0552         0.0435        76.5125        22.1005        22.0631         2.9563         2.4057         3.4362         1.9765        25.1508         2.4999         2.8625        78.5051     
 7136.5000        11.9522        12.9845         0.0325        77.7766        23.2196        22.9618         2.8931         2.9572         4.7504         2.7548        24.7013         2.4991         2.7815        78.9890     
 7137.0000        11.9662        12.8131         0.0165        81.0500        24.0252        23.9151         2.8336         2.4730         4.8086         2.6872        24.2284         2.4822         2.6889        79.5916     
 7137.5000        12.0323        12.6418        -0.0005        83.6603        24.6619        24.8767         2.7741         2.0839         3.6235         2.2194        23.7555         2.4691         2.5858        81.0225     
 7138.0000        12.1235        12.4810         0.0066        87.4602        24.9754        25.8372         2.7356         2.9451         4.0819         2.3561        23.4579         2.4532         2.4854        81.3638     
 7138.5000        12.2001        12.3817         0.0429        82.7698        24.9266        26.1233         2.7123         2.9019         3.8798         2.0181        23.4585         2.4512         2.4131        81.1666     
 7139.0000        12.2111        12.3328         0.0530        84.6960        24.6869        25.6189         2.7085         3.1460         3.3305         2.1803        23.8771         2.4539         2.4393        80.2258     
 7139.5000        12.2177        12.3207        -0.0100        86.0993        24.4129        25.1133         2.7441         1.6803         1.9437         1.4193        24.1934         2.4091         2.5207        79.4517     
 7140.0000        12.2244        12.3316        -0.0030        86.2117        24.1130        24.6515         2.8153         1.9185         3.2442         2.1674        23.7040         2.4109         2.5670        78.9559     
 7140.5000        12.2090        12.3568         0.0111        85.2342        23.6250        24.2416         2.8841         2.1525         4.0658         2.5815        21.2627         2.4836         2.5601        78.7261     
 7141.0000        12.2382        12.3863         0.0146        83.3349        22.9651        23.8297         2.9477         2.1211         4.2589         2.7795        19.5458         2.5051         2.5920        78.7535     
 7141.5000        12.2570        12.4079         0.0183        82.0681        22.3940        23.3025         2.9769         2.0100         3.8048         2.9417        19.1423         2.5140         2.6260        79.1284     
 7142.0000        12.2842        12.4237         0.0178        81.9870        21.9944        22.9139         2.9880         1.7023         3.3201         2.3227        18.9108         2.5220         2.5949        79.6147     
 7142.5000        12.3665        12.4395         0.0122        81.8195        21.8816        22.9190         2.9696         1.7818         3.7303         2.7907        18.6686         2.5246         2.5294        80.9734     
