~Version Information Section
VERS.          2.0                                     : CWLS LOG ASCII Standard
WRAP.          NO                                      : One line per depth step
CREA.          03/06/17                                : LAS Creation Date
~Well Information Section
STRT.ft        501.0000                                : Start Depth
STOP.ft        9110.5000                               : Stop Depth
STEP.ft        0.5000                                  : Step
NULL.          -999.2500                               : Null Value
COMP.          TEXACO PRODUCTION SERVICES LTD.         : Company
WELL.          14/20-1                                 : Well
FLD .          MORAY FIRTH                             : Field
LOC .          NORTH SEA                               : Location
LOC1.          -                                       : Location (UTM)
CTRY.          UK                                      : Country
PROV.          UKCS                                    : Province
UWI .          853                                     : UWI Number
API .          -                                       : API Number
SECT.          -                                       : Section
TOWN.          -                                       : Township
RNGE.          -                                       : Range
PDAT.          MSL                                     : Perm Datum
EPD .ft        0.0                                     : Elevation
LMF .          KB                                      : Log Measured From
DMF .          KB                                      : Drill Measured From
APD .ft        0.0                                     : Above Perm Datum
EKB .ft        86.0                                    : Elev-Kelly Bushing
EDF .          -                                       : Elev-Drill Floor
EGL .ft        -454.0                                  : Elev-Ground Level (Water Depth)
TDD .ft        9120.0                                  : Total Depth (Driller)
SRVC.          SCHLUMBERGER                            : Service Company
LATI.          58 20 14.1" N                           : Latitude
LONG.          00 05 34.7" W                           : Longitude
DATE.          JAN-FEB-1975                            : Logging Date
PROJ.          UKCS                                    : Project
SET .          COMP_WIRE                               : Set
~Curve Information Section
DEPTH.ft                                               : Depth Curve
CALD.in                                                : Caliper (from FDC/CNL/GR)
MCAL.in                                                : Micro Caliper (from MLL/ML)
DRHO.g/cc                                              : Delta Rho
DT.us/ft                                               : Delta-T
GR.gAPI                                                : Gamma Ray (from ISF/BHC/GR)
GRD.gAPI                                               : Gamma Ray (from FDC/CNL/GR)
ILD.Ohmm                                               : Deep Induction Standard Processed Resistivity
MINV.Ohmm                                              : Micro-Inverse Resistivity
MLL.Ohmm                                               : Mll Resistivity
MNOR.Ohmm                                              : Micro-Normal Resistivity
NPHI.LPU                                               : Neutron Porosity
RHOB.g/cc                                              : Bulk Density
SFL.Ohmm                                               : Spherically Focussed Log
SP.mV                                                  : Spontaneous Potential
~ASCII Log Data Section
# ...
 8295.0000         9.0420         8.7352         0.0217        78.4769       102.9577       137.1536         4.9365         2.5015         5.4812         2.5022        37.5569         2.4672         6.3895        87.8473     
 8295.5000         9.0272         8.7983         0.0094        76.7504       103.4018       132.1943         4.7021         4.9754         7.9886         2.4370        37.5536         2.5387         5.9977        88.0233     
 8296.0000         8.9929         8.8782         0.0014        78.8787       103.8203       126.5206         4.6053         3.1998         3.9044         3.3126        36.5226         2.5101         5.5622        88.1992     
 8296.5000         8.9924         8.9316         0.0318        79.6204       102.3029       122.9084         4.5940         0.5431         1.6102         0.5786        38.0514         2.4801         5.1054        88.3755     
 8297.0000         8.9920         8.8871         0.0712        79.2207       101.4576       124.8703         4.6052         1.7859         2.2045         1.3481        40.5219         2.4668         5.1246        88.5492     
 8297.5000         8.9544         8.8099         0.0135        79.1139       101.7641       130.0291         4.6338         3.5172         4.3787         2.2687        40.6765         2.4064         5.7297        88.7201     
 8298.0000         8.8601         8.8298         0.0370        77.8562       102.1819       136.2355         4.7710         2.1507         2.7208         1.6096        39.4423         2.4805         6.3548        88.9038     
 8298.5000         8.8647         8.7960         0.0981        76.6665       102.4515       140.2819         4.9450         0.9107         4.1581         1.0181        40.7492         2.5399         6.6873        89.1711     
 8299.0000         8.9302         8.7337         0.1078        78.7994       102.5503       142.6359         5.1811         2.2008         5.1857         2.4455        41.0308         2.5359         6.9224        89.0065     
 8299.5000         8.9177         8.6964         0.0563        80.5749       102.4273       138.5035         5.5872         3.3996         3.9773         2.0097        40.1471         2.4511         7.2395        88.7503     
 8300.0000         8.9007         8.6672         0.0356        81.1784       100.8354       137.7448         5.9933         1.3106         3.6729         1.2452        41.1213         2.4525         7.6446        88.9198     
 8300.5000         8.8887         8.6460         0.0382        79.6027        99.6111       136.0186         6.4280         3.5084         8.0475         2.3729        41.9848         2.4658         8.0781        89.4561     
 8301.0000         8.8801         8.6384        -0.0109        77.5298        99.9001       131.0548         6.8847         5.3294        13.5611         6.5111        41.0535         2.4357         8.6736        89.2867     
 8301.5000         8.8782         8.6468        -0.0302        77.2707       100.0033       125.0964         7.3645         7.1069        12.3367         8.8738        39.0191         2.3644         9.5743        88.9723     
 8302.0000         8.9356         8.6605        -0.0167        80.5722        98.8152       119.1815         7.8619         4.1835         7.2844         3.7131        41.7311         2.2417         9.8448        88.6297     
 8302.5000         8.9576         8.6905        -0.0316        88.7896        97.7444       117.2648         8.4283         1.2160         4.3630         1.2137        45.5396         2.1558         9.7010        88.3217     
 8303.0000         8.9484         8.7209        -0.0087        93.7366        96.5792       119.2386         9.1055         2.2132         2.9564         1.7072        48.0986         2.1831        10.0872        88.0460     
 8303.5000         8.9160         8.7377         0.0188        92.9753        94.6275       118.9459        10.0168         1.0158         4.0978         1.3422        45.4839         2.2723        10.7856        87.8235     
 8304.0000         8.8899         8.7201         0.0109        88.9571        92.8491       115.6097        10.9164         2.1027         2.6346         1.6568        45.0402         2.3885        12.2221        87.6936     
 8304.5000         8.8653         8.6791        -0.0098        81.2507        91.3821       108.8884        11.6558         1.2279         3.7432         1.3159        36.7834         2.5275        13.6653        87.6808     
 8305.0000         8.8649         8.6315        -0.0074        74.1350        89.7433       101.5811        12.4271         2.9853         8.5251         2.2586        29.8964         2.5960        14.4479        87.7896     
 8305.5000         8.8628         8.6106        -0.0000        71.6971        89.2324       100.0654        13.0550         5.3425        11.0819         3.3290        24.0401         2.6111        14.7314        88.2487     
 8306.0000         8.8543         8.5939         0.0074        71.0070        89.9658       107.4236        13.3185         4.9508         7.5693         3.7829        23.0268         2.5997        14.6179        88.6894     
 8306.5000         8.8459         8.5794         0.0161        72.0867        92.3966       117.7943        13.1726         6.6361         9.2448         4.4757        25.2613         2.5844        14.2947        89.1989     
 8307.0000         8.8374         8.5661         0.0078        73.0327        94.9204       128.7195        12.6851        10.1269        17.1518         6.7836        28.2618         2.5639        13.9373        89.0892     
 8307.5000         8.8289         8.5495        -0.0065        74.1218        97.3643       131.8793        11.9858         8.5623        11.6134         5.6563        32.0117         2.5418        13.6822        88.3786     
 8308.0000         8.8258         8.5625         0.0038        75.7502        97.9708       129.4283        11.2083         4.0936        13.6901         3.4190        35.2847         2.5400        13.4427        88.6528     
 8308.5000         8.8388         8.5813         0.0116        76.7817        97.7339       123.5047        10.4286         7.8524        11.5485         5.0451        37.6531         2.5464        13.1269        87.9554     
 8309.0000         8.8518         8.6111         0.0143        76.6416        97.1032       117.6568        10.1453         4.7434         8.4399         4.8630        37.8075         2.5265        12.6526        87.1048     
 8309.5000         8.8648         8.6585         0.0225        77.0663        95.8831       113.6161         9.8670         5.8426         5.8847         4.6471        35.0828         2.5397        11.4834        87.3763     
 8310.0000         8.8779         8.7042         0.0591        75.8326        94.0175       113.0547         9.5980         1.4778         2.3590         1.1365        33.9096         2.5584        10.5708        88.6640     
 8310.5000         8.8939         8.7316         0.0467        77.8236        91.7471       113.8194         9.3339         3.1875         2.9323         1.9336        35.8953         2.5113         9.9996        89.4010     
 8311.0000         8.9107         8.7479         0.0222        78.6473        89.3580       113.2828         9.0782         0.5459         4.6054         0.6198        38.7227         2.4915        10.3049        89.1382     
 8311.5000         8.9276         8.7375        -0.0057        78.0418        87.7444       107.9715         8.7965         2.3189         7.1562         1.4746        39.3010         2.5037        10.8932        87.8777     
 8312.0000         8.9413         8.7197         0.0047        76.8751        86.7137       103.9058         8.5132         4.3842         9.9544         2.8328        36.4482         2.5478        11.2977        86.5743     
 8312.5000         8.9473         8.7030         0.0242        75.0845        85.9777       101.3347         8.3348         2.8690         6.2948         2.9395        30.5592         2.5293        11.3699        85.9563     
