~Version Information Section
VERS.          2.0                                     : CWLS LOG ASCII Standard
WRAP.          NO                                      : One line per depth step
CREA.          03/06/17                                : LAS Creation Date
~Well Information Section
STRT.ft        501.0000                                : Start Depth
STOP.ft        9110.5000                               : Stop Depth
STEP.ft        0.5000                                  : Step
NULL.          -999.2500                               : Null Value
COMP.          TEXACO PRODUCTION SERVICES LTD.         : Company
WELL.          14/20-1                                 : Well
FLD .          MORAY FIRTH                             : Field
LOC .          NORTH SEA                               : Location
LOC1.          -                                       : Location (UTM)
CTRY.          UK                                      : Country
PROV.          UKCS                                    : Province
UWI .          853                                     : UWI Number
API .          -                                       : API Number
SECT.          -                                       : Section
TOWN.          -                                       : Township
RNGE.          -                                       : Range
PDAT.          MSL                                     : Perm Datum
EPD .ft        0.0                                     : Elevation
LMF .          KB                                      : Log Measured From
DMF .          KB                                      : Drill Measured From
APD .ft        0.0                                     : Above Perm Datum
EKB .ft        86.0                                    : Elev-Kelly Bushing
EDF .          -                                       : Elev-Drill Floor
EGL .ft        -454.0                                  : Elev-Ground Level (Water Depth)
TDD .ft        9120.0                                  : Total Depth (Driller)
SRVC.          SCHLUMBERGER                            : Service Company
LATI.          58 20 14.1" N                           : Latitude
LONG.          00 05 34.7" W                           : Longitude
DATE.          JAN-FEB-1975                            : Logging Date
PROJ.          UKCS                                    : Project
SET .          COMP_WIRE                               : Set
~Curve Information Section
DEPTH.ft                                               : Depth Curve
CALD.in                                                : Caliper (from FDC/CNL/GR)
MCAL.in                                                : Micro Caliper (from MLL/ML)
DRHO.g/cc                                              : Delta Rho
DT.us/ft                                               : Delta-T
GR.gAPI                                                : Gamma Ray (from ISF/BHC/GR)
GRD.gAPI                                               : Gamma Ray (from FDC/CNL/GR)
ILD.Ohmm                                               : Deep Induction Standard Processed Resistivity
MINV.Ohmm                                              : Micro-Inverse Resistivity
MLL.Ohmm                                               : Mll Resistivity
MNOR.Ohmm                                              : Micro-Normal Resistivity
NPHI.LPU                                               : Neutron Porosity
RHOB.g/cc                                              : Bulk Density
SFL.Ohmm                                               : Spherically Focussed Log
SP.mV                                                  : Spontaneous Potential
~ASCII Log Data Section
# ...
 8043.0000         8.2519         7.8402         0.0001        85.8949        53.7749        64.7472         0.5307         0.7395         1.3962         1.2254        23.6968         2.2399         0.8898        67.5833     
 8043.5000         8.2639         7.8404        -0.0043        85.9953        54.4243        64.2196         0.5386         0.7168         1.4278         1.1899        23.6472         2.2321         0.8915        67.4745     
 8044.0000         8.2788         7.8407        -0.0083        86.1928        55.5183        64.4038         0.5466         0.7032         1.4135         1.1695        23.9836         2.2257         0.9082        67.3420     
 8044.5000         8.2885         7.8410        -0.0091        86.4117        57.1453        65.9526         0.5545         0.7063         1.3475         1.2119        24.4541         2.2178         0.9209        66.9023     
 8045.0000         8.2883         7.8413        -0.0042        86.4126        58.5260        67.1168         0.5591         0.7139         1.3751         1.2484        24.6277         2.2183         0.9261        66.2759     
 8045.5000         8.2881         7.8415         0.0037        86.4127        59.1460        69.0339         0.5576         0.6931         1.3327         1.2302        24.2413         2.2301         0.9313        65.9999     
 8046.0000         8.2879         7.8418        -0.0030        86.0227        60.1568        69.4014         0.5561         0.6819         1.3437         1.1895        23.7563         2.2374         0.9367        66.4994     
 8046.5000         8.2877         7.8421        -0.0056        85.5609        61.1955        68.1292         0.5546         0.6953         1.3288         1.1417        23.6872         2.2456         0.9473        67.9061     
 8047.0000         8.2875         7.8424         0.0012        85.1408        61.9174        68.8647         0.5580         0.6330         1.3078         1.0757        23.9956         2.2460         0.9522        69.0724     
 8047.5000         8.2873         7.8426         0.0083        84.7406        61.9181        70.1529         0.5619         0.6247         1.2838         1.1082        23.6430         2.2491         0.9482        69.5137     
 8048.0000         8.2871         7.8391         0.0162        84.3403        61.8782        70.4516         0.5648         0.6717         1.4401         1.2453        22.7796         2.2625         0.9404        69.6589     
 8048.5000         8.2869         7.8092         0.0033        83.9401        61.2748        71.5401         0.5649         0.7001         2.3239         1.2998        22.5348         2.2580         0.9198        69.5357     
 8049.0000         8.2867         7.8223         0.0044        83.8236        60.7179        74.1716         0.5654         0.6108         2.3075         1.0960        22.4860         2.2597         0.9092        69.5374     
 8049.5000         8.2865         7.8428         0.0196        83.8238        60.7187        76.5915         0.5702         0.6374         1.6961         1.2544        22.3531         2.2804         0.9059        69.5872     
 8050.0000         8.2863         7.8400         0.0351        83.8241        60.8580        76.7241         0.5750         0.6347         1.3460         1.2533        22.2052         2.2991         0.9029        69.8572     
 8050.5000         8.2861         7.8372         0.0421        83.8856        61.0099        75.6459         0.5798         0.6089         1.3188         1.1650        22.1624         2.3161         0.9030        70.1798     
 8051.0000         8.2859         7.8345         0.0315        83.9951        61.0153        73.9642         0.5953         0.6158         1.4024         1.1217        22.3213         2.2851         0.9049        70.1727     
 8051.5000         8.2857         7.8317         0.0010        83.8754        60.5346        71.9740         0.6139         0.5811         1.4188         1.0291        22.6605         2.2461         0.9091        69.8437     
 8052.0000         8.2855         7.8289         0.0018        84.1579        59.8634        70.4909         0.6330         0.5588         1.3848         1.0288        23.0003         2.2421         0.9272        68.8974     
 8052.5000         8.2881         7.8261         0.0087        84.5861        59.3452        70.9836         0.6573         0.5337         1.3213         1.0759        23.0692         2.2491         0.9624        68.1638     
 8053.0000         8.2916         7.8256         0.0085        85.1052        59.1276        71.5913         0.6826         0.5307         1.2915         1.0168        22.9438         2.2414         0.9975        67.8338     
 8053.5000         8.2951         7.8259         0.0063        85.6127        58.7883        71.4278         0.7105         0.5373         1.2712         0.9441        22.3715         2.2345         1.0545        67.7413     
 8054.0000         8.2986         7.8262         0.0040        85.6116        58.5571        71.9284         0.7403         0.5454         1.2505         0.9362        21.6786         2.2379         1.1572        67.7413     
 8054.5000         8.3021         7.8389         0.0016        83.8385        58.6786        70.4813         0.7629         0.6090         1.3233         1.0988        20.8301         2.2595         1.2896        67.7413     
 8055.0000         8.3056         7.8596         0.0008        81.9849        58.5779        70.4373         0.7722         0.7783         2.7111         1.6072        20.3237         2.2755         1.3393        67.7413     
 8055.5000         8.3091         7.8449         0.0034        79.9784        58.2031        70.2905         0.7631         0.8802         6.7120         1.6762        20.5645         2.2758         1.2408        67.7413     
 8056.0000         8.3126         7.8257         0.0190        78.8931        57.5150        68.6160         0.7354         0.7844         2.5801         1.3370        21.1975         2.2907         1.1726        67.7413     
 8056.5000         8.3161         7.8802         0.0310        79.5771        57.3827        69.3940         0.7088         0.8312         2.1286         1.5666        21.8290         2.3076         1.1301        67.7413     
 8057.0000         8.3196         7.8874         0.0127        80.9497        56.9530        70.5569         0.6829         0.7517         1.3098         1.4501        22.3978         2.2942         1.0978        67.8489     
 8057.5000         8.3230         7.8774         0.0118        82.0816        55.7076        68.2585         0.6632         0.7771         1.2940         1.3412        22.9594         2.2960         1.0688        68.0912     
 8058.0000         8.3258         7.8842         0.0112        82.6149        55.1128        66.2932         0.6428         0.7455         1.3976         1.2529        23.2463         2.2984         1.0268        68.1264     
 8058.5000         8.3285         7.9062         0.0002        82.8876        55.3073        63.2991         0.6311         0.8328         1.5374         1.3107        22.9036         2.2782         0.9750        68.0052     
 8059.0000         8.3313         7.9142        -0.0008        83.0064        55.1343        59.6978         0.6255         0.9740         1.7059         1.5467        21.9186         2.2742         0.9405        68.0858     
 8059.5000         8.3340         7.9180         0.0149        83.5906        54.2166        56.1326         0.6294         0.9104         1.8639         1.5562        21.5054         2.2851         0.9438        68.3615     
 8060.0000         8.3367         7.9218         0.0211        84.1911        51.7850        54.1198         0.6448         0.9246         1.5932         1.4253        21.5681         2.2794         0.9652        68.8079     
 8060.5000         8.3394         7.9256         0.0214        84.6301        49.9515        53.7198         0.6713         0.8872         1.3003         1.3599        21.5535         2.2740         0.9832        69.8867     
