~Version Information Section
VERS.          2.0                                     : CWLS LOG ASCII Standard
WRAP.          NO                                      : One line per depth step
CREA.          03/06/17                                : LAS Creation Date
~Well Information Section
STRT.ft        501.0000                                : Start Depth
STOP.ft        9110.5000                               : Stop Depth
STEP.ft        0.5000                                  : Step
NULL.          -999.2500                               : Null Value
COMP.          TEXACO PRODUCTION SERVICES LTD.         : Company
WELL.          14/20-1                                 : Well
FLD .          MORAY FIRTH                             : Field
LOC .          NORTH SEA                               : Location
LOC1.          -                                       : Location (UTM)
CTRY.          UK                                      : Country
PROV.          UKCS                                    : Province
UWI .          853                                     : UWI Number
API .          -                                       : API Number
SECT.          -                                       : Section
TOWN.          -                                       : Township
RNGE.          -                                       : Range
PDAT.          MSL                                     : Perm Datum
EPD .ft        0.0                                     : Elevation
LMF .          KB                                      : Log Measured From
DMF .          KB                                      : Drill Measured From
APD .ft        0.0                                     : Above Perm Datum
EKB .ft        86.0                                    : Elev-Kelly Bushing
EDF .          -                                       : Elev-Drill Floor
EGL .ft        -454.0                                  : Elev-Ground Level (Water Depth)
TDD .ft        9120.0                                  : Total Depth (Driller)
SRVC.          SCHLUMBERGER                            : Service Company
LATI.          58 20 14.1" N                           : Latitude
LONG.          00 05 34.7" W                           : Longitude
DATE.          JAN-FEB-1975                            : Logging Date
PROJ.          UKCS                                    : Project
SET .          COMP_WIRE                               : Set
~Curve Information Section
DEPTH.ft                                               : Depth Curve
CALD.in                                                : Caliper (from FDC/CNL/GR)
MCAL.in                                                : Micro Caliper (from MLL/ML)
DRHO.g/cc                                              : Delta Rho
DT.us/ft                                               : Delta-T
GR.gAPI                                                : Gamma Ray (from ISF/BHC/GR)
GRD.gAPI                                               : Gamma Ray (from FDC/CNL/GR)
ILD.Ohmm                                               : Deep Induction Standard Processed Resistivity
MINV.Ohmm                                              : Micro-Inverse Resistivity
MLL.Ohmm                                               : Mll Resistivity
MNOR.Ohmm                                              : Micro-Normal Resistivity
NPHI.LPU                                               : Neutron Porosity
RHOB.g/cc                                              : Bulk Density
SFL.Ohmm                                               : Spherically Focussed Log
SP.mV                                                  : Spontaneous Potential
~ASCII Log Data Section
# ...
 8565.0000         8.1315         7.7009         0.0444        77.0500        56.9738        66.9757         2.6513         0.5427         4.0964         1.2279        18.8894         2.4245         3.4628        74.3633     
 8565.5000         8.1428         7.6933         0.0134        76.1762        58.2780        68.8148         2.7646         0.5581         3.1453         1.2729        18.6718         2.4127         3.7044        74.5809     
 8566.0000         8.1531         7.6857         0.0034        75.0360        58.7027        67.6246         2.8395         0.5233         4.0853         1.3102        18.4117         2.4424         3.5548        74.9250     
 8566.5000         8.1590         7.6796         0.0230        74.0133        57.9341        64.7363         2.8970         0.4687         4.3555         1.3259        18.7459         2.4677         3.2848        75.2691     
 8567.0000         8.1648         7.6937         0.0273        73.0797        56.7945        62.4686         2.9351         0.4687         4.5077         1.3524        19.5360         2.4779         2.9647        75.8428     
 8567.5000         8.1704         7.7123         0.0136        72.4819        54.5450        58.8480         2.9701         0.4854         5.1132         1.3991        20.4236         2.4726         2.5990        76.4469     
 8568.0000         8.1714         7.7190         0.0085        73.1284        52.0686        53.8305         2.9938         0.4681         4.6509         1.3748        21.2467         2.4803         2.3361        76.1967     
 8568.5000         8.1713         7.7197         0.0179        74.6368        50.4421        50.7914         3.0076         0.5032         5.1028         1.4066        22.0654         2.4670         2.2187        76.2326     
 8569.0000         8.1711         7.7278         0.0349        76.8013        48.7828        52.8577         3.0139         0.5145         3.7599         1.4282        22.5534         2.4400         2.1964        76.8868     
 8569.5000         8.1709         7.7501         0.0320        79.2134        48.8646        56.4933         3.0139         0.5027         1.4961         1.3197        21.9234         2.4001         2.1830        78.3656     
 8570.0000         8.1708         7.7725         0.0080        81.4187        50.8894        60.7507         3.0138         0.4757         1.4739         1.1481        21.7335         2.3076         2.1830        79.1371     
 8570.5000         8.1739         7.7948         0.0177        82.6856        55.0061        67.7970         3.0138         0.4749         1.4738         1.0194        21.9808         2.2894         2.2753        79.4379     
 8571.0000         8.1797         7.8029         0.0237        82.5602        60.9056        75.7109         3.0294         0.5093         1.4147         1.0459        22.1161         2.2914         2.4599        79.4138     
 8571.5000         8.1856         7.7843         0.0085        82.1548        68.1148        88.5991         3.1108         0.5437         1.3335         1.0495        22.0020         2.2873         2.8954        79.3582     
 8572.0000         8.1901         7.7735         0.0163        82.0215        75.3355       102.5029         3.2277         0.5903         1.3991         1.0445        21.8519         2.3042         3.4549        80.1163     
 8572.5000         8.1913         7.8202         0.0387        83.3978        82.5447       120.2716         3.3493         0.6439         1.5705         1.1372        23.2796         2.3309         4.1229        81.5494     
 8573.0000         8.2356         7.9966         0.0975        82.5059        89.7951       137.6889         3.4802         0.6924         1.9025         1.1783        26.1685         2.3577         4.9200        83.1865     
 8573.5000         8.3543         8.3658         0.1402        83.7966        97.1434       140.2994         3.5973         0.5931         2.5054         1.0339        30.8984         2.3825         5.0910        84.9692     
 8574.0000         8.7536         8.8867         0.1583        86.2060        98.5408       136.0589         3.6240         0.3172         2.6541         0.8362        36.7033         2.3602         5.0297        86.4795     
 8574.5000         8.8772         8.8520         0.1198        89.0774        97.8044       130.9353         3.4775         0.1979         2.1385         0.6164        42.2112         2.3006         4.9398        88.0906     
 8575.0000         8.8199         8.6349         0.1012        90.9071        96.1029       127.3400         3.2260         0.5138         3.1619         1.1665        43.1097         2.2544         4.7357        89.1582     
 8575.5000         8.7420         8.5562         0.0563        92.6387        94.7394       126.0460         2.9961         0.7099         3.1358         1.5457        40.5619         2.2467         4.3220        90.0174     
 8576.0000         8.6859         8.5743         0.0766        92.6142        94.3585       124.3793         2.7824         0.4407         2.3892         1.0018        37.9835         2.2854         3.8093        90.5645     
 8576.5000         8.7364         8.4745         0.0579        82.0173        94.2072       123.3239         2.5850         0.8077         2.9708         1.6951        35.3015         2.4287         3.4494        90.6846     
 8577.0000         8.7879         8.4183         0.0205        78.3819        93.0238       125.4709         2.4444         0.7388         2.4840         1.6830        32.8658         2.5423         3.1362        90.3614     
 8577.5000         8.7878         8.4280         0.0225        79.4498        92.5976       123.8901         2.3269         1.0416         3.5914         2.5073        31.8524         2.6309         2.9143        89.8883     
 8578.0000         8.7946         8.4535         0.0427        83.1382        94.9478       121.1717         2.3069         0.8819         3.7864         2.3343        33.9858         2.6438         2.8417        89.7200     
 8578.5000         8.8221         8.4775         0.0478        87.9666        96.6095       121.8118         2.3395         0.8225         2.6770         1.8266        37.7169         2.5728         2.9833        89.8533     
 8579.0000         8.8494         8.4907         0.0751        91.0893        98.0401       125.1957         2.4574         0.6339         2.0388         1.2864        39.3293         2.5162         3.4094        89.9864     
 8579.5000         8.8493         8.4346         0.0104        88.5260       100.2442       129.9911         2.6335         0.3353         1.7085         0.8298        38.0800         2.4942         4.0358        90.1270     
 8580.0000         8.7809         8.3732        -0.0032        85.3842       102.2569       134.7502         3.0300         0.6428         2.4577         1.7161        34.9062         2.5425         4.6621        90.4716     
 8580.5000         8.7384         8.3756         0.0069        79.7852       104.6373       138.4797         3.4746         0.9968         4.2238         2.7301        32.0253         2.6079         5.6124        90.7253     
 8581.0000         8.7287         8.3909         0.0161        78.0922       106.6393       140.4541         3.9167         1.2289         6.2263         3.2097        31.0860         2.6423         6.7917        91.1443     
 8581.5000         8.7331         8.3267         0.0145        77.6941       107.2434       140.0824         4.3358         1.3636         3.9791         3.0371        31.5072         2.6464         7.7895        92.2015     
 8582.0000         8.7378         8.3525         0.0022        77.6582       108.2156       139.2308         4.7549         1.1902         6.0644         3.5356        31.8759         2.6264         8.1970        93.7926     
 8582.5000         8.7425         8.4241         0.0040        78.4257       108.7841       138.4285         5.2209         1.3137        11.9069         3.5188        32.0949         2.6008         8.0981        94.7614     
