~Version Information Section
VERS.          2.0                                     : CWLS LOG ASCII Standard
WRAP.          NO                                      : One line per depth step
CREA.          03/06/17                                : LAS Creation Date
~Well Information Section
STRT.ft        501.0000                                : Start Depth
STOP.ft        9110.5000                               : Stop Depth
STEP.ft        0.5000                                  : Step
NULL.          -999.2500                               : Null Value
COMP.          TEXACO PRODUCTION SERVICES LTD.         : Company
WELL.          14/20-1                                 : Well
FLD .          MORAY FIRTH                             : Field
LOC .          NORTH SEA                               : Location
LOC1.          -                                       : Location (UTM)
CTRY.          UK                                      : Country
PROV.          UKCS                                    : Province
UWI .          853                                     : UWI Number
API .          -                                       : API Number
SECT.          -                                       : Section
TOWN.          -                                       : Township
RNGE.          -                                       : Range
PDAT.          MSL                                     : Perm Datum
EPD .ft        0.0                                     : Elevation
LMF .          KB                                      : Log Measured From
DMF .          KB                                      : Drill Measured From
APD .ft        0.0                                     : Above Perm Datum
EKB .ft        86.0                                    : Elev-Kelly Bushing
EDF .          -                                       : Elev-Drill Floor
EGL .ft        -454.0                                  : Elev-Ground Level (Water Depth)
TDD .ft        9120.0                                  : Total Depth (Driller)
SRVC.          SCHLUMBERGER                            : Service Company
LATI.          58 20 14.1" N                           : Latitude
LONG.          00 05 34.7" W                           : Longitude
DATE.          JAN-FEB-1975                            : Logging Date
PROJ.          UKCS                                    : Project
SET .          COMP_WIRE                               : Set
~Curve Information Section
DEPTH.ft                                               : Depth Curve
CALD.in                                                : Caliper (from FDC/CNL/GR)
MCAL.in                                                : Micro Caliper (from MLL/ML)
DRHO.g/cc                                              : Delta Rho
DT.us/ft                                               : Delta-T
GR.gAPI                                                : Gamma Ray (from ISF/BHC/GR)
GRD.gAPI                                               : Gamma Ray (from FDC/CNL/GR)
ILD.Ohmm                                               : Deep Induction Standard Processed Resistivity
MINV.Ohmm                                              : Micro-Inverse Resistivity
MLL.Ohmm                                               : Mll Resistivity
MNOR.Ohmm                                              : Micro-Normal Resistivity
NPHI.LPU                                               : Neutron Porosity
RHOB.g/cc                                              : Bulk Density
SFL.Ohmm                                               : Spherically Focussed Log
SP.mV                                                  : Spontaneous Potential
~ASCII Log Data Section
# ...
 7395.0000         8.9871         8.6197         0.0251        85.6973       115.3114       147.7684         6.1068         0.8993         7.4266         2.5366        22.4068         2.4841         6.5211        74.0980     
 7395.5000         8.9695         8.5802         0.0351        85.1292       115.7802       151.2215         5.7295         0.7897         6.4781         2.7474        22.7450         2.4803         6.3084        74.1507     
 7396.0000         8.9110         8.5387         0.0290        85.7987       116.6066       152.2487         5.5365         0.6777         5.6288         2.1968        23.2659         2.4763         6.0923        73.9973     
 7396.5000         8.9277         8.5077         0.0148        86.1736       117.5355       149.8744         5.4945         0.7353         6.5561         1.6408        23.5809         2.4784         5.9675        73.8441     
 7397.0000         8.9488         8.5180         0.0220        86.2936       118.3730       151.2823         5.4936         0.7588         7.2882         1.8002        23.0860         2.5080         6.1096        73.9543     
 7397.5000         8.9731         8.5647         0.0026        85.6090       119.1541       153.5816         5.5861         0.6937         6.5706         1.7255        22.4648         2.4972         6.3949        75.0103     
 7398.0000         9.0061         8.6325         0.0013        84.5725       119.9365       153.2336         5.7367         0.7220         5.3503         1.6376        21.5501         2.5037         6.6830        76.0918     
 7398.5000         9.0315         8.6440         0.0087        83.5307       120.8015       152.4044         5.8857         0.7444         5.1634         2.2637        20.6273         2.5032         6.9328        77.0594     
 7399.0000         9.0611         8.6563         0.0114        82.9154       121.6876       154.6802         6.0409         0.7096         6.1096         2.2067        20.0507         2.4901         7.3649        77.3364     
 7399.5000         9.1142         8.6794        -0.0013        83.4757       122.7691       159.7556         6.2440         0.7558         6.3299         1.8695        20.5395         2.4685         7.7108        77.6135     
 7400.0000         9.1556         8.7228        -0.0013        84.8988       124.2804       158.6948         6.4523         0.8002         6.9576         2.5230        22.0297         2.4652         7.8712        77.8802     
 7400.5000         9.1970         8.7434         0.0066        86.1930       125.6854       162.7465         6.6674         0.8214         7.8968         2.8477        22.4729         2.4707         7.9992        78.2702     
 7401.0000         9.2385         8.7388         0.0146        87.1680       128.0077       166.4908         6.8446         0.8375         8.9862         2.9284        22.8355         2.4762         8.1307        78.7748     
 7401.5000         9.2530         8.7205         0.0244        87.9499       129.9222       168.2458         6.9389         0.8245         9.0607         2.9404        23.8435         2.4817         8.1815        79.2568     
 7402.0000         9.2640         8.7131         0.0331        88.4881       130.9216       171.5183         6.8506         0.8232         9.6785         2.8524        24.0946         2.4861         8.1441        79.6841     
 7402.5000         9.2750         8.7057         0.0181        88.7076       130.8103       171.7989         6.7633         0.8377        10.3896         2.6505        23.6422         2.4815         7.8663        79.8102     
 7403.0000         9.2858         8.7043         0.0095        88.0667       129.8885       168.9729         6.6836         0.8278        10.9811         2.3769        22.9723         2.4516         7.4379        79.4172     
 7403.5000         9.2964         8.7045         0.0330        87.1357       128.4908       167.4213         6.6038         0.8226        10.3957         2.0848        23.2655         2.4392         7.1449        78.4037     
 7404.0000         9.3069         8.6890         0.0863        87.0516       127.9716       167.3676         6.4721         0.7008         8.6712         1.6613        24.5693         2.4718         7.0166        77.7267     
 7404.5000         9.3173         8.6645         0.1083        87.2440       127.6060       164.8755         6.3290         0.5821         4.2701         1.2246        26.4852         2.5137         6.9864        77.5871     
 7405.0000         9.3224         8.6369         0.0722        87.1823       127.2410       162.2494         6.2084         0.7841         3.2602         1.6524        27.1103         2.4832         7.1327        77.5836     
 7405.5000         9.3257         8.6089        -0.0045        86.9650       126.8768       159.6204         6.1292         0.8216         7.8921         1.8786        26.2624         2.4166         7.0552        77.4715     
 7406.0000         9.3290         8.5729        -0.0016        86.9252       126.5292       158.9811         6.0559         0.8411         7.9005         1.8391        24.8586         2.4014         6.8977        77.3340     
 7406.5000         9.3323         8.5357         0.0111        87.5143       126.1815       163.0645         6.0058         0.7906         6.1666         1.6959        23.6142         2.4524         6.8974        77.1572     
 7407.0000         9.3356         8.5166         0.0295        88.2752       125.7906       163.3635         5.9556         0.7815         3.8428         1.6291        24.1704         2.4814         6.9380        76.9800     
 7407.5000         9.3388         8.5046         0.0441        86.7730       125.3848       165.5602         5.9055         0.7815         6.9159         1.7093        24.9359         2.4905         7.0143        76.7762     
 7408.0000         9.3417         8.4926         0.0123        85.6932       125.2809       171.4229         5.8331         0.8037         9.5987         1.7934        24.1865         2.4728         6.9655        76.5701     
 7408.5000         9.3445         8.4858         0.0104        84.8606       125.3935       180.0585         5.7582         0.8395         9.9140         1.8234        23.5920         2.4912         6.8325        76.3641     
 7409.0000         9.3473         8.4859         0.0190        84.9774       125.3923       181.1454         5.6839         0.8231         9.3607         1.8105        25.0543         2.4776         6.7232        76.2220     
 7409.5000         9.3501         8.4861         0.0178        86.3810       124.7496       177.7182         5.6099         0.8215         8.7023         1.7591        25.1193         2.4862         6.6470        76.1458     
 7410.0000         9.3530         8.4862         0.0029        87.2299       123.8623       173.9329         5.5360         0.8215         8.6090         1.7745        24.3841         2.4732         6.6467        76.1701     
 7410.5000         9.3558         8.4864         0.0052        87.7490       123.2047       171.1560         5.4502         0.8606         8.6688         1.8757        24.0264         2.4818         6.6641        76.3689     
 7411.0000         9.3501         8.4865         0.0177        87.9020       122.6830       169.8330         5.3635         0.8615         8.0047         1.8778        24.6531         2.4717         6.7050        76.7703     
 7411.5000         9.3438         8.4867         0.0278        88.2970       122.6589       166.5166         5.3030         0.7530         6.4537         1.5822        24.8911         2.4862         6.8140        78.2844     
 7412.0000         9.3374         8.4868         0.0192        88.4013       122.6119       164.4142         5.2575         0.7888         7.0205         1.5798        24.8366         2.5003         6.6770        76.5259     
 7412.5000         9.3239         8.4870        -0.0029        87.4090       122.4588       162.5609         5.2131         0.8815         5.6600         1.8397        23.8875         2.5108         6.3568        75.9010     
