~Version Information Section
VERS.          2.0                                     : CWLS LOG ASCII Standard
WRAP.          NO                                      : One line per depth step
CREA.          03/06/17                                : LAS Creation Date
~Well Information Section
STRT.ft        501.0000                                : Start Depth
STOP.ft        9110.5000                               : Stop Depth
STEP.ft        0.5000                                  : Step
NULL.          -999.2500                               : Null Value
COMP.          TEXACO PRODUCTION SERVICES LTD.         : Company
WELL.          14/20-1                                 : Well
FLD .          MORAY FIRTH                             : Field
LOC .          NORTH SEA                               : Location
LOC1.          -                                       : Location (UTM)
CTRY.          UK                                      : Country
PROV.          UKCS                                    : Province
UWI .          853                                     : UWI Number
API .          -                                       : API Number
SECT.          -                                       : Section
TOWN.          -                                       : Township
RNGE.          -                                       : Range
PDAT.          MSL                                     : Perm Datum
EPD .ft        0.0                                     : Elevation
LMF .          KB                                      : Log Measured From
DMF .          KB                                      : Drill Measured From
APD .ft        0.0                                     : Above Perm Datum
EKB .ft        86.0                                    : Elev-Kelly Bushing
EDF .          -                                       : Elev-Drill Floor
EGL .ft        -454.0                                  : Elev-Ground Level (Water Depth)
TDD .ft        9120.0                                  : Total Depth (Driller)
SRVC.          SCHLUMBERGER                            : Service Company
LATI.          58 20 14.1" N                           : Latitude
LONG.          00 05 34.7" W                           : Longitude
DATE.          JAN-FEB-1975                            : Logging Date
PROJ.          UKCS                                    : Project
SET .          COMP_WIRE                               : Set
~Curve Information Section
DEPTH.ft                                               : Depth Curve
CALD.in                                                : Caliper (from FDC/CNL/GR)
MCAL.in                                                : Micro Caliper (from MLL/ML)
DRHO.g/cc                                              : Delta Rho
DT.us/ft                                               : Delta-T
GR.gAPI                                                : Gamma Ray (from ISF/BHC/GR)
GRD.gAPI                                               : Gamma Ray (from FDC/CNL/GR)
ILD.Ohmm                                               : Deep Induction Standard Processed Resistivity
MINV.Ohmm                                              : Micro-Inverse Resistivity
MLL.Ohmm                                               : Mll Resistivity
MNOR.Ohmm                                              : Micro-Normal Resistivity
NPHI.LPU                                               : Neutron Porosity
RHOB.g/cc                                              : Bulk Density
SFL.Ohmm                                               : Spherically Focussed Log
SP.mV                                                  : Spontaneous Potential
~ASCII Log Data Section
# ...
 8817.0000         8.7800         8.5033        -0.0039        79.0040        82.7893       107.2199         7.3462         2.1725        10.7106         6.2794        29.1386         2.4844         8.6863        97.1288     
 8817.5000         8.7812         8.5296        -0.0139        79.2984        82.1815       100.7003         7.0464         2.0649        10.0797         6.0195        29.9898         2.4292         7.9144        96.8407     
 8818.0000         8.7867         8.5988        -0.0226        80.8047        81.5377        94.3235         6.7537         2.1872         9.8556         5.4412        32.0273         2.2720         7.2867        96.4539     
 8818.5000         8.7922         8.7168        -0.0162        86.3997        80.5349        89.8596         6.5461         1.0980         4.5500         3.7670        35.5524         2.1511         7.1876        95.9667     
 8819.0000         8.7977         8.8287         0.0065       101.3933        79.0314        88.5997         6.4034         0.2530         1.9553         0.8336        39.3560         2.0333         7.5242        95.5734     
 8819.5000         8.8107         8.8590         0.0213       113.3821        78.2174        90.7792         6.3321         0.2756         2.1062         0.7811        43.0103         1.7909         7.4786        95.1975     
 8820.0000         8.8293         8.8494         0.0327       118.0045        80.4313        96.3048         6.3452         0.4387         2.8464         0.9262        46.7116         1.7575         7.1191        94.9590     
 8820.5000         8.9052         8.8507         0.0246       119.6113        84.7600        99.1720         6.4012         0.2800         2.5514         0.7490        50.2484         1.8412         7.1467        94.9370     
 8821.0000         8.9973         8.7145        -0.0074       116.0750        88.0615       105.6468         6.5999         0.4610         2.2615         1.5223        51.0114         1.9664         7.2450        95.0545     
 8821.5000         8.9702         8.6004        -0.0149       104.3031        91.5047       114.4377         6.8047         0.6919         2.7398         2.3262        49.6960         2.1163         7.3452        94.9186     
 8822.0000         8.9379         8.6020         0.0015        98.4265        93.3974       125.0990         7.0194         0.8176         3.7097         2.5672        45.9560         2.2767         7.5434        94.6087     
 8822.5000         8.9247         8.6366         0.0193        91.1296        92.6121       124.9737         7.2820         0.8235         6.1428         3.0065        40.9219         2.3959         7.7986        94.2312     
 8823.0000         8.9352         8.6702         0.0216        87.3021        89.2460       120.3369         7.5422         1.0144         6.8337         3.5888        39.6217         2.4333         8.0237        93.6416     
 8823.5000         8.9457         8.6857         0.0162        86.5573        87.5054       114.0258         7.7723         0.9523        10.7719         4.0892        38.3828         2.4374         8.0723        93.7734     
 8824.0000         8.9562         8.6813        -0.0023        85.2516        85.6373       107.6524         7.9295         0.8673        10.0228         3.9033        36.6704         2.4411         8.0308        95.1196     
 8824.5000         8.9888         8.6769        -0.0124        82.7650        84.9426       105.4233         8.0408         0.8372         7.8249         3.4235        34.6584         2.4476         7.9231        96.0859     
 8825.0000         9.0343         8.6724        -0.0005        80.7715        85.0381       105.5990         8.0731         0.7179         6.6340         2.7063        32.6328         2.4808         7.7497        96.6194     
 8825.5000         9.0752         8.6788         0.0074        80.0741        85.7697       106.1274         7.9251         0.8801         9.3029         3.0135        31.2466         2.5138         7.6110        96.0785     
 8826.0000         9.0870         8.6966         0.0036        80.4526        86.5711       106.7219         7.7216         0.8147         7.9115         3.3148        30.1264         2.5143         7.5138        95.2673     
 8826.5000         9.0941         8.7143        -0.0004        81.2038        87.8343       108.5822         7.4846         0.9078         8.2291         3.3845        29.7814         2.4875         7.4185        94.3906     
 8827.0000         9.1012         8.7282        -0.0041        81.3414        89.8668       114.4780         7.2505         0.9320         8.3114         3.7319        29.4686         2.4763         7.3272        93.6161     
 8827.5000         9.1083         8.7158        -0.0062        79.9550        91.3227       121.0562         6.9493         0.7766         5.5587         3.5283        29.3657         2.4823         7.1332        93.0587     
 8828.0000         9.1154         8.6992        -0.0075        78.6742        91.9963       123.9456         6.7256         0.5898         3.0480         2.6283        29.8936         2.4479         6.8389        92.7138     
 8828.5000         9.1200         8.6599        -0.0075        78.0086        91.5422       121.5444         6.5909         0.4591         3.1221         1.8833        31.2503         2.3899         6.8143        92.4155     
 8829.0000         9.1144         8.6089        -0.0122        78.1144        86.6960       112.3209         6.5098         0.4315         2.6202         1.6211        32.9220         2.3031         6.9289        92.4123     
 8829.5000         9.0447         8.5750        -0.0183        84.1791        77.9127       100.3097         6.5073         0.4367         2.6102         1.4051        36.5138         2.1736         7.3481        92.4205     
 8830.0000         8.9580         8.7079        -0.0123        94.0712        67.3350        90.3779         6.5913         0.5820         3.7393         1.1854        41.4896         2.0608         8.5009        92.5179     
 8830.5000         8.9085         8.8987        -0.0027       106.6647        54.9592        80.7677         6.7689         0.3888         2.6405         1.0210        49.0054         1.8260         9.7840        92.6400     
 8831.0000         8.9474         8.9476         0.0060       114.3998        53.3005        82.1272         7.2028         0.2689         2.4799         0.9453        54.3785         1.7326        10.1680        92.9384     
 8831.5000         9.1029         8.9037         0.0086       119.4702        55.0000        87.8203         7.8022         0.2921         2.1955         0.9979        54.9416         1.8519         9.0553        93.2599     
 8832.0000         9.2074         8.8975         0.0040       117.9155        57.1502        89.6752         8.0572         0.3943         1.7517         1.0169        52.9153         1.9207         8.9945        94.2007     
 8832.5000         9.2374         8.9743        -0.0032       118.1992        57.2730        91.8423         8.0168         0.5275         1.4532         0.9331        50.5587         1.8724         9.7047        96.2376     
 8833.0000         9.2400         9.0555        -0.0052       119.7685        56.2296        94.3276         7.6823         0.4012         1.5145         0.8384        51.3934         1.7651        10.1109        96.2445     
 8833.5000         9.2400         9.1194        -0.0073       122.2426        54.6237        97.9330         7.3041         0.3168         2.0476         0.7421        53.6813         1.6568         9.4282        95.1775     
 8834.0000         9.4024         8.9862        -0.0179       125.4504        55.3863       101.1678         6.7732         0.2116         1.9860         0.6459        57.2701         1.5574         8.4741        95.0643     
 8834.5000         9.8891         8.7939        -0.0185       127.0197        59.3142       106.0510         6.1984         0.2238         2.0730         0.5980        60.7959         1.5158         7.2686        95.0986     
