~Version Information Section
VERS.          2.0                                     : CWLS LOG ASCII Standard
WRAP.          NO                                      : One line per depth step
CREA.          03/06/17                                : LAS Creation Date
~Well Information Section
STRT.ft        501.0000                                : Start Depth
STOP.ft        9110.5000                               : Stop Depth
STEP.ft        0.5000                                  : Step
NULL.          -999.2500                               : Null Value
COMP.          TEXACO PRODUCTION SERVICES LTD.         : Company
WELL.          14/20-1                                 : Well
FLD .          MORAY FIRTH                             : Field
LOC .          NORTH SEA                               : Location
LOC1.          -                                       : Location (UTM)
CTRY.          UK                                      : Country
PROV.          UKCS                                    : Province
UWI .          853                                     : UWI Number
API .          -                                       : API Number
SECT.          -                                       : Section
TOWN.          -                                       : Township
RNGE.          -                                       : Range
PDAT.          MSL                                     : Perm Datum
EPD .ft        0.0                                     : Elevation
LMF .          KB                                      : Log Measured From
DMF .          KB                                      : Drill Measured From
APD .ft        0.0                                     : Above Perm Datum
EKB .ft        86.0                                    : Elev-Kelly Bushing
EDF .          -                                       : Elev-Drill Floor
EGL .ft        -454.0                                  : Elev-Ground Level (Water Depth)
TDD .ft        9120.0                                  : Total Depth (Driller)
SRVC.          SCHLUMBERGER                            : Service Company
LATI.          58 20 14.1" N                           : Latitude
LONG.          00 05 34.7" W                           : Longitude
DATE.          JAN-FEB-1975                            : Logging Date
PROJ.          UKCS                                    : Project
SET .          COMP_WIRE                               : Set
~Curve Information Section
DEPTH.ft                                               : Depth Curve
CALD.in                                                : Caliper (from FDC/CNL/GR)
MCAL.in                                                : Micro Caliper (from MLL/ML)
DRHO.g/cc                                              : Delta Rho
DT.us/ft                                               : Delta-T
GR.gAPI                                                : Gamma Ray (from ISF/BHC/GR)
GRD.gAPI                                               : Gamma Ray (from FDC/CNL/GR)
ILD.Ohmm                                               : Deep Induction Standard Processed Resistivity
MINV.Ohmm                                              : Micro-Inverse Resistivity
MLL.Ohmm                                               : Mll Resistivity
MNOR.Ohmm                                              : Micro-Normal Resistivity
NPHI.LPU                                               : Neutron Porosity
RHOB.g/cc                                              : Bulk Density
SFL.Ohmm                                               : Spherically Focussed Log
SP.mV                                                  : Spontaneous Potential
~ASCII Log Data Section
# ...
 7917.0000         8.1604         7.7514         0.0200        86.8370        69.5150        77.7456         0.7186         0.6677         1.6272         1.0010        24.1595         2.3201         1.2369        65.8943     
 7917.5000         8.1591         7.7506         0.0223        86.5262        69.4590        77.5007         0.7252         0.6911         1.7905         1.0606        24.4512         2.3166         1.2264        65.9894     
 7918.0000         8.1589         7.7497         0.0245        86.3646        70.3222        78.5350         0.7442         0.7120         1.9283         1.0926        23.9079         2.3101         1.2151        65.9107     
 7918.5000         8.1587         7.7489         0.0288        86.3667        71.4396        80.1763         0.7641         0.7076         1.7544         1.0824        23.3236         2.3018         1.2181        65.8127     
 7919.0000         8.1585         7.7481         0.0094        86.6796        71.8447        82.4715         0.7960         0.6709         1.4873         1.0638        23.2273         2.2865         1.2558        66.0011     
 7919.5000         8.1583         7.7472         0.0060        87.0848        72.2160        85.0145         0.8352         0.6344         1.4683         1.0471        23.7396         2.2708         1.3038        66.1892     
 7920.0000         8.1649         7.7464         0.0133        87.3737        72.6702        87.7498         0.8966         0.6396         1.5286         1.0323        24.0701         2.2840         1.3785        66.7457     
 7920.5000         8.1722         7.7455         0.0214        87.3758        73.5270        90.2010         0.9580         0.6819         1.5359         1.0304        24.0826         2.3072         1.5037        67.6185     
 7921.0000         8.1776         7.7447         0.0230        87.3779        74.7360        90.7104         1.0206         0.6695         1.6006         1.0300        24.2599         2.3204         1.6816        68.5032     
 7921.5000         8.1776         7.7438         0.0223        87.3800        76.7334        91.0606         1.0845         0.6691         1.6221         1.0296        23.7630         2.3359         1.8392        69.1449     
 7922.0000         8.1774         7.7430         0.0171        87.0651        78.9049        91.5690         1.1259         0.6693         1.6751         1.0430        22.7660         2.3289         1.9831        69.4170     
 7922.5000         8.1909         7.7421         0.0059        86.2289        80.4324        91.0073         1.1639         0.6865         1.7800         1.0681        21.9414         2.3408         2.0916        69.2676     
 7923.0000         8.2363         7.7428         0.0002        85.1795        80.5902        90.2422         1.1523         0.7129         2.1099         1.1038        21.1752         2.3631         2.1148        69.2313     
 7923.5000         8.2794         7.7453         0.0004        83.8434        78.6332        88.4807         1.1073         0.7211         2.5043         1.1417        20.7110         2.3562         2.0129        69.2333     
 7924.0000         8.3193         7.7477         0.0063        82.4472        76.2572        84.0951         1.0652         0.7070         2.9456         1.1803        20.4622         2.3703         1.8141        69.2353     
 7924.5000         8.3299         7.7502         0.0165        81.2110        72.9500        80.6908         1.0110         0.7066         3.3020         1.2323        19.7111         2.3681         1.6488        68.9539     
 7925.0000         8.2832         7.7526         0.0246        81.1857        70.7550        78.6368         0.9438         0.7062         3.4370         1.2886        19.6017         2.3903         1.4897        68.1240     
 7925.5000         8.2365         7.7550         0.0139        82.2841        68.9541        77.1677         0.8928         0.7326         4.0639         1.3235        20.5962         2.3598         1.3445        67.0897     
 7926.0000         8.2060         7.7575         0.0165        83.6144        67.6401        76.4720         0.8445         0.7527         3.2860         1.2644        21.6070         2.3247         1.2975        66.2373     
 7926.5000         8.1956         7.7599         0.0204        84.7828        67.1849        76.7071         0.8006         0.6858         1.8910         1.1429        22.2950         2.3033         1.2895        66.2393     
 7927.0000         8.1954         7.7624         0.0130        85.4519        66.8846        76.1187         0.7732         0.6492         1.7345         1.0684        22.6871         2.2873         1.2738        66.2413     
 7927.5000         8.1952         7.7648         0.0080        85.5884        66.5838        73.4480         0.7569         0.6459         1.7045         1.0503        22.8926         2.2762         1.2513        66.2433     
 7928.0000         8.1950         7.7672         0.0048        85.6076        66.2311        72.7562         0.7429         0.6652         1.7306         1.0724        23.0527         2.2797         1.2410        66.2453     
 7928.5000         8.1948         7.7672         0.0116        85.6098        65.7876        72.4611         0.7305         0.6865         1.7777         1.0990        23.0804         2.2826         1.2431        66.2473     
 7929.0000         8.1946         7.7663         0.0229        85.5602        65.7823        72.7587         0.7212         0.6991         1.7673         1.1245        22.8454         2.3004         1.2585        66.2493     
 7929.5000         8.1944         7.7655         0.0255        85.4284        65.9293        73.1314         0.7142         0.6793         1.6887         1.1369        22.4939         2.3151         1.2639        66.2513     
 7930.0000         8.1942         7.7647         0.0248        85.1220        66.0396        73.8077         0.7166         0.6629         1.7356         1.1130        22.0248         2.3115         1.2360        66.2533     
 7930.5000         8.1940         7.7639         0.0194        84.8188        65.8687        72.4276         0.7191         0.6816         1.8627         1.1318        21.7100         2.3100         1.2053        66.3847     
 7931.0000         8.1938         7.7631         0.0107        84.8210        65.3754        70.4587         0.7252         0.6799         1.9601         1.1692        22.0769         2.2970         1.1775        67.1103     
 7931.5000         8.1936         7.7623         0.0066        85.1373        64.7656        68.5782         0.7345         0.6608         1.8009         1.1315        22.4989         2.2906         1.1739        68.8228     
 7932.0000         8.1915         7.7615         0.0069        85.4851        63.9935        67.8260         0.7438         0.6620         1.6024         1.0960        22.8882         2.2846         1.1739        68.1554     
 7932.5000         8.1832         7.7606         0.0184        85.7229        63.6523        69.0456         0.7531         0.6837         1.5783         1.0803        22.9616         2.3007         1.1841        66.8276     
 7933.0000         8.1750         7.7598         0.0291        85.8860        63.7143        70.6397         0.7604         0.6944         1.5537         1.0739        22.6944         2.3206         1.2136        66.2756     
 7933.5000         8.1701         7.7590         0.0313        86.0313        64.0010        72.2421         0.7674         0.6884         1.4791         1.0565        22.9451         2.3132         1.2669        66.1142     
 7934.0000         8.1665         7.7582         0.0442        86.0335        64.3764        74.4892         0.7745         0.6787         1.4929         1.0435        23.3736         2.3320         1.3231        66.2374     
 7934.5000         8.1628         7.7574         0.0484        85.7325        64.8315        76.1350         0.7782         0.6810         1.6132         1.0653        22.8906         2.3557         1.3231        66.5953     
