~Version Information Section
VERS.          2.0                                     : CWLS LOG ASCII Standard
WRAP.          NO                                      : One line per depth step
CREA.          03/06/17                                : LAS Creation Date
~Well Information Section
STRT.ft        501.0000                                : Start Depth
STOP.ft        9110.5000                               : Stop Depth
STEP.ft        0.5000                                  : Step
NULL.          -999.2500                               : Null Value
COMP.          TEXACO PRODUCTION SERVICES LTD.         : Company
WELL.          14/20-1                                 : Well
FLD .          MORAY FIRTH                             : Field
LOC .          NORTH SEA                               : Location
LOC1.          -                                       : Location (UTM)
CTRY.          UK                                      : Country
PROV.          UKCS                                    : Province
UWI .          853                                     : UWI Number
API .          -                                       : API Number
SECT.          -                                       : Section
TOWN.          -                                       : Township
RNGE.          -                                       : Range
PDAT.          MSL                                     : Perm Datum
EPD .ft        0.0                                     : Elevation
LMF .          KB                                      : Log Measured From
DMF .          KB                                      : Drill Measured From
APD .ft        0.0                                     : Above Perm Datum
EKB .ft        86.0                                    : Elev-Kelly Bushing
EDF .          -                                       : Elev-Drill Floor
EGL .ft        -454.0                                  : Elev-Ground Level (Water Depth)
TDD .ft        9120.0                                  : Total Depth (Driller)
SRVC.          SCHLUMBERGER                            : Service Company
LATI.          58 20 14.1" N                           : Latitude
LONG.          00 05 34.7" W                           : Longitude
DATE.          JAN-FEB-1975                            : Logging Date
PROJ.          UKCS                                    : Project
SET .          COMP_WIRE                               : Set
~Curve Information Section
DEPTH.ft                                               : Depth Curve
CALD.in                                                : Caliper (from FDC/CNL/GR)
MCAL.in                                                : Micro Caliper (from MLL/ML)
DRHO.g/cc                                              : Delta Rho
DT.us/ft                                               : Delta-T
GR.gAPI                                                : Gamma Ray (from ISF/BHC/GR)
GRD.gAPI                                               : Gamma Ray (from FDC/CNL/GR)
ILD.Ohmm                                               : Deep Induction Standard Processed Resistivity
MINV.Ohmm                                              : Micro-Inverse Resistivity
MLL.Ohmm                                               : Mll Resistivity
MNOR.Ohmm                                              : Micro-Normal Resistivity
NPHI.LPU                                               : Neutron Porosity
RHOB.g/cc                                              : Bulk Density
SFL.Ohmm                                               : Spherically Focussed Log
SP.mV                                                  : Spontaneous Potential
~ASCII Log Data Section
# ...
 7647.0000         8.3576         7.7574        -0.0132        97.7066        63.0330        76.9320      1759.8723         0.6605        13.2540         1.6856        22.3640         2.0719       119.2500        62.4331     
 7647.5000         8.3577         7.7578        -0.0108        97.9037        63.5463        78.2945      1759.7104         0.6614        13.2600         1.6866        22.8594         2.0705       114.3809        63.0505     
 7648.0000         8.3579         7.7582        -0.0055        98.1141        64.8476        81.0198      1759.5491         0.6466        12.8406         1.6489        23.1903         2.0782       112.1599        64.0663     
 7648.5000         8.3580         7.7586        -0.0003        98.2066        65.7358        80.5923      1759.3877         0.6462        13.1824         1.6043        23.0299         2.0832       110.5938        64.5941     
 7649.0000         8.3548         7.7590         0.0050        98.2834        65.7238        77.5856      1714.1062         0.6258        13.0891         1.5921        22.8495         2.0921       107.8992        64.4720     
 7649.5000         8.3441         7.7594         0.0078        98.2834        65.1716        73.2430      1739.8535         0.6254        15.4667         1.6049        22.7606         2.0936       103.5754        64.1198     
 7650.0000         8.3385         7.7598         0.0068        98.2817        64.6449        70.4492      1786.5166         0.6250        14.5155         1.6141        22.6616         2.0931       101.1524        64.1176     
 7650.5000         8.3386         7.7602         0.0026        98.1623        64.8127        70.2081      1817.8276         0.6246        14.4390         1.6223        22.4622         2.0924       102.2725        64.1865     
 7651.0000         8.3388         7.7606        -0.0017        98.0430        64.9599        73.0843      1805.3591         0.6276        13.9989         1.6395        22.1277         2.0900       104.6664        64.3130     
 7651.5000         8.3389         7.7610        -0.0042        97.9236        64.4753        75.3921      1770.9568         0.6439        14.1837         1.6656        22.0956         2.0863       106.7412        64.3099     
 7652.0000         8.3391         7.7614         0.0052        97.8301        63.3140        75.4001      1758.0122         0.6435        13.4156         1.6800        22.2317         2.1021       107.6392        64.1938     
 7652.5000         8.3392         7.7617         0.0019        97.7480        62.1029        74.6489      1757.6899         0.6431        13.1156         1.6457        22.3654         2.0960       108.4256        63.7064     
 7653.0000         8.3394         7.7621        -0.0099        97.6986        60.8907        74.2969      1757.3665         0.6427        12.1987         1.6181        22.4094         2.0832       107.4132        62.8692     
 7653.5000         8.3395         7.7625        -0.0052        97.7026        59.9396        74.1645      1757.0435         0.6423        11.9788         1.6213        22.5583         2.0952       106.2354        62.2949     
 7654.0000         8.3411         7.7629         0.0008        97.7066        59.2982        73.8379      1756.7200         0.6419        20.1487         1.6614        22.8100         2.1094       102.7604        62.2932     
 7654.5000         8.3442         7.7633         0.0068        97.7106        59.2017        73.7471      1756.3979         0.6415        17.5180         1.7135        23.2088         2.1011        99.2171        62.4616     
 7655.0000         8.3473         7.7637         0.0113        97.7218        59.4327        74.1315      1761.8577         0.6411        15.3058         1.7229        23.0894         2.1073        95.5692        62.6299     
 7655.5000         8.3504         7.7641         0.0065        97.8223        59.9464        74.0963      1769.6797         0.6407        14.8755         1.6974        22.5590         2.1059        93.5936        62.9169     
 7656.0000         8.3536         7.7645        -0.0019        97.9227        60.2979        74.3016      1757.5889         0.6403        14.2885         1.6628        21.9732         2.0973        97.3018        63.0229     
 7656.5000         8.3567         7.7649        -0.0049        98.0233        60.6065        75.5910      1706.3843         0.6399        14.0732         1.6422        22.0438         2.0863       104.7157        62.9185     
 7657.0000         8.3598         7.7653        -0.0006        98.1237        60.6896        75.5111      1460.3132         0.6395        13.2892         1.6415        22.5876         2.0926       109.6115        62.7871     
 7657.5000         8.3629         7.7657         0.0052        98.1014        60.3629        75.2244      1649.8857         0.6391        13.4265         1.6556        22.6573         2.1017       110.4218        62.6006     
 7658.0000         8.3661         7.7661         0.0046        98.0710        59.8223        75.3410      1722.1853         0.6387        13.5554         1.6818        22.5039         2.0882       108.0931        62.2953     
 7658.5000         8.3692         7.7665        -0.0055        98.0405        60.2725        76.6944      1721.8682         0.6383        13.3536         1.6918        22.4571         2.0937       105.4227        62.0028     
 7659.0000         8.3723         7.7669        -0.0105        98.0101        61.3278        77.0896      1718.2158         0.6379        11.8482         1.7030        22.8226         2.0956        98.3327        61.7575     
 7659.5000         8.3754         7.7673        -0.0068        97.9796        62.1389        77.2324      1660.0369         0.6558        13.2131         1.7190        23.0608         2.0866        89.5197        61.5636     
 7660.0000         8.3786         7.7677        -0.0035        97.9440        62.7816        77.7653      1661.2241         0.6753        16.5044         1.7193        22.8127         2.0995        88.1898        61.4161     
 7660.5000         8.3800         7.7681        -0.0030        97.8770        62.8874        76.1743      1582.5977         0.6595        14.7234         1.7126        22.5746         2.1002        92.4414        61.2915     
 7661.0000         8.3800         7.7685        -0.0092        97.8102        62.4823        75.0509      1615.8469         0.6557        12.8046         1.6918        22.6555         2.0902        94.2575        61.3374     
 7661.5000         8.3800         7.7689        -0.0129        97.7822        61.7721        75.6214      1732.8889         0.6559        12.1650         1.6690        22.9979         2.0834        88.9611        61.7950     
 7662.0000         8.3800         7.7693        -0.0104        97.8344        61.7042        76.5327      1721.9387         0.6718        12.5804         1.6461        23.0808         2.0847        82.3495        62.9721     
 7662.5000         8.3800         7.7697        -0.0064        97.8866        62.2327        76.0027      1710.0303         0.6752        12.7076         1.6446        22.8836         2.0877        79.0732        64.7164     
 7663.0000         8.3800         7.7701        -0.0023        97.9389        62.6688        75.1074      1703.2939         0.6748        12.2717         1.6574        22.6913         2.0873        76.0100        65.1590     
 7663.5000         8.3800         7.7705         0.0001        97.9592        62.7327        74.7967      1687.0823         0.6866        12.1757         1.6942        22.6600         2.0864        71.5314        65.3878     
 7664.0000         8.3800         7.7709         0.0012        97.8428        62.7300        73.4844      1622.3933         0.7150        12.4672         1.7317        22.6489         2.0991        68.5925        65.2634     
 7664.5000         8.3800         7.7713         0.0030        97.6623        62.5981        74.6622      1276.8320         0.7191        13.0365         1.7252        22.6047         2.1068        66.3534        65.0024     
