~Version Information Section
VERS.          2.0                                     : CWLS LOG ASCII Standard
WRAP.          NO                                      : One line per depth step
CREA.          03/06/17                                : LAS Creation Date
~Well Information Section
STRT.ft        501.0000                                : Start Depth
STOP.ft        9110.5000                               : Stop Depth
STEP.ft        0.5000                                  : Step
NULL.          -999.2500                               : Null Value
COMP.          TEXACO PRODUCTION SERVICES LTD.         : Company
WELL.          14/20-1                                 : Well
FLD .          MORAY FIRTH                             : Field
LOC .          NORTH SEA                               : Location
LOC1.          -                                       : Location (UTM)
CTRY.          UK                                      : Country
PROV.          UKCS                                    : Province
UWI .          853                                     : UWI Number
API .          -                                       : API Number
SECT.          -                                       : Section
TOWN.          -                                       : Township
RNGE.          -                                       : Range
PDAT.          MSL                                     : Perm Datum
EPD .ft        0.0                                     : Elevation
LMF .          KB                                      : Log Measured From
DMF .          KB                                      : Drill Measured From
APD .ft        0.0                                     : Above Perm Datum
EKB .ft        86.0                                    : Elev-Kelly Bushing
EDF .          -                                       : Elev-Drill Floor
EGL .ft        -454.0                                  : Elev-Ground Level (Water Depth)
TDD .ft        9120.0                                  : Total Depth (Driller)
SRVC.          SCHLUMBERGER                            : Service Company
LATI.          58 20 14.1" N                           : Latitude
LONG.          00 05 34.7" W                           : Longitude
DATE.          JAN-FEB-1975                            : Logging Date
PROJ.          UKCS                                    : Project
SET .          COMP_WIRE                               : Set
~Curve Information Section
DEPTH.ft                                               : Depth Curve
CALD.in                                                : Caliper (from FDC/CNL/GR)
MCAL.in                                                : Micro Caliper (from MLL/ML)
DRHO.g/cc                                              : Delta Rho
DT.us/ft                                               : Delta-T
GR.gAPI                                                : Gamma Ray (from ISF/BHC/GR)
GRD.gAPI                                               : Gamma Ray (from FDC/CNL/GR)
ILD.Ohmm                                               : Deep Induction Standard Processed Resistivity
MINV.Ohmm                                              : Micro-Inverse Resistivity
MLL.Ohmm                                               : Mll Resistivity
MNOR.Ohmm                                              : Micro-Normal Resistivity
NPHI.LPU                                               : Neutron Porosity
RHOB.g/cc                                              : Bulk Density
SFL.Ohmm                                               : Spherically Focussed Log
SP.mV                                                  : Spontaneous Potential
~ASCII Log Data Section
# ...
 7251.0000         9.1172         8.7704        -0.0070        59.2238        14.8051         8.7655        17.2542         2.1973        14.2102         6.9039         3.7604         2.6331        22.4755        80.0904     
 7251.5000         9.1167         8.7700        -0.0020        58.7239        14.8863         9.2069        17.1912         2.7258        16.6446         6.1381         3.5041         2.6390        22.0099        80.7437     
 7252.0000         9.1161         8.7696         0.0115        58.5598        14.8854        10.0650        16.8284         3.5201        24.0715         6.9786         3.3707         2.6793        20.9480        81.8099     
 7252.5000         9.1150         8.7692         0.0178        58.4694        14.8828        10.0310        16.4573         3.9069        30.5872         8.9450         3.4485         2.6948        19.8254        82.6332     
 7253.0000         9.1075         8.7688         0.0190        58.3788        15.0038         9.7984        15.6623         3.3145        28.3709         8.0495         3.6192         2.7016        18.7574        82.5564     
 7253.5000         9.1000         8.7635         0.0195        58.3723        15.1880         9.5518        14.6180         3.5782        35.2526         8.3645         3.8147         2.7134        17.6588        81.7755     
 7254.0000         9.0925         8.7527         0.0167        58.3742        15.4828         9.6711        13.1353         4.1826        29.4562         9.2154         4.0116         2.7133        16.4217        80.6024     
 7254.5000         9.0850         8.7593         0.0033        58.3762        15.8846        10.0250        11.9013         4.0123        30.3368         9.7870         4.3010         2.6740        15.1057        80.1657     
 7255.0000         9.0775         8.7808        -0.0064        58.5219        16.2872        10.2447        10.6999         2.6580        23.2614         8.1239         4.5008         2.6507        13.7311        80.0159     
 7255.5000         9.0768         8.8016        -0.0030        59.0111        16.7007        10.2492         9.3287         2.6912        27.4832         7.6821         4.7625         2.6335        11.9622        79.7653     
 7256.0000         9.0908         8.8064         0.0092        59.9168        17.5069        10.9323         7.9466         2.2521        29.6896         6.9993         5.1372         2.6282         8.9170        79.3064     
 7256.5000         9.1048         8.8037         0.0190        63.0416        18.1579        12.3555         7.1357         2.5501        30.7355         9.4093         5.7554         2.6322         8.2169        79.2368     
 7257.0000         9.1181         8.7910         0.0286        70.3235        18.6760        13.3802         6.2843         2.3558        17.3979         7.0395         7.0258         2.6372         7.6868        79.2687     
 7257.5000         9.1306         8.7704         0.0299        65.7164        19.1460        13.9269         5.3543         3.0692        17.0819         6.1551         8.2326         2.6111         7.1395        80.3042     
 7258.0000         9.1431         8.7438         0.0030        68.3493        19.4466        14.0739         4.6326         1.8022         7.7852         3.8168         8.3593         2.5752         6.2135        82.2716     
 7258.5000         9.1571         8.7499        -0.0082        76.0245        20.0107        15.3025         4.2350         2.1060        13.6788         6.1255         8.4610         2.5568         5.2273        82.9294     
 7259.0000         9.1736         8.8064         0.0091        66.6487        21.2437        17.3769         4.0014         2.2421        20.9325         7.1488         9.2684         2.5461         4.5429        83.4920     
 7259.5000         9.1901         8.8617         0.0329        68.0603        22.1433        19.4418         3.9085         2.7340        10.7373         6.6800        10.9965         2.5165         4.1302        83.7100     
 7260.0000         9.2066         8.9351         0.0658        72.9782        22.9271        21.4962         3.9280         2.6164         7.5809         7.1321        13.0806         2.4418         3.9333        83.9202     
 7260.5000         9.2230         9.0094         0.0545        77.7115        23.4440        22.8092         4.0077         1.6843         3.0433         2.4703        15.5464         2.3644         3.8270        83.6465     
 7261.0000         9.2415         9.0741         0.0674        83.0338        23.7311        22.1340         4.1479         0.6135         1.0290         0.8616        18.2526         2.2980         4.1979        82.6179     
 7261.5000         9.2552         9.1654         0.0922        83.6673        23.4928        20.8421         4.3708         1.5408         1.0633         1.2501        20.2427         2.2576         5.4165        81.6823     
 7262.0000         9.3363         9.3307         0.0684        81.0290        21.9561        19.4735         4.7079         1.6646         0.7217         1.2949        22.7010         2.2260         6.2566        81.1396     
 7262.5000         9.4166         9.1526        -0.0046        76.5022        20.8718        18.2618         5.0989         1.5041         1.3388         1.4950        22.4770         2.2644         5.9587        80.7306     
 7263.0000         9.2018         8.9028        -0.0089        67.9400        20.1747        18.0726         5.5724         4.9768        16.6105         5.6397        18.3232         2.4490         5.7774        80.3696     
 7263.5000         9.1111         8.8056         0.0195        68.4043        19.9854        18.8734         5.9590         3.2386        12.1640         7.4602        12.1517         2.5761         6.0717        80.0625     
 7264.0000         9.1184         8.8080         0.0202        70.3253        20.4370        18.4691         6.0866         1.2054         4.8118         3.0711        13.1185         2.5595         6.3818        79.7761     
 7264.5000         9.1256         8.8161         0.0045        71.2103        20.5951        17.2877         6.0191         1.9075         3.6944         2.6997        12.8796         2.5342         6.5205        79.6302     
 7265.0000         9.1314         8.8241        -0.0032        71.6414        20.4227        16.8386         5.7235         1.6292         4.8739         2.5126        12.4534         2.5311         6.3414        79.4844     
 7265.5000         9.1369         8.8302        -0.0006        71.6414        20.4937        17.0736         5.3133         1.5789         7.6550         2.3647        12.2358         2.5534         5.9521        79.4269     
 7266.0000         9.1424         8.8357         0.0033        69.5742        21.0279        17.7085         4.8820         1.5795         8.0570         3.3853        12.3677         2.5542         5.5110        79.5668     
 7266.5000         9.1467         8.8412         0.0100        69.5742        21.5953        18.0130         4.5606         2.1715         8.6361         4.4671        12.7680         2.5521         5.0213        79.7064     
 7267.0000         9.1496         8.8442         0.0174        69.5742        22.1628        19.7197         4.2557         2.4524         7.9405         4.7608        13.0247         2.5608         4.5677        79.8300     
 7267.5000         9.1525         8.8361         0.0135        70.6554        22.7044        22.4979         3.9888         3.1766         8.2631         5.1486        13.3356         2.5457         4.2241        79.9372     
 7268.0000         9.1554         8.8281         0.0224        72.3305        23.2219        24.4087         3.7698         2.9606         6.1093         4.3517        13.9838         2.5400         3.9263        80.1190     
 7268.5000         9.1582         8.8257         0.0389        74.4762        23.6657        25.7489         3.5705         3.9328         8.3572         6.5296        15.1508         2.5580         3.8301        80.3364     
