~Version Information Section
VERS.          2.0                                     : CWLS LOG ASCII Standard
WRAP.          NO                                      : One line per depth step
CREA.          03/06/17                                : LAS Creation Date
~Well Information Section
STRT.ft        501.0000                                : Start Depth
STOP.ft        9110.5000                               : Stop Depth
STEP.ft        0.5000                                  : Step
NULL.          -999.2500                               : Null Value
COMP.          TEXACO PRODUCTION SERVICES LTD.         : Company
WELL.          14/20-1                                 : Well
FLD .          MORAY FIRTH                             : Field
LOC .          NORTH SEA                               : Location
LOC1.          -                                       : Location (UTM)
CTRY.          UK                                      : Country
PROV.          UKCS                                    : Province
UWI .          853                                     : UWI Number
API .          -                                       : API Number
SECT.          -                                       : Section
TOWN.          -                                       : Township
RNGE.          -                                       : Range
PDAT.          MSL                                     : Perm Datum
EPD .ft        0.0                                     : Elevation
LMF .          KB                                      : Log Measured From
DMF .          KB                                      : Drill Measured From
APD .ft        0.0                                     : Above Perm Datum
EKB .ft        86.0                                    : Elev-Kelly Bushing
EDF .          -                                       : Elev-Drill Floor
EGL .ft        -454.0                                  : Elev-Ground Level (Water Depth)
TDD .ft        9120.0                                  : Total Depth (Driller)
SRVC.          SCHLUMBERGER                            : Service Company
LATI.          58 20 14.1" N                           : Latitude
LONG.          00 05 34.7" W                           : Longitude
DATE.          JAN-FEB-1975                            : Logging Date
PROJ.          UKCS                                    : Project
SET .          COMP_WIRE                               : Set
~Curve Information Section
DEPTH.ft                                               : Depth Curve
CALD.in                                                : Caliper (from FDC/CNL/GR)
MCAL.in                                                : Micro Caliper (from MLL/ML)
DRHO.g/cc                                              : Delta Rho
DT.us/ft                                               : Delta-T
GR.gAPI                                                : Gamma Ray (from ISF/BHC/GR)
GRD.gAPI                                               : Gamma Ray (from FDC/CNL/GR)
ILD.Ohmm                                               : Deep Induction Standard Processed Resistivity
MINV.Ohmm                                              : Micro-Inverse Resistivity
MLL.Ohmm                                               : Mll Resistivity
MNOR.Ohmm                                              : Micro-Normal Resistivity
NPHI.LPU                                               : Neutron Porosity
RHOB.g/cc                                              : Bulk Density
SFL.Ohmm                                               : Spherically Focussed Log
SP.mV                                                  : Spontaneous Potential
~ASCII Log Data Section
# ...
 7521.0000         8.4039         7.7677         0.0092        95.5173        54.9693        67.1344      1820.5361         0.6084        10.4176         1.4459        21.6603         2.1220       105.9621        64.6839     
 7521.5000         8.4067         7.7640         0.0045        95.6173        55.6595        66.9451      1889.3806         0.6080        11.6245         1.4297        21.7012         2.1199       108.1743        64.5870     
 7522.0000         8.4096         7.7603        -0.0032        95.7835        55.9459        68.8435      1873.2178         0.6076        12.2194         1.4386        22.3936         2.1095       109.6512        64.5527     
 7522.5000         8.4103         7.7572        -0.0020        95.9493        55.9419        70.0043      1842.7673         0.6072        12.5295         1.4625        22.7533         2.0992       111.1510        63.8230     
 7523.0000         8.4063         7.7562         0.0028        96.1485        56.0434        68.4405      1844.6653         0.6068        12.2815         1.4685        22.2247         2.1044       111.6874        63.2850     
 7523.5000         8.4023         7.7552         0.0054        96.3664        56.1343        67.8256      1789.4543         0.6064        10.8042         1.4642        22.0060         2.1001       108.7681        63.0796     
 7524.0000         8.3984         7.7542        -0.0021        96.5846        56.1761        67.6274      1798.3533         0.6060         9.1761         1.4544        22.1855         2.0839       104.2063        62.8587     
 7524.5000         8.3944         7.7531        -0.0050        96.6263        56.5171        68.5294      1862.3232         0.6056         8.1254         1.4473        22.5149         2.0977        99.7279        62.6131     
 7525.0000         8.3904         7.7521        -0.0062        96.6312        57.2604        69.0748      1855.3882         0.6052         7.7786         1.4468        22.7422         2.0811        94.4728        62.6276     
 7525.5000         8.3864         7.7511         0.0078        96.6361        58.1466        68.1905      1820.4294         0.6048         7.5647         1.4333        22.6069         2.0896        89.3049        62.7641     
 7526.0000         8.3824         7.7501         0.0006        96.6150        58.5190        67.9959      1755.5278         0.6044         7.6582         1.4058        22.3973         2.0959        85.5344        63.2134     
 7526.5000         8.3784         7.7491        -0.0039        96.5696        57.8573        68.1282      1811.2405         0.6040         8.3125         1.3998        22.3880         2.0922        83.7447        64.2145     
 7527.0000         8.3744         7.7481         0.0018        96.5242        57.0311        69.8639      1812.9009         0.6052         8.8339         1.4386        22.5428         2.1017        84.7421        65.4148     
 7527.5000         8.3706         7.7470        -0.0080        96.4788        57.3544        70.1581      1797.7053         0.6232         9.1474         1.4748        22.4136         2.0921        87.8890        66.6651     
 7528.0000         8.3737         7.7460        -0.0018        96.3675        58.1017        68.3347      1796.1270         0.6429        10.5332         1.5166        22.1329         2.0959        92.8817        66.3925     
 7528.5000         8.3769         7.7450         0.0093        96.1999        57.9464        68.0033      1813.8638         0.6425        13.2176         1.5587        21.9174         2.1077        98.8696        65.6164     
 7529.0000         8.3801         7.7440         0.0102        96.0325        57.9847        68.7281      1860.2568         0.6421        15.2665         1.5639        21.5790         2.1126       104.6164        64.4016     
 7529.5000         8.3833         7.7431         0.0051        95.8759        58.2014        68.1311      1835.2122         0.6417        12.9661         1.5493        21.4671         2.1052       100.0154        64.1425     
 7530.0000         8.3865         7.7435        -0.0014        95.8807        58.8008        69.1898      1809.0298         0.6412         9.8219         1.4956        21.8502         2.0975        93.7601        64.6875     
 7530.5000         8.3896         7.7439         0.0075        95.8856        59.8031        69.9265      1859.0186         0.6408         7.5517         1.4419        22.2336         2.0944        89.3230        65.0343     
 7531.0000         8.3928         7.7443         0.0102        95.8905        61.0286        69.2146      1800.9609         0.6404         7.2722         1.4486        22.9328         2.1020        91.8722        65.2498     
 7531.5000         8.3960         7.7447        -0.0006        96.2157        61.6211        72.4639      1823.9026         0.6400         8.7491         1.4712        22.8062         2.0867        99.2656        65.4653     
 7532.0000         8.3992         7.7451        -0.0038        96.6467        62.1845        72.1161      1845.1348         0.6396        10.0184         1.4989        22.6863         2.0850       106.0229        65.6806     
 7532.5000         8.4024         7.7455         0.0073        97.0784        62.6753        73.2319      1873.8457         0.6392        10.8910         1.5210        22.6330         2.0873       110.5349        66.2632     
 7533.0000         8.4056         7.7459         0.0030        97.5217        62.4884        75.8874      1903.0093         0.6388        11.5341         1.5206        22.5797         2.0775       114.8233        66.7818     
 7533.5000         8.4088         7.7463        -0.0080        97.9543        62.1336        77.4980      1854.2932         0.6384        11.3007         1.5233        22.5262         2.0685       119.4268        67.1071     
 7534.0000         8.4091         7.7467        -0.0058        98.3042        62.4348        76.9167      1807.3982         0.6461        11.8817         1.5369        22.3972         2.0753       124.3379        67.2784     
 7534.5000         8.4090         7.7472         0.0013        98.6540        63.1403        77.5205      1816.9341         0.6645        12.8130         1.5599        22.3653         2.0846       129.3308        67.0457     
 7535.0000         8.4089         7.7476         0.0086        99.2138        63.9311        76.5420      1817.8530         0.6845        12.9467         1.5993        22.5970         2.0864       132.7769        66.2447     
 7535.5000         8.4088         7.7480         0.0108        99.4709        64.6431        75.8189      1798.4185         0.6903        12.5682         1.6388        22.6048         2.0848       136.1393        65.2732     
 7536.0000         8.4087         7.7484         0.0082        99.3552        65.3480        75.6229      1801.8274         0.6830        11.3998         1.6384        22.3635         2.0775       138.3119        64.8575     
 7536.5000         8.4086         7.7488         0.0026        98.6753        65.5909        75.6093      1845.8525         0.6961        11.0658         1.6510        22.3018         2.0770       139.9455        65.3332     
 7537.0000         8.4085         7.7492        -0.0025        97.1168        65.3616        75.2188      1864.2290         0.6957        19.9316         1.6777        22.5287         2.0893       141.3176        66.1877     
 7537.5000         8.4084         7.7496        -0.0075        95.0873        65.3848        77.7038      1872.5999         0.6953        17.4083         1.6773        22.8801         2.0898       141.7635        67.9265     
 7538.0000         8.4083         7.7500        -0.0105        93.3078        65.6373        78.0832      1880.4238         0.6949        16.7869         1.6773        22.8440         2.0781       141.7133        69.4243     
 7538.5000         8.4082         7.7504        -0.0102        92.9842        65.6333        76.3960      1879.9949         0.6945        19.2145         1.7206        22.7392         2.0671       142.1570        70.3546     
