~Version Information Section
VERS.          2.0                                     : CWLS LOG ASCII Standard
WRAP.          NO                                      : One line per depth step
CREA.          03/08/17                                : LAS Creation Date
~Well Information Section
STRT.ft        542.0000                                : Start Depth
STOP.ft        10486.0000                              : Stop Depth
STEP.ft        0.5000                                  : Step
NULL.          -999.2500                               : Null Value
COMP.          TEXACO PRODUCTION SERVICES LTD          : Company
WELL.          14/20-10                                : Well
FLD .          MORAY FIRTH                             : Field
LOC .          NORTH SEA                               : Location
LOC1.          -                                       : Location (UTM)
CTRY.          UK                                      : Country
PROV.          UKCS                                    : Province
UWI .          854                                     : UWI Number
API .          -                                       : API Number
SECT.          -                                       : Section
TOWN.          -                                       : Township
RNGE.          -                                       : Range
PDAT.          MSL                                     : Perm Datum
EPD .ft        0.0                                     : Elevation
LMF .          KB                                      : Log Measured From
DMF .          RT                                      : Drill Measured From
APD .ft        86.0                                    : Above Perm Datum
EKB .ft        86.0                                    : Elev-Kelly Bushing
EDF .ft        84.0                                    : Elev-Drill Floor
EGL .ft        -437.0                                  : Elev-Ground Level (Water Depth)
TDD .ft        10500.0                                 : Total Depth (Driller)
SRVC.          SCHLUMBERGER                            : Service Company
LATI.          58 21 15.10" N                          : Latitude
LONG.          00 07 19.40" W                          : Longitude
DATE.          FEB-MAR-1979                            : Logging Date
PROJ.          UKCS                                    : Project
SET .          COMP_WIRE                               : Set
~Curve Information Section
DEPTH.ft                                               : Depth Curve
CALI.in                                                : Caliper (FDC/CNL/GR)
DRHO.g/cc                                              : Delta Rho
DT.us/ft                                               : Delta-T
GR.gAPI                                                : Gamma Ray (ISF/BHC/GR)
GRD.gAPI                                               : Gamma Ray (FDC/CNL/GR)
ILD.Ohmm                                               : Deep Induction Standard Processed Resistivity
NPHI.LPU                                               : Neutron Porosity
RHOB.g/cc                                              : Bulk Density
SFL.Ohmm                                               : Spherically Focussed Log
SP.mV                                                  : Spontaneous Potential
~ASCII Log Data Section
# ...
10195.0000        10.4928         0.1789        81.9858       118.9279       120.6677         2.8163        23.7390         2.4000         2.9395        84.1473     
10195.5000        10.1419         0.1415        82.0153       118.9693       115.5476         2.8560        23.1813         2.4296         2.9855        84.3305     
10196.0000         9.4194         0.1498        82.6134       114.8033       111.3154         2.8930        23.1379         2.4780         3.0776        84.2799     
10196.5000         9.4837         0.1794        82.5890       110.6275       112.1990         2.9342        23.4187         2.5365         3.2195        84.1116     
10197.0000         9.3249         0.1711        80.6540       108.5726       110.1812         2.9805        23.7960         2.5704         3.3697        83.9183     
10197.5000         9.4765         0.1634        78.7034       109.0160       111.4936         3.0228        24.0390         2.5451         3.4145        83.7417     
10198.0000         9.5587         0.2052        78.0782       109.2699       110.6983         3.0557        24.1722         2.5574         3.3573        83.6861     
10198.5000         9.6611         0.2402        78.3737       107.4249       109.2680         3.0992        23.7975         2.5824         3.2978        83.6525     
10199.0000         9.7163         0.2270        79.0424       104.0883       109.7223         3.1305        22.9429         2.5691         3.2354        83.5639     
10199.5000         9.5603         0.2020        80.0149       100.8859       108.3717         3.1277        23.2056         2.5377         3.1682        83.5046     
10200.0000         9.5390         0.2089        81.1327       100.6882       108.9047         3.1182        22.8870         2.5338         3.0737        83.5000     
10200.5000         9.8681         0.2021        81.8517       102.8664       111.7724         3.0801        22.8659         2.5412         2.9370        83.5031     
10201.0000        10.3530         0.1811        82.5870       104.8636       113.2181         2.9939        24.2541         2.5126         2.7782        83.5057     
10201.5000        10.8480         0.1725        83.3619       104.9323       113.6068         2.8623        25.9733         2.5018         2.6167        83.4860     
10202.0000        10.2596         0.1920        84.1830       104.7140       113.9526         2.7165        26.4739         2.5252         2.4936        83.3586     
10202.5000        10.0226         0.1949        84.7365       106.6250       115.8321         2.6196        25.9699         2.5263         2.4695        83.1230     
10203.0000        10.2983         0.1926        84.8411       108.1468       116.6384         2.5900        25.7324         2.5198         2.5339        82.8651     
10203.5000        10.2933         0.1802        84.5109       109.3120       110.8175         2.5931        24.6258         2.4849         2.6129        82.8629     
10204.0000        10.0324         0.1889        83.0960       110.4596       112.9351         2.6083        22.9817         2.4792         2.6869        83.1428     
10204.5000         9.6363         0.1487        81.5987       109.0900       109.6757         2.6401        21.4952         2.4636         2.7914        83.5205     
10205.0000         9.8232         0.1886        81.5703       105.7307       103.6632         2.7011        21.2573         2.4875         2.9464        83.9418     
10205.5000        10.0478         0.2316        81.7902       102.2024       100.7045         2.7804        21.6060         2.5279         3.1386        84.1860     
10206.0000        10.1095         0.2321        80.3441        99.2778       102.6782         2.8516        22.2303         2.5448         3.2936        84.1245     
10206.5000         9.9520         0.1929        79.5832        98.6583       105.0948         2.9167        23.3556         2.5393         3.3226        83.7593     
10207.0000         9.7740         0.1617        80.5531        99.8731       107.5977         2.9785        24.5673         2.5007         3.1990        83.0398     
10207.5000        10.1135         0.2024        80.9097       101.4202       109.0516         3.0363        25.7484         2.5450         3.0352        81.9065     
10208.0000        10.4993         0.1718        81.1511       103.6342       110.8357         3.0786        26.7896         2.5146         2.9352        81.0505     
10208.5000        10.1735         0.1943        82.0892       106.5190       112.6508         3.1034        26.5009         2.5090         2.8936        81.2826     
10209.0000        10.1743         0.2362        82.9335       109.5986       113.1327         3.0995        26.6199         2.5473         2.9288        82.1481     
10209.5000        10.3172         0.2502        83.2959       111.2821       111.3918         3.0674        27.7025         2.5901         2.9574        82.9724     
10210.0000        10.3293         0.2180        82.6829       110.1910       110.1129         3.0119        28.1116         2.5631         2.9173        83.6475     
10210.5000        10.4480         0.1787        82.0158       107.8828       107.6625         2.9372        27.5431         2.5169         2.8531        83.8281     
10211.0000        11.0984         0.1395        81.6410       107.9174       107.4324         2.8641        26.4912         2.4861         2.7732        83.4773     
10211.5000        10.8816         0.1724        80.8262       110.0796       110.3390         2.7899        26.9651         2.4944         2.7028        82.8691     
10212.0000        10.6626         0.2320        80.9432       111.4436       113.1723         2.7115        28.3980         2.5162         2.6550        82.3423     
10212.5000        10.6312         0.2732        82.6839       111.2604       113.7065         2.6376        29.1968         2.5361         2.6241        82.2250     
10213.0000        10.2575         0.2611        84.8398       110.0340       114.2053         2.5826        29.2308         2.5340         2.6056        82.3214     
10213.5000        10.3009         0.2269        85.4666       108.5559       115.0471         2.5503        28.8699         2.5083         2.6124        82.4537     
10214.0000        10.2922         0.1914        83.8897       107.2421       112.9830         2.5330        27.5607         2.4754         2.6493        82.4449     
10214.5000        10.3650         0.1491        81.6599       106.3132       111.0294         2.5334        26.0157         2.4524         2.6962        82.2220     
10215.0000        10.5411         0.1504        80.5905       105.9561       110.8803         2.5485        25.2478         2.4596         2.7441        81.8912     
10215.5000        10.7702         0.1837        81.3268       105.5864       109.9470         2.5663        24.6979         2.4504         2.7900        81.5239     
10216.0000        10.7054         0.2127        82.1930       104.8496       107.6893         2.5983        24.6596         2.4459         2.8356        81.2030     
10216.5000         9.9413         0.2481        81.7578       104.5869       104.9692         2.6436        25.1039         2.4579         2.8797        80.9259     
10217.0000         9.9025         0.2773        81.7337       105.2000       104.2000         2.6999        24.7559         2.5156         2.9228        80.7771     
10217.5000        10.1482         0.2710        82.5967       106.4738       106.7765         2.7679        25.4495         2.4981         2.9669        80.9068     
10218.0000        10.1999         0.2476        82.3752       108.1509       110.3262         2.8313        25.7199         2.4663         3.0213        81.2400     
10218.5000        10.0690         0.2274        82.7669       109.9241       113.9160         2.8897        24.7852         2.4836         3.0772        81.6948     
10219.0000        10.0557         0.2406        83.5091       110.6105       114.9113         2.9492        24.7373         2.5081         3.1231        82.1638     
