~Version Information Section
VERS.          2.0                                     : CWLS LOG ASCII Standard
WRAP.          NO                                      : One line per depth step
CREA.          03/08/17                                : LAS Creation Date
~Well Information Section
STRT.ft        542.0000                                : Start Depth
STOP.ft        10486.0000                              : Stop Depth
STEP.ft        0.5000                                  : Step
NULL.          -999.2500                               : Null Value
COMP.          TEXACO PRODUCTION SERVICES LTD          : Company
WELL.          14/20-10                                : Well
FLD .          MORAY FIRTH                             : Field
LOC .          NORTH SEA                               : Location
LOC1.          -                                       : Location (UTM)
CTRY.          UK                                      : Country
PROV.          UKCS                                    : Province
UWI .          854                                     : UWI Number
API .          -                                       : API Number
SECT.          -                                       : Section
TOWN.          -                                       : Township
RNGE.          -                                       : Range
PDAT.          MSL                                     : Perm Datum
EPD .ft        0.0                                     : Elevation
LMF .          KB                                      : Log Measured From
DMF .          RT                                      : Drill Measured From
APD .ft        86.0                                    : Above Perm Datum
EKB .ft        86.0                                    : Elev-Kelly Bushing
EDF .ft        84.0                                    : Elev-Drill Floor
EGL .ft        -437.0                                  : Elev-Ground Level (Water Depth)
TDD .ft        10500.0                                 : Total Depth (Driller)
SRVC.          SCHLUMBERGER                            : Service Company
LATI.          58 21 15.10" N                          : Latitude
LONG.          00 07 19.40" W                          : Longitude
DATE.          FEB-MAR-1979                            : Logging Date
PROJ.          UKCS                                    : Project
SET .          COMP_WIRE                               : Set
~Curve Information Section
DEPTH.ft                                               : Depth Curve
CALI.in                                                : Caliper (FDC/CNL/GR)
DRHO.g/cc                                              : Delta Rho
DT.us/ft                                               : Delta-T
GR.gAPI                                                : Gamma Ray (ISF/BHC/GR)
GRD.gAPI                                               : Gamma Ray (FDC/CNL/GR)
ILD.Ohmm                                               : Deep Induction Standard Processed Resistivity
NPHI.LPU                                               : Neutron Porosity
RHOB.g/cc                                              : Bulk Density
SFL.Ohmm                                               : Spherically Focussed Log
SP.mV                                                  : Spontaneous Potential
~ASCII Log Data Section
# ...
 7843.0000         9.3575        -0.0007        77.3710        17.7400        16.5890         3.1680        17.4370         2.5338         3.4842        64.4982     
 7843.5000         9.3571        -0.0002        77.2734        17.8300        17.4778         3.2034        17.5570         2.5220         3.5564        64.2659     
 7844.0000         9.3492         0.0012        76.9359        17.2378        18.4815         3.2011        17.6418         2.5300         3.5196        63.7968     
 7844.5000         9.3413         0.0043        76.6015        16.7652        18.8370         3.1607        17.4599         2.5215         3.4992        63.5284     
 7845.0000         9.3444         0.0101        76.6596        17.0365        18.5457         3.0997        17.5885         2.5181         3.5769        64.0477     
 7845.5000         9.3548         0.0092        76.9676        17.5900        19.9740         3.0353        17.8954         2.5219         3.6472        65.1656     
 7846.0000         9.3625         0.0106        78.1522        17.8800        21.8428         2.9548        18.0584         2.5187         3.4493        66.1694     
 7846.5000         9.3688         0.0191        79.4040        18.3272        23.8291         2.8605        17.7755         2.5237         3.0848        66.5229     
 7847.0000         9.3751         0.0095        79.7337        19.3740        26.0365         2.7754        17.3245         2.5046         2.9182        66.2506     
 7847.5000         9.3761         0.0156        79.8443        20.1098        27.2838         2.7017        17.6776         2.5080         2.9873        66.3863     
 7848.0000         9.3670         0.0225        80.5540        20.5601        29.7110         2.6267        18.9632         2.5102         3.0474        66.7566     
 7848.5000         9.3597         0.0026        82.0432        21.9069        29.9684         2.5498        20.2488         2.5026         2.8938        66.3986     
 7849.0000         9.3599         0.0048        82.9441        23.3975        28.5012         2.4886        21.0217         2.5072         2.6550        65.3123     
 7849.5000         9.3617         0.0132        82.9689        23.8291        26.9208         2.4494        20.4252         2.5188         2.6067        64.4691     
 7850.0000         9.3690         0.0101        82.6324        23.1745        25.5859         2.4222        19.5186         2.5235         2.8117        64.9409     
 7850.5000         9.3764         0.0200        81.7370        21.5330        24.4585         2.4067        19.3518         2.5436         3.0602        65.7369     
 7851.0000         9.3705         0.0339        81.8876        20.4216        23.3996         2.4027        19.8933         2.5692         3.0068        66.0095     
 7851.5000         9.3464         0.0356        82.9498        20.8458        23.3270         2.4295        19.4711         2.5908         2.7236        66.2047     
 7852.0000         9.3255         0.0111        83.2611        21.0352        22.5679         2.4979        18.6796         2.5818         2.5332        66.3341     
 7852.5000         9.3055         0.0132        83.0267        20.3270        20.8060         2.5961        17.8894         2.5774         2.4979        66.3666     
 7853.0000         9.2964         0.0219        81.6265        19.5161        19.0460         2.6901        17.2719         2.5744         2.6146        66.3247     
 7853.5000         9.2903         0.0132        79.7294        18.4593        17.2832         2.7585        16.8899         2.5633         2.8112        66.1740     
 7854.0000         9.2841         0.0222        78.4504        17.5898        16.0584         2.8209        15.9103         2.5889         3.1016        65.8901     
 7854.5000         9.2821         0.0152        77.3678        17.1811        17.5913         2.9188        14.9525         2.5766         3.4218        65.6273     
 7855.0000         9.2823         0.0135        76.9020        16.9232        19.4809         3.0541        14.5900         2.5796         3.5930        65.5584     
 7855.5000         9.2825         0.0083        76.8456        16.8157        20.3878         3.1779        14.2804         2.5694         3.6413        65.6684     
 7856.0000         9.2863         0.0071        76.1281        17.0581        22.4023         3.2750        13.8981         2.5610         3.7282        65.8906     
 7856.5000         9.2966         0.0132        75.0094        17.2505        24.3173         3.3233        14.1926         2.5562         3.9255        66.2312     
 7857.0000         9.3070         0.0195        74.5086        17.4433        25.3473         3.2759        15.1950         2.5572         4.1576        66.8382     
 7857.5000         9.3173         0.0163        74.9133        17.8402        25.0088         3.1624        16.1196         2.5355         4.1596        67.4251     
 7858.0000         9.3261         0.0342        77.1945        18.0826        24.4920         3.0324        16.9598         2.5568         3.7989        67.7366     
 7858.5000         9.3327         0.0191        79.7600        18.5357        24.0346         2.8917        17.5989         2.5397         3.3408        68.0223     
 7859.0000         9.3392         0.0187        80.7516        19.4993        23.4119         2.7526        18.7062         2.5336         2.9730        68.1534     
 7859.5000         9.3441         0.0214        81.4310        20.4130        22.6068         2.6374        18.0744         2.5376         2.6765        68.0087     
 7860.0000         9.3443         0.0199        81.7863        20.7452        21.6506         2.5659        17.2355         2.5577         2.5244        67.6826     
 7860.5000         9.3445         0.0074        81.3960        20.5037        20.7726         2.5470        16.6073         2.5420         2.5812        67.2459     
 7861.0000         9.3286         0.0096        80.8092        19.9363        20.5613         2.5864        16.2735         2.5249         2.7473        66.7963     
 7861.5000         9.3086         0.0050        80.4683        19.7301        20.9514         2.6415        16.2224         2.5106         2.9112        66.3652     
 7862.0000         9.2853         0.0123        80.2247        20.2000        20.5115         2.6838        16.4699         2.5406         3.0686        66.0046     
 7862.5000         9.2613         0.0174        80.0331        20.8879        19.6127         2.7244        16.4198         2.5410         3.2593        65.6733     
 7863.0000         9.2485         0.0116        80.0536        21.2142        18.9380         2.7640        17.2482         2.5398         3.3314        65.4600     
 7863.5000         9.2573         0.0068        80.1604        21.2066        18.6592         2.8227        17.5452         2.5352         3.1584        65.4815     
 7864.0000         9.2661         0.0084        80.2042        21.0693        18.4280         2.8815        17.4397         2.5441         2.9825        65.6656     
 7864.5000         9.2735         0.0069        80.1398        20.8170        19.6566         2.9023        17.3640         2.5456         3.0388        65.9694     
 7865.0000         9.2808         0.0085        79.9482        20.2505        21.5698         2.8944        17.2385         2.5304         3.2402        66.3432     
 7865.5000         9.2925         0.0126        80.0275        19.7563        23.0903         2.8409        17.5966         2.5317         3.3506        66.7379     
 7866.0000         9.3186         0.0160        80.3329        19.7257        22.0274         2.7527        17.5683         2.5328         3.2697        67.0652     
 7866.5000         9.3448         0.0140        80.5392        20.1889        21.6278         2.6777        17.7430         2.5380         3.1622        67.3442     
 7867.0000         9.3657         0.0096        80.6460        20.7817        22.0353         2.6396        17.4735         2.5369         3.0797        67.7603     
