~Version Information Section
VERS.          2.0                                     : CWLS LOG ASCII Standard
WRAP.          NO                                      : One line per depth step
CREA.          03/08/17                                : LAS Creation Date
~Well Information Section
STRT.ft        542.0000                                : Start Depth
STOP.ft        10486.0000                              : Stop Depth
STEP.ft        0.5000                                  : Step
NULL.          -999.2500                               : Null Value
COMP.          TEXACO PRODUCTION SERVICES LTD          : Company
WELL.          14/20-10                                : Well
FLD .          MORAY FIRTH                             : Field
LOC .          NORTH SEA                               : Location
LOC1.          -                                       : Location (UTM)
CTRY.          UK                                      : Country
PROV.          UKCS                                    : Province
UWI .          854                                     : UWI Number
API .          -                                       : API Number
SECT.          -                                       : Section
TOWN.          -                                       : Township
RNGE.          -                                       : Range
PDAT.          MSL                                     : Perm Datum
EPD .ft        0.0                                     : Elevation
LMF .          KB                                      : Log Measured From
DMF .          RT                                      : Drill Measured From
APD .ft        86.0                                    : Above Perm Datum
EKB .ft        86.0                                    : Elev-Kelly Bushing
EDF .ft        84.0                                    : Elev-Drill Floor
EGL .ft        -437.0                                  : Elev-Ground Level (Water Depth)
TDD .ft        10500.0                                 : Total Depth (Driller)
SRVC.          SCHLUMBERGER                            : Service Company
LATI.          58 21 15.10" N                          : Latitude
LONG.          00 07 19.40" W                          : Longitude
DATE.          FEB-MAR-1979                            : Logging Date
PROJ.          UKCS                                    : Project
SET .          COMP_WIRE                               : Set
~Curve Information Section
DEPTH.ft                                               : Depth Curve
CALI.in                                                : Caliper (FDC/CNL/GR)
DRHO.g/cc                                              : Delta Rho
DT.us/ft                                               : Delta-T
GR.gAPI                                                : Gamma Ray (ISF/BHC/GR)
GRD.gAPI                                               : Gamma Ray (FDC/CNL/GR)
ILD.Ohmm                                               : Deep Induction Standard Processed Resistivity
NPHI.LPU                                               : Neutron Porosity
RHOB.g/cc                                              : Bulk Density
SFL.Ohmm                                               : Spherically Focussed Log
SP.mV                                                  : Spontaneous Potential
~ASCII Log Data Section
# ...
 7622.5000         9.1211         0.0122        85.8410        25.5776        25.2305         2.6791        18.2947         2.5000         3.4020        68.9211     
 7623.0000         9.1210         0.0094        85.9650        25.8772        25.3067         2.7117        18.6755         2.4994         3.5968        68.6210     
 7623.5000         9.1208         0.0177        85.9737        26.5340        25.7067         2.7506        19.3005         2.5157         3.5696        68.0545     
 7624.0000         9.1207         0.0285        86.8594        27.3095        26.6743         2.7752        19.5761         2.5310         3.2409        67.0809     
 7624.5000         9.1206         0.0285        87.6890        27.5870        28.8976         2.7733        19.4089         2.5289         2.8702        66.0924     
 7625.0000         9.1204         0.0349        87.2430        26.9914        30.1999         2.7444        19.0598         2.5239         2.6975        65.7634     
 7625.5000         9.1203         0.0270        86.8486        26.2608        29.2064         2.6951        19.1189         2.5082         2.9122        65.9602     
 7626.0000         9.1202         0.0228        87.1144        24.5447        27.4652         2.6428        19.6065         2.5068         3.1613        66.3148     
 7626.5000         9.1167         0.0277        87.4022        23.1163        27.3784         2.5789        20.2010         2.5191         3.0754        66.6451     
 7627.0000         9.1124         0.0443        87.4301        24.1326        28.2694         2.4919        20.5336         2.5351         3.0860        67.0058     
 7627.5000         9.1080         0.0324        87.2175        25.7644        29.3556         2.3844        20.4798         2.5297         3.3089        67.4696     
 7628.0000         9.1036         0.0365        86.8755        26.2488        29.5150         2.2857        20.2979         2.5241         3.3340        67.7358     
 7628.5000         9.1026         0.0326        87.5688        26.1994        28.9048         2.2211        20.5119         2.5185         2.9198        67.7883     
 7629.0000         9.1205         0.0276        89.4931        27.7096        29.3060         2.1835        21.8154         2.5199         2.3265        68.0094     
 7629.5000         9.1401         0.0477        91.2528        29.9674        31.1725         2.1762        23.4384         2.5098         2.0154        68.5450     
 7630.0000         9.1598         0.0414        91.7445        31.2115        31.9291         2.2202        23.6279         2.5007         1.9692        68.9037     
 7630.5000         9.1621         0.0208        88.8570        30.6461        28.9450         2.3130        23.3476         2.4834         2.0540        68.6454     
 7631.0000         9.0791         0.0153        84.0777        27.9407        25.5793         2.4333        23.0061         2.4782         2.3706        68.3517     
 7631.5000         9.0685         0.0163        80.1708        25.0682        22.7944         2.6010        21.0225         2.4797         2.8137        68.4532     
 7632.0000         9.0797         0.0153        75.9781        23.2711        21.7264         2.7951        17.6129         2.5033         4.0022        68.5418     
 7632.5000         9.0908         0.0053        74.1074        22.8562        21.6304         2.9615        15.7796         2.5135         5.6253        68.4123     
 7633.0000         9.1007         0.0076        75.5213        24.0932        23.0637         3.0775        15.6198         2.5269         6.0036        67.7669     
 7633.5000         9.1080         0.0142        77.0918        25.9340        25.1365         3.0643        16.9983         2.5577         5.2080        66.8306     
 7634.0000         9.1153         0.0096        78.7921        27.2091        27.2096         2.9475        18.6349         2.5449         4.1891        66.1899     
 7634.5000         9.1226         0.0130        80.9748        27.6255        27.7584         2.8209        19.7431         2.5272         3.2505        65.7620     
 7635.0000         9.1299         0.0235        82.7338        27.4783        29.1535         2.6857        21.0667         2.4885         2.5919        65.9508     
 7635.5000         9.1368         0.0300        83.6902        27.8082        30.6943         2.5801        22.5444         2.4647         2.3321        66.5618     
 7636.0000         9.1374         0.0237        83.3101        27.7484        30.5825         2.5111        21.6658         2.4591         2.4863        66.6331     
 7636.5000         9.1373         0.0349        81.8277        27.2047        29.4521         2.4545        19.9541         2.4922         2.8615        66.4082     
 7637.0000         9.1342         0.0579        80.5907        27.3883        28.8819         2.4371        18.9013         2.5247         3.1673        66.5366     
 7637.5000         9.1281         0.0551        79.9522        28.0326        29.7565         2.4676        19.3277         2.5325         3.3637        66.5361     
 7638.0000         9.1209         0.0790        80.4086        28.8787        30.5963         2.5279        19.7383         2.5464         3.3913        66.2514     
 7638.5000         9.1413         0.0850        81.2903        30.0198        30.7026         2.5955        19.9764         2.5723         3.0414        66.1637     
 7639.0000         9.1889         0.0655        82.5312        30.9601        30.7081         2.5877        21.8563         2.5707         2.6183        66.5255     
 7639.5000         9.1856         0.0282        83.7047        30.5905        31.3661         2.5102        22.7366         2.5060         2.5326        67.2630     
 7640.0000         9.1692         0.0127        83.2610        28.6610        30.6257         2.4645        21.3542         2.4868         2.8092        67.5543     
 7640.5000         9.1356         0.0074        82.5581        25.9608        28.7492         2.4717        19.7898         2.4745         3.2553        67.6105     
 7641.0000         9.1015         0.0029        82.5821        24.3022        27.3256         2.5195        18.7080         2.4702         3.2588        67.6927     
 7641.5000         9.0941         0.0069        83.0771        24.4409        28.7304         2.6026        19.6035         2.4807         2.7812        67.4189     
 7642.0000         9.0916         0.0134        83.4590        25.1066        28.2696         2.7229        20.7951         2.4933         2.5634        67.2053     
 7642.5000         9.0892         0.0053        82.5809        24.2794        25.9061         2.8713        20.5445         2.4880         2.7999        67.2177     
 7643.0000         9.0868         0.0045        80.6567        22.2036        23.4240         3.0976        19.6486         2.4913         3.2226        66.6243     
 7643.5000         9.0843         0.0104        79.0959        20.7313        21.8672         3.3982        18.5015         2.5072         3.6286        65.9403     
 7644.0000         9.0819         0.0103        78.1761        20.1204        21.4605         3.6821        18.6200         2.5348         3.9660        65.8279     
 7644.5000         9.0795         0.0118        77.0383        19.4625        20.7786         3.8970        18.3012         2.5382         4.3191        65.5016     
 7645.0000         9.0770         0.0245        75.9034        18.7602        19.6806         4.0200        17.7111         2.5663         4.6974        65.0399     
 7645.5000         9.0704         0.0438        75.4100        18.6793        19.5753         4.0793        17.2994         2.5870         5.0484        64.8366     
 7646.0000         9.0497         0.0473        75.5524        19.1799        20.0822         4.0964        17.2244         2.5682         5.1079        64.7179     
 7646.5000         9.0278         0.0260        76.2715        20.0014        20.7942         4.0331        17.0301         2.5552         4.9967        64.4404     
