~Version Information Section
VERS.          2.0                                     : CWLS LOG ASCII Standard
WRAP.          NO                                      : One line per depth step
CREA.          03/08/17                                : LAS Creation Date
~Well Information Section
STRT.ft        542.0000                                : Start Depth
STOP.ft        10486.0000                              : Stop Depth
STEP.ft        0.5000                                  : Step
NULL.          -999.2500                               : Null Value
COMP.          TEXACO PRODUCTION SERVICES LTD          : Company
WELL.          14/20-10                                : Well
FLD .          MORAY FIRTH                             : Field
LOC .          NORTH SEA                               : Location
LOC1.          -                                       : Location (UTM)
CTRY.          UK                                      : Country
PROV.          UKCS                                    : Province
UWI .          854                                     : UWI Number
API .          -                                       : API Number
SECT.          -                                       : Section
TOWN.          -                                       : Township
RNGE.          -                                       : Range
PDAT.          MSL                                     : Perm Datum
EPD .ft        0.0                                     : Elevation
LMF .          KB                                      : Log Measured From
DMF .          RT                                      : Drill Measured From
APD .ft        86.0                                    : Above Perm Datum
EKB .ft        86.0                                    : Elev-Kelly Bushing
EDF .ft        84.0                                    : Elev-Drill Floor
EGL .ft        -437.0                                  : Elev-Ground Level (Water Depth)
TDD .ft        10500.0                                 : Total Depth (Driller)
SRVC.          SCHLUMBERGER                            : Service Company
LATI.          58 21 15.10" N                          : Latitude
LONG.          00 07 19.40" W                          : Longitude
DATE.          FEB-MAR-1979                            : Logging Date
PROJ.          UKCS                                    : Project
SET .          COMP_WIRE                               : Set
~Curve Information Section
DEPTH.ft                                               : Depth Curve
CALI.in                                                : Caliper (FDC/CNL/GR)
DRHO.g/cc                                              : Delta Rho
DT.us/ft                                               : Delta-T
GR.gAPI                                                : Gamma Ray (ISF/BHC/GR)
GRD.gAPI                                               : Gamma Ray (FDC/CNL/GR)
ILD.Ohmm                                               : Deep Induction Standard Processed Resistivity
NPHI.LPU                                               : Neutron Porosity
RHOB.g/cc                                              : Bulk Density
SFL.Ohmm                                               : Spherically Focussed Log
SP.mV                                                  : Spontaneous Potential
~ASCII Log Data Section
# ...
10440.0000         8.4460         0.0104        55.7341        84.0125        84.0125       120.7658        14.2654         2.7770        83.2316        58.2914     
10440.5000         8.4524         0.0291        55.8432        85.7616        85.7616       102.3623        15.4042         2.7710        70.7059        58.4721     
10441.0000         8.4588         0.0218        56.0221        90.8978        90.8978        94.5161        16.5389         2.7642        62.0271        58.7143     
10441.5000         8.4652         0.0345        56.4335        96.0802        96.0802        85.8109        18.1994         2.7406        59.9035        59.0224     
10442.0000         8.5114         0.0936        57.4892       101.2674       101.2674        66.8873        19.9821         2.7112        57.3699        59.4006     
10442.5000         8.6385         0.1540        59.8000       106.4605       106.4605        52.6945        20.8655         2.6618        47.2062        59.8531     
10443.0000         8.4975         0.1780        63.5046       117.3895       117.3895        38.8958        21.2293         2.6265        35.7937        60.3844     
10443.5000         8.8035         0.2025        66.9736       129.6949       129.6949        28.7992        21.4596         2.6347        28.9301        60.9987     
10444.0000         9.1506         0.2657        67.9630       138.1721       138.1721        22.2728        21.3986         2.6779        26.3106        61.5538     
10444.5000         9.5200         0.2796        66.9279       145.5572       145.5572        18.5372        20.4450         2.6822        23.5107        61.9644     
10445.0000         9.9454         0.2788        66.5046       152.9203       152.9203        17.9098        17.8781         2.6515        19.3823        62.3315     
10445.5000         9.9572         0.2234        67.3432       159.7942       159.7942        18.6626        15.2548         2.5326        15.0984        62.6942     
10446.0000         9.0339         0.0720        67.5929       158.2802       158.2802        19.7336        11.4771         2.5079        13.3717        63.0121     
10446.5000         8.5167         0.0705        66.7702       150.9651       150.9651        20.4942         9.1633         2.6080        14.8619        63.2537     
10447.0000         8.4691         0.1482        65.7059       142.3414       142.3414        21.5569         9.5422         2.6347        20.2137        63.4246     
10447.5000         8.4862         0.2443        64.9323       127.0636       127.0636        24.7296        10.6665         2.5944        29.4618        63.3906     
10448.0000         8.6269         0.2914      -999.2500       120.9294       120.9294        28.9361        12.3824         2.5383        38.2709        63.1726     
10448.5000         8.7393         0.2917      -999.2500       129.2615       129.2615        30.7047        14.0981         2.4683        40.8883        62.8908     
10449.0000         8.8245         0.2753      -999.2500       138.8948       138.8948        32.9200        16.0683         2.3684        35.6905        62.5343     
10449.5000         8.7982         0.2089      -999.2500       148.5308       148.5308        34.1505        18.9861         2.2512        26.9239        62.0907     
10450.0000         8.5946         0.0994      -999.2500       154.2632       154.2632        31.1314        20.6516         2.2026        20.6642        61.5559     
10450.5000         8.7326         0.0856      -999.2500       153.5298       153.5298        27.2027        20.3899         2.4025        18.6391        60.9358     
10451.0000         8.9674         0.1857      -999.2500       152.2608       152.2608        23.8943        21.0002         2.6377        18.9270        60.2982     
10451.5000         8.9114         0.1306      -999.2500       154.5165       154.5165        20.8724        21.5283         2.6398        20.4619        59.7348     
10452.0000         8.5618         0.1069      -999.2500       159.5467       159.5467        19.5382        20.9124         2.6317        22.2192        59.2393     
10452.5000         8.4192         0.1891      -999.2500       164.5780       164.5780        21.8779        20.2937         2.6982        24.5619        58.7429     
10453.0000         8.4840         0.1462      -999.2500       166.5248       166.5248        26.4295        20.0449         2.6590        28.3233        58.1456     
10453.5000         8.6998         0.0857      -999.2500       164.2273       164.2273        29.1129        19.6537         2.6006        33.7173        57.4942     
10454.0000         8.7976         0.0613      -999.2500       164.8867       164.8867        30.3849        18.5093         2.5662        38.3971        56.8954     
10454.5000         8.6288         0.0703      -999.2500       166.9191       166.9191        32.9549        16.8604         2.5964        38.9953        56.3854     
10455.0000         8.4512         0.0339      -999.2500       169.9958       169.9958        34.2657        15.2176         2.6342        36.6432        55.9391     
10455.5000         8.3541         0.0176      -999.2500       170.6801       170.6801        30.6512        12.9213         2.6576        34.0769        55.4902     
10456.0000         8.2992         0.0631      -999.2500       170.7937       170.7937        28.5797         8.9443         2.7201        31.4206        54.9140     
10456.5000         8.2583         0.0964      -999.2500      -999.2500      -999.2500        31.7333         4.0819         2.7564        28.6063        54.1643     
10457.0000         8.2247         0.0360      -999.2500      -999.2500      -999.2500        34.6171         1.4088         2.7664        26.8017        53.3309     
10457.5000         8.2281        -0.0040      -999.2500      -999.2500      -999.2500        36.7648         0.8285         2.8457        28.2072        52.8229     
10458.0000         8.2628        -0.0161      -999.2500      -999.2500      -999.2500        39.1377         0.6637         2.9116        41.1341        52.7442     
10458.5000         8.3255        -0.0158      -999.2500      -999.2500      -999.2500        42.8294         0.6042         2.9269        66.5321        52.7395     
10459.0000         8.3455        -0.0173      -999.2500      -999.2500      -999.2500        50.5603         0.4429         2.9360       162.6395        52.4669     
10459.5000         8.3344        -0.0058      -999.2500      -999.2500      -999.2500        69.4821         0.3411         2.9598       469.6952        51.8907     
10460.0000         8.3406        -0.0125      -999.2500      -999.2500      -999.2500        96.3121         0.3972         2.9601       732.8442        51.2346     
10460.5000         8.3490        -0.0284      -999.2500      -999.2500      -999.2500       144.8206         0.3496         2.9329       884.3347        50.5354     
10461.0000         8.3564        -0.0370      -999.2500      -999.2500      -999.2500       306.2230         0.2744         2.9240      1227.6165        49.8506     
10461.5000         8.3636        -0.0281      -999.2500      -999.2500      -999.2500       587.9365         0.2359         2.9512      1483.3962        49.2248     
10462.0000         8.3655        -0.0255      -999.2500      -999.2500      -999.2500       811.3091         0.2106         2.9400      1510.5503        48.7299     
10462.5000         8.3643        -0.0043      -999.2500      -999.2500      -999.2500       709.8584      -999.2500         2.9616      1510.8196        48.3235     
10463.0000         8.3630         0.0019      -999.2500      -999.2500      -999.2500       448.6711      -999.2500         2.9706      1512.3486        47.8766     
10463.5000         8.3618        -0.0051      -999.2500      -999.2500      -999.2500       340.1399      -999.2500         2.9714      1515.4976        47.3077     
10464.0000         8.3601        -0.0009      -999.2500      -999.2500      -999.2500       349.1326      -999.2500         2.9640      1518.9983        46.5536     
