~Version Information Section
VERS.          2.0                                     : CWLS LOG ASCII Standard
WRAP.          NO                                      : One line per depth step
CREA.          03/08/17                                : LAS Creation Date
~Well Information Section
STRT.ft        542.0000                                : Start Depth
STOP.ft        10486.0000                              : Stop Depth
STEP.ft        0.5000                                  : Step
NULL.          -999.2500                               : Null Value
COMP.          TEXACO PRODUCTION SERVICES LTD          : Company
WELL.          14/20-10                                : Well
FLD .          MORAY FIRTH                             : Field
LOC .          NORTH SEA                               : Location
LOC1.          -                                       : Location (UTM)
CTRY.          UK                                      : Country
PROV.          UKCS                                    : Province
UWI .          854                                     : UWI Number
API .          -                                       : API Number
SECT.          -                                       : Section
TOWN.          -                                       : Township
RNGE.          -                                       : Range
PDAT.          MSL                                     : Perm Datum
EPD .ft        0.0                                     : Elevation
LMF .          KB                                      : Log Measured From
DMF .          RT                                      : Drill Measured From
APD .ft        86.0                                    : Above Perm Datum
EKB .ft        86.0                                    : Elev-Kelly Bushing
EDF .ft        84.0                                    : Elev-Drill Floor
EGL .ft        -437.0                                  : Elev-Ground Level (Water Depth)
TDD .ft        10500.0                                 : Total Depth (Driller)
SRVC.          SCHLUMBERGER                            : Service Company
LATI.          58 21 15.10" N                          : Latitude
LONG.          00 07 19.40" W                          : Longitude
DATE.          FEB-MAR-1979                            : Logging Date
PROJ.          UKCS                                    : Project
SET .          COMP_WIRE                               : Set
~Curve Information Section
DEPTH.ft                                               : Depth Curve
CALI.in                                                : Caliper (FDC/CNL/GR)
DRHO.g/cc                                              : Delta Rho
DT.us/ft                                               : Delta-T
GR.gAPI                                                : Gamma Ray (ISF/BHC/GR)
GRD.gAPI                                               : Gamma Ray (FDC/CNL/GR)
ILD.Ohmm                                               : Deep Induction Standard Processed Resistivity
NPHI.LPU                                               : Neutron Porosity
RHOB.g/cc                                              : Bulk Density
SFL.Ohmm                                               : Spherically Focussed Log
SP.mV                                                  : Spontaneous Potential
~ASCII Log Data Section
# ...
 9019.0000        11.7050         0.2654        96.3792        47.0489        49.4698         1.6321        29.4392         2.5174         1.6392        72.6060     
 9019.5000        11.7974         0.2038        96.5032        48.6771        49.5538         1.5423        29.8705         2.4515         1.4743        72.6889     
 9020.0000        12.0811         0.1109        97.1556        50.0306        51.1609         1.4616        30.0614         2.3581         1.4662        72.8479     
 9020.5000        11.8912         0.1319        97.1742        50.9459        51.6306         1.3964        30.7002         2.3577         1.5661        73.0867     
 9021.0000        11.4873         0.0986        96.9863        50.3731        50.1936         1.3476        31.4192         2.3577         1.6851        73.3300     
 9021.5000        11.1572         0.1508        96.3048        49.1309        49.2211         1.3267        32.2477         2.4054         1.7190        73.5258     
 9022.0000        11.2260         0.1722        95.2236        49.2263        49.6449         1.3343        32.1235         2.4410         1.6534        73.6721     
 9022.5000        11.2957         0.1581        96.3502        49.9236        50.6681         1.3501        31.0620         2.4016         1.5490        73.8398     
 9023.0000        11.1985         0.1706        98.4168        49.6577        51.4441         1.3654        30.1198         2.3657         1.4945        73.9989     
 9023.5000        11.0410         0.1359        99.6526        49.1841        50.7224         1.3810        31.0669         2.3069         1.4954        74.0582     
 9024.0000        11.0042         0.1291        99.8288        49.7117        48.9151         1.3980        31.3806         2.3239         1.5383        74.2458     
 9024.5000        11.2464         0.1514        98.6315        50.0092        49.6710         1.4123        29.8990         2.3648         1.5403        74.7332     
 9025.0000        11.4769         0.1691        97.3713        49.5987        50.4862         1.4225        29.2842         2.4068         1.4758        75.3079     
 9025.5000        11.5113         0.1670        96.9024        48.8664        48.5824         1.4333        28.0395         2.4320         1.4653        75.8223     
 9026.0000        11.2167         0.1739        96.9891        48.1104        46.2479         1.4650        25.1046         2.4607         1.5632        76.2014     
 9026.5000        10.8761         0.1468        97.0748        47.5298        47.2056         1.5215        23.6237         2.4729         1.7659        76.0472     
 9027.0000        10.8878         0.1553        96.1223        47.1925        48.7606         1.5620        24.4404         2.5065         1.9699        75.1668     
 9027.5000        10.7372         0.1830        94.1542        47.4866        49.1598         1.5767        25.5234         2.4968         2.0643        73.1387     
 9028.0000        10.3919         0.2023        93.1339        47.9073        47.0019         1.5599        25.8627         2.5031         2.0305        71.6287     
 9028.5000        11.1154         0.1411        93.6629        47.8113        45.2447         1.5163        26.1265         2.4451         1.9052        72.0492     
 9029.0000        10.9499         0.1373        93.7605        46.8227        45.1662         1.4863        26.8709         2.4222         1.7670        72.9869     
 9029.5000        10.3989         0.1545        93.3553        46.7584        45.8220         1.4755        28.0134         2.4060         1.6323        73.8392     
 9030.0000        10.6777         0.1752        94.0085        48.3671        47.0449         1.4828        28.8917         2.3779         1.5362        74.5968     
 9030.5000        10.9402         0.1874        95.4841        50.3510        48.5233         1.5058        28.7152         2.3290         1.4848        75.1377     
 9031.0000        10.8991         0.2052        95.9800        52.6750        48.6868         1.5326        27.8340         2.3465         1.4591        75.3670     
 9031.5000        10.7451         0.1664        93.1991        53.4638        46.2207         1.5674        25.6074         2.3470         1.4776        75.4647     
 9032.0000        10.8032         0.1741        89.5249        51.7255        43.7966         1.6503        23.0714         2.4063         1.6168        75.6457     
 9032.5000        10.8924         0.1817        86.9377        49.6295        41.4634         1.8457        23.0427         2.4624         2.0016        75.8592     
 9033.0000        10.6558         0.1735        84.3448        47.3625        38.4447         2.0610        24.1097         2.4786         2.4081        75.9998     
 9033.5000        10.9756         0.2130        83.0764        45.3034        37.8653         2.2237        24.7637         2.5072         2.6786        75.9516     
 9034.0000         9.8228         0.2023        83.9808        44.6236        38.7159         2.3746        25.2519         2.5013         2.9219        75.6855     
 9034.5000        10.1937         0.1007        85.4234        44.2599        41.4274         2.4567        24.3956         2.4694         3.0764        75.0003     
 9035.0000        10.3631         0.0787        86.0000        43.4037        44.3857         2.4176        23.6892         2.4888         3.1127        73.6714     
 9035.5000        10.0770         0.1338        87.1897        42.8712        45.3577         2.2772        24.2519         2.5336         2.9725        72.2911     
 9036.0000        10.5282         0.1500        88.7796        43.3595        45.6216         2.1165        25.7525         2.5128         2.5456        71.8745     
 9036.5000        10.3386         0.1597        87.5298        43.5781        46.3359         1.9937        26.3979         2.4936         1.9952        72.4732     
 9037.0000        10.0830         0.1851        87.0254        42.9445        46.8176         1.9334        25.3790         2.5105         1.7798        73.3596     
 9037.5000         9.8996         0.1468        88.8168        41.9158        45.5166         1.9147        23.8967         2.5029         1.9269        74.1688     
 9038.0000         9.7536         0.0832        88.4719        40.0669        42.4241         1.9140        22.4039         2.4981         2.1570        74.7464     
 9038.5000         9.7562         0.1261        87.0733        37.5466        38.9308         1.9313        21.8326         2.5473         2.3121        74.9733     
 9039.0000         9.8795         0.1581        86.7152        36.8667        39.0615         1.9668        21.7649         2.5866         2.3522        74.8714     
 9039.5000        10.0004         0.1163        86.9766        37.7526        40.9515         2.0210        21.6861         2.5478         2.4164        74.8053     
 9040.0000        10.0505         0.0882        87.0851        38.0622        42.0318         2.0760        21.3130         2.5059         2.5260        75.0211     
 9040.5000         9.9646         0.0923        87.0918        38.2524        40.0904         2.1075        21.2288         2.5100         2.5973        75.3703     
 9041.0000         9.7859         0.0900        88.7894        38.4273        41.7902         2.1155        21.9163         2.4965         2.5587        75.6239     
 9041.5000         9.7978         0.1630        91.1502        38.2785        44.7349         2.1111        22.4755         2.5442         2.3713        75.4887     
 9042.0000        10.0535         0.1965        90.6643        38.6731        45.1493         2.0925        22.9303         2.5214         2.1058        75.0451     
 9042.5000        10.3300         0.2210        89.6069        40.5053        44.2602         2.0554        23.9812         2.4810         2.0276        74.7184     
 9043.0000        10.4197         0.2116        89.4734        42.2194        43.0319         1.9985        23.8558         2.5091         2.1443        74.8329     
