~Version Information Section
VERS.          2.0                                     : CWLS LOG ASCII Standard
WRAP.          NO                                      : One line per depth step
CREA.          03/08/17                                : LAS Creation Date
~Well Information Section
STRT.ft        542.0000                                : Start Depth
STOP.ft        10486.0000                              : Stop Depth
STEP.ft        0.5000                                  : Step
NULL.          -999.2500                               : Null Value
COMP.          TEXACO PRODUCTION SERVICES LTD          : Company
WELL.          14/20-10                                : Well
FLD .          MORAY FIRTH                             : Field
LOC .          NORTH SEA                               : Location
LOC1.          -                                       : Location (UTM)
CTRY.          UK                                      : Country
PROV.          UKCS                                    : Province
UWI .          854                                     : UWI Number
API .          -                                       : API Number
SECT.          -                                       : Section
TOWN.          -                                       : Township
RNGE.          -                                       : Range
PDAT.          MSL                                     : Perm Datum
EPD .ft        0.0                                     : Elevation
LMF .          KB                                      : Log Measured From
DMF .          RT                                      : Drill Measured From
APD .ft        86.0                                    : Above Perm Datum
EKB .ft        86.0                                    : Elev-Kelly Bushing
EDF .ft        84.0                                    : Elev-Drill Floor
EGL .ft        -437.0                                  : Elev-Ground Level (Water Depth)
TDD .ft        10500.0                                 : Total Depth (Driller)
SRVC.          SCHLUMBERGER                            : Service Company
LATI.          58 21 15.10" N                          : Latitude
LONG.          00 07 19.40" W                          : Longitude
DATE.          FEB-MAR-1979                            : Logging Date
PROJ.          UKCS                                    : Project
SET .          COMP_WIRE                               : Set
~Curve Information Section
DEPTH.ft                                               : Depth Curve
CALI.in                                                : Caliper (FDC/CNL/GR)
DRHO.g/cc                                              : Delta Rho
DT.us/ft                                               : Delta-T
GR.gAPI                                                : Gamma Ray (ISF/BHC/GR)
GRD.gAPI                                               : Gamma Ray (FDC/CNL/GR)
ILD.Ohmm                                               : Deep Induction Standard Processed Resistivity
NPHI.LPU                                               : Neutron Porosity
RHOB.g/cc                                              : Bulk Density
SFL.Ohmm                                               : Spherically Focussed Log
SP.mV                                                  : Spontaneous Potential
~ASCII Log Data Section
# ...
 7157.0000      -999.2500      -999.2500        77.8505        22.0779      -999.2500         3.6955      -999.2500      -999.2500         3.5734        65.7634     
 7157.5000      -999.2500      -999.2500        78.3706        23.4330      -999.2500         3.6864      -999.2500      -999.2500         3.4875        65.1909     
 7158.0000      -999.2500      -999.2500        77.2513        24.4114      -999.2500         3.6976      -999.2500      -999.2500         3.4696        65.3949     
 7158.5000      -999.2500      -999.2500        75.7047        24.4263      -999.2500         3.7249      -999.2500      -999.2500         3.5157        65.7975     
 7159.0000      -999.2500      -999.2500        74.6506        23.9462      -999.2500         3.7682      -999.2500      -999.2500         3.6619        66.0087     
 7159.5000      -999.2500      -999.2500        74.0929        23.0417      -999.2500         3.8168      -999.2500      -999.2500         3.8660        66.0568     
 7160.0000      -999.2500      -999.2500        73.7942        21.5136      -999.2500         3.8571      -999.2500      -999.2500         4.0363        66.0528     
 7160.5000      -999.2500      -999.2500        73.6947        19.9272      -999.2500         3.8897      -999.2500      -999.2500         4.1671        66.0706     
 7161.0000      -999.2500      -999.2500        74.1543        18.7115      -999.2500         3.9151      -999.2500      -999.2500         4.1637        66.1542     
 7161.5000      -999.2500      -999.2500        75.3644        17.8734      -999.2500         3.9407      -999.2500      -999.2500         3.9888        66.0818     
 7162.0000      -999.2500      -999.2500        76.6991        17.4906      -999.2500         3.9711      -999.2500      -999.2500         3.6425        65.7539     
 7162.5000      -999.2500      -999.2500        78.2474        18.2729      -999.2500         3.9951      -999.2500      -999.2500         3.3899        65.3483     
 7163.0000      -999.2500      -999.2500        79.0034        20.0983      -999.2500         4.0034      -999.2500      -999.2500         3.4288        64.9729     
 7163.5000      -999.2500      -999.2500        77.5940        20.8720      -999.2500         4.0034      -999.2500      -999.2500         3.6364        64.7418     
 7164.0000      -999.2500      -999.2500        75.6066        19.7887      -999.2500         4.0034      -999.2500      -999.2500         3.8273        64.7214     
 7164.5000      -999.2500      -999.2500        74.5086        18.3669      -999.2500         3.9932      -999.2500      -999.2500         3.8678        64.8890     
 7165.0000      -999.2500      -999.2500        74.3621        18.1215      -999.2500         3.9625      -999.2500      -999.2500         3.8338        65.1271     
 7165.5000      -999.2500      -999.2500        74.8546        19.2502      -999.2500         3.9215      -999.2500      -999.2500         3.7985        65.3026     
 7166.0000      -999.2500      -999.2500        75.7549        19.9477      -999.2500         3.8753      -999.2500      -999.2500         3.7462        65.2819     
 7166.5000      -999.2500      -999.2500        77.0598        19.6933      -999.2500         3.8229      -999.2500      -999.2500         3.6601        65.0021     
 7167.0000      -999.2500      -999.2500        78.5094        19.9215      -999.2500         3.7924      -999.2500      -999.2500         3.5740        64.6975     
 7167.5000      -999.2500      -999.2500        79.4759        20.3273      -999.2500         3.7975      -999.2500      -999.2500         3.4770        64.6240     
 7168.0000      -999.2500      -999.2500        79.4190        19.9431      -999.2500         3.8310      -999.2500      -999.2500         3.4103        64.8201     
 7168.5000      -999.2500      -999.2500        78.2270        19.3547      -999.2500         3.8852      -999.2500      -999.2500         3.5175        64.9857     
 7169.0000      -999.2500      -999.2500        76.3046        18.9875      -999.2500         3.9639      -999.2500      -999.2500         3.7896        64.9818     
 7169.5000      -999.2500      -999.2500        74.7463        18.0986      -999.2500         4.0559      -999.2500      -999.2500         4.0862        65.1395     
 7170.0000      -999.2500      -999.2500        73.9565        17.2173      -999.2500         4.1400      -999.2500      -999.2500         4.3191        65.4354     
 7170.5000      -999.2500      -999.2500        73.7942        17.2422      -999.2500         4.2103      -999.2500      -999.2500         4.4072        65.5698     
 7171.0000      -999.2500      -999.2500        73.9363        18.0292      -999.2500         4.2514      -999.2500      -999.2500         4.3722        65.5302     
 7171.5000      -999.2500      -999.2500        74.0360        18.5805      -999.2500         4.2530      -999.2500      -999.2500         4.2916        65.0470     
 7172.0000      -999.2500      -999.2500        74.3384        18.7870      -999.2500         4.2248      -999.2500      -999.2500         4.1975        64.3316     
 7172.5000      -999.2500      -999.2500        74.7366        19.2161      -999.2500         4.1936      -999.2500      -999.2500         4.1324        63.6915     
 7173.0000      -999.2500      -999.2500        74.7898        18.6244      -999.2500         4.1708      -999.2500      -999.2500         4.1223        62.9504     
 7173.5000      -999.2500      -999.2500        74.4390        17.2546      -999.2500         4.1649      -999.2500      -999.2500         4.1489        62.2999     
 7174.0000      -999.2500      -999.2500        73.9417        16.2721      -999.2500         4.1825      -999.2500      -999.2500         4.2152        62.1533     
 7174.5000      -999.2500      -999.2500        73.5453        15.6082      -999.2500         4.2200      -999.2500      -999.2500         4.2796        62.5425     
 7175.0000      -999.2500      -999.2500        73.6521        15.6019      -999.2500         4.2646      -999.2500      -999.2500         4.2781        63.0996     
 7175.5000      -999.2500      -999.2500        74.0007        16.3430      -999.2500         4.3042      -999.2500      -999.2500         4.2112        63.7005     
 7176.0000      -999.2500      -999.2500        73.7334        16.7617      -999.2500         4.3331      -999.2500      -999.2500         4.1207        64.1064     
 7176.5000      -999.2500      -999.2500        72.9737        16.3348      -999.2500         4.3351      -999.2500      -999.2500         4.0919        64.2652     
 7177.0000      -999.2500      -999.2500        72.2599        15.9292      -999.2500         4.3180      -999.2500      -999.2500         4.2238        64.4345     
 7177.5000      -999.2500      -999.2500        71.4942        15.9064      -999.2500         4.2947      -999.2500      -999.2500         4.5263        64.6323     
 7178.0000      -999.2500      -999.2500        70.5876        15.7361      -999.2500         4.2663      -999.2500      -999.2500         4.8716        64.5184     
 7178.5000      -999.2500      -999.2500        70.4311        15.7770      -999.2500         4.2415      -999.2500      -999.2500         5.0578        63.8639     
 7179.0000      -999.2500      -999.2500        71.2591        16.2118      -999.2500         4.2304      -999.2500      -999.2500         5.0236        62.9572     
 7179.5000      -999.2500      -999.2500        71.9205        16.3801      -999.2500         4.2499      -999.2500      -999.2500         4.8371        62.3060     
 7180.0000      -999.2500      -999.2500        72.2516        16.8976      -999.2500         4.2993      -999.2500      -999.2500         4.5497        62.1006     
 7180.5000      -999.2500      -999.2500        72.6752        17.5076      -999.2500         4.3661      -999.2500      -999.2500         4.3289        62.4594     
 7181.0000      -999.2500      -999.2500        72.7194        17.3220      -999.2500         4.4162      -999.2500      -999.2500         4.2704        63.1904     
