~Version Information Section
VERS.          2.0                                     : CWLS LOG ASCII Standard
WRAP.          NO                                      : One line per depth step
CREA.          03/08/17                                : LAS Creation Date
~Well Information Section
STRT.ft        542.0000                                : Start Depth
STOP.ft        10486.0000                              : Stop Depth
STEP.ft        0.5000                                  : Step
NULL.          -999.2500                               : Null Value
COMP.          TEXACO PRODUCTION SERVICES LTD          : Company
WELL.          14/20-10                                : Well
FLD .          MORAY FIRTH                             : Field
LOC .          NORTH SEA                               : Location
LOC1.          -                                       : Location (UTM)
CTRY.          UK                                      : Country
PROV.          UKCS                                    : Province
UWI .          854                                     : UWI Number
API .          -                                       : API Number
SECT.          -                                       : Section
TOWN.          -                                       : Township
RNGE.          -                                       : Range
PDAT.          MSL                                     : Perm Datum
EPD .ft        0.0                                     : Elevation
LMF .          KB                                      : Log Measured From
DMF .          RT                                      : Drill Measured From
APD .ft        86.0                                    : Above Perm Datum
EKB .ft        86.0                                    : Elev-Kelly Bushing
EDF .ft        84.0                                    : Elev-Drill Floor
EGL .ft        -437.0                                  : Elev-Ground Level (Water Depth)
TDD .ft        10500.0                                 : Total Depth (Driller)
SRVC.          SCHLUMBERGER                            : Service Company
LATI.          58 21 15.10" N                          : Latitude
LONG.          00 07 19.40" W                          : Longitude
DATE.          FEB-MAR-1979                            : Logging Date
PROJ.          UKCS                                    : Project
SET .          COMP_WIRE                               : Set
~Curve Information Section
DEPTH.ft                                               : Depth Curve
CALI.in                                                : Caliper (FDC/CNL/GR)
DRHO.g/cc                                              : Delta Rho
DT.us/ft                                               : Delta-T
GR.gAPI                                                : Gamma Ray (ISF/BHC/GR)
GRD.gAPI                                               : Gamma Ray (FDC/CNL/GR)
ILD.Ohmm                                               : Deep Induction Standard Processed Resistivity
NPHI.LPU                                               : Neutron Porosity
RHOB.g/cc                                              : Bulk Density
SFL.Ohmm                                               : Spherically Focussed Log
SP.mV                                                  : Spontaneous Potential
~ASCII Log Data Section
# ...
 7377.5000      -999.2500      -999.2500        78.6349        22.0454      -999.2500         3.5496      -999.2500      -999.2500         3.5352        63.0173     
 7378.0000      -999.2500      -999.2500        77.5957        21.4206      -999.2500         3.5551      -999.2500      -999.2500         3.7066        62.8032     
 7378.5000      -999.2500      -999.2500        77.1030        21.4976      -999.2500         3.5987      -999.2500      -999.2500         3.8369        62.1394     
 7379.0000      -999.2500      -999.2500        76.7382        21.8381      -999.2500         3.6578      -999.2500      -999.2500         3.9537        61.8221     
 7379.5000      -999.2500      -999.2500        76.3448        20.6710      -999.2500         3.7215      -999.2500      -999.2500         4.1546        61.8829     
 7380.0000      -999.2500      -999.2500        76.2997        19.1086      -999.2500         3.8071      -999.2500      -999.2500         4.2889        62.2752     
 7380.5000      -999.2500      -999.2500        76.3043        17.9442      -999.2500         3.9067      -999.2500      -999.2500         4.1919        62.8273     
 7381.0000      -999.2500      -999.2500        76.0404        16.9793      -999.2500         4.0086      -999.2500      -999.2500         4.0473        63.2269     
 7381.5000      -999.2500      -999.2500        75.5479        16.4603      -999.2500         4.1146      -999.2500      -999.2500         4.1935        63.4206     
 7382.0000      -999.2500      -999.2500        75.0855        16.3470      -999.2500         4.2136      -999.2500      -999.2500         4.6541        63.5131     
 7382.5000      -999.2500      -999.2500        74.6514        16.5855      -999.2500         4.3054      -999.2500      -999.2500         4.7867        63.7736     
 7383.0000      -999.2500      -999.2500        74.2968        16.6272      -999.2500         4.4029      -999.2500      -999.2500         4.5909        64.1575     
 7383.5000      -999.2500      -999.2500        73.7006        16.6092      -999.2500         4.5164      -999.2500      -999.2500         4.5710        64.4751     
 7384.0000      -999.2500      -999.2500        72.9153        17.3320      -999.2500         4.6327      -999.2500      -999.2500         4.9754        64.5734     
 7384.5000      -999.2500      -999.2500        71.9271        18.1401      -999.2500         4.7353      -999.2500      -999.2500         5.6053        64.3085     
 7385.0000      -999.2500      -999.2500        71.2947        18.3044      -999.2500         4.8304      -999.2500      -999.2500         5.9169        64.2837     
 7385.5000      -999.2500      -999.2500        71.6493        18.2481      -999.2500         4.9095      -999.2500      -999.2500         5.8444        64.5165     
 7386.0000      -999.2500      -999.2500        72.5834        18.2417      -999.2500         4.9203      -999.2500      -999.2500         5.5274        64.2223     
 7386.5000      -999.2500      -999.2500        73.6832        18.2945      -999.2500         4.8408      -999.2500      -999.2500         5.1375        63.5957     
 7387.0000      -999.2500      -999.2500        74.5335        18.9538      -999.2500         4.6516      -999.2500      -999.2500         4.7878        63.6209     
 7387.5000      -999.2500      -999.2500        74.9254        19.8098      -999.2500         4.3700      -999.2500      -999.2500         4.6249        64.0148     
 7388.0000      -999.2500      -999.2500        74.9796        20.7052      -999.2500         4.0819      -999.2500      -999.2500         4.6880        63.8829     
 7388.5000      -999.2500      -999.2500        75.1489        21.3260      -999.2500         3.8316      -999.2500      -999.2500         4.7057        63.8377     
 7389.0000      -999.2500      -999.2500        76.1012        21.3409      -999.2500         3.6497      -999.2500      -999.2500         4.3620        63.8088     
 7389.5000      -999.2500      -999.2500        77.8622        21.8328      -999.2500         3.5432      -999.2500      -999.2500         3.8254        63.4246     
 7390.0000      -999.2500      -999.2500        79.3416        22.8393      -999.2500         3.4691      -999.2500      -999.2500         3.3294        63.2994     
 7390.5000      -999.2500      -999.2500        80.3998        23.7329      -999.2500         3.4000      -999.2500      -999.2500         3.0584        63.4154     
 7391.0000      -999.2500      -999.2500        80.6481        23.9898      -999.2500         3.3403      -999.2500      -999.2500         3.1303        63.5399     
 7391.5000      -999.2500      -999.2500        79.4893        23.4602      -999.2500         3.2721      -999.2500      -999.2500         3.4738        63.4875     
 7392.0000      -999.2500      -999.2500        77.8393        22.8981      -999.2500         3.2259      -999.2500      -999.2500         4.0796        63.2848     
 7392.5000      -999.2500      -999.2500        77.0168        22.9158      -999.2500         3.2285      -999.2500      -999.2500         4.5320        63.1869     
 7393.0000      -999.2500      -999.2500        77.8954        23.2440      -999.2500         3.2748      -999.2500      -999.2500         4.3851        63.6580     
 7393.5000      -999.2500      -999.2500        79.2573        23.9354      -999.2500         3.3825      -999.2500      -999.2500         3.9277        64.7389     
 7394.0000      -999.2500      -999.2500        80.2614        25.4481      -999.2500         3.4241      -999.2500      -999.2500         3.5038        65.6950     
 7394.5000      -999.2500      -999.2500        80.9524        26.9391      -999.2500         3.3309      -999.2500      -999.2500         3.1782        66.0132     
 7395.0000      -999.2500      -999.2500        81.1563        27.4107      -999.2500         3.2663      -999.2500      -999.2500         3.0665        66.0619     
 7395.5000      -999.2500      -999.2500        80.7089        26.9913      -999.2500         3.2787      -999.2500      -999.2500         3.2038        66.2381     
 7396.0000      -999.2500      -999.2500        79.5918        25.8671      -999.2500         3.3134      -999.2500      -999.2500         3.4240        66.1775     
 7396.5000      -999.2500      -999.2500        78.3356        24.4840      -999.2500         3.3611      -999.2500      -999.2500         3.7425        65.6298     
 7397.0000      -999.2500      -999.2500        77.4708        23.8485      -999.2500         3.4196      -999.2500      -999.2500         4.1297        64.6928     
 7397.5000      -999.2500      -999.2500        77.5240        23.9859      -999.2500         3.5079      -999.2500      -999.2500         4.1026        63.2499     
 7398.0000      -999.2500      -999.2500        78.0988        23.8278      -999.2500         3.6119      -999.2500      -999.2500         3.7384        62.1974     
 7398.5000      -999.2500      -999.2500        78.4325        23.3785      -999.2500         3.6982      -999.2500      -999.2500         3.5448        62.3908     
 7399.0000      -999.2500      -999.2500        78.0610        23.4742      -999.2500         3.7558      -999.2500      -999.2500         3.6942        62.9898     
 7399.5000      -999.2500      -999.2500        77.4191        23.3893      -999.2500         3.7767      -999.2500      -999.2500         4.0432        63.5412     
 7400.0000      -999.2500      -999.2500        77.1034        22.5096      -999.2500         3.7846      -999.2500      -999.2500         4.1611        63.9354     
 7400.5000      -999.2500      -999.2500        77.5894        22.6438      -999.2500         3.8008      -999.2500      -999.2500         3.9688        63.8747     
 7401.0000      -999.2500      -999.2500        78.7016        24.0068      -999.2500         3.7988      -999.2500      -999.2500         3.7537        63.6223     
 7401.5000      -999.2500      -999.2500        78.5011        24.7665      -999.2500         3.7844      -999.2500      -999.2500         3.7008        63.6902     
