~Version Information Section
VERS.          2.0                                     : CWLS LOG ASCII Standard
WRAP.          NO                                      : One line per depth step
CREA.          03/08/17                                : LAS Creation Date
~Well Information Section
STRT.ft        542.0000                                : Start Depth
STOP.ft        10486.0000                              : Stop Depth
STEP.ft        0.5000                                  : Step
NULL.          -999.2500                               : Null Value
COMP.          TEXACO PRODUCTION SERVICES LTD          : Company
WELL.          14/20-10                                : Well
FLD .          MORAY FIRTH                             : Field
LOC .          NORTH SEA                               : Location
LOC1.          -                                       : Location (UTM)
CTRY.          UK                                      : Country
PROV.          UKCS                                    : Province
UWI .          854                                     : UWI Number
API .          -                                       : API Number
SECT.          -                                       : Section
TOWN.          -                                       : Township
RNGE.          -                                       : Range
PDAT.          MSL                                     : Perm Datum
EPD .ft        0.0                                     : Elevation
LMF .          KB                                      : Log Measured From
DMF .          RT                                      : Drill Measured From
APD .ft        86.0                                    : Above Perm Datum
EKB .ft        86.0                                    : Elev-Kelly Bushing
EDF .ft        84.0                                    : Elev-Drill Floor
EGL .ft        -437.0                                  : Elev-Ground Level (Water Depth)
TDD .ft        10500.0                                 : Total Depth (Driller)
SRVC.          SCHLUMBERGER                            : Service Company
LATI.          58 21 15.10" N                          : Latitude
LONG.          00 07 19.40" W                          : Longitude
DATE.          FEB-MAR-1979                            : Logging Date
PROJ.          UKCS                                    : Project
SET .          COMP_WIRE                               : Set
~Curve Information Section
DEPTH.ft                                               : Depth Curve
CALI.in                                                : Caliper (FDC/CNL/GR)
DRHO.g/cc                                              : Delta Rho
DT.us/ft                                               : Delta-T
GR.gAPI                                                : Gamma Ray (ISF/BHC/GR)
GRD.gAPI                                               : Gamma Ray (FDC/CNL/GR)
ILD.Ohmm                                               : Deep Induction Standard Processed Resistivity
NPHI.LPU                                               : Neutron Porosity
RHOB.g/cc                                              : Bulk Density
SFL.Ohmm                                               : Spherically Focussed Log
SP.mV                                                  : Spontaneous Potential
~ASCII Log Data Section
# ...
 8798.5000        10.9878         0.1849       100.9865        63.3821        64.7330         1.2278        32.7893         2.3515         1.3310        73.9793     
 8799.0000        11.1146         0.1477        93.8343        62.6390        62.7547         1.2841        30.0841         2.3292         1.6596        74.2933     
 8799.5000        11.0618         0.1547        87.4538        61.4196        59.4237         1.3077        26.6323         2.2994         2.2297        74.5357     
 8800.0000        11.0317         0.1917        88.1562        60.6804        52.8441         1.3100        21.1115         2.3217         2.6384        74.8333     
 8800.5000        11.3264         0.1887        93.3436        60.4110        54.3521         1.3123        24.3846         2.3195         2.2801        75.2222     
 8801.0000        11.7490         0.1720        99.4654        60.9523        57.4611         1.3013        29.7955         2.2984         1.4581        75.6840     
 8801.5000        12.0488         0.1518       106.3876        62.3884        60.1080         1.2660        34.8609         2.2609         1.0297        76.2211     
 8802.0000        11.7730         0.1283       110.4149        63.1083        61.2544         1.2080        36.2425         2.2247         0.9995        76.6582     
 8802.5000        11.5848         0.1104       110.0351        61.7992        60.4314         1.1263        36.5634         2.2027         1.0285        76.9384     
 8803.0000        11.6365         0.1100       108.3575        60.1970        58.5744         1.0272        37.8493         2.1832         1.0750        77.2629     
 8803.5000        11.8045         0.1153       109.0407        59.9038        56.7955         0.9184        39.4627         2.1623         1.1329        77.7130     
 8804.0000        11.6017         0.1143       112.0801        59.6113        55.5908         0.8159        41.2067         2.1318         1.1946        78.3946     
 8804.5000        11.4520         0.1567       115.4776        57.5052        54.5406         0.7465        43.1002         2.1376         1.2310        78.9784     
 8805.0000        11.4263         0.1628       119.5957        55.0361        53.0030         0.7089        45.1241         2.1155         1.2038        79.2285     
 8805.5000        11.6581         0.1300       122.0927        53.2260        50.6218         0.6794        46.6330         2.1209         1.0647        79.4698     
 8806.0000        12.0941         0.1437       120.2576        51.6932        50.4786         0.6532        46.1049         2.1418         0.9053        79.6562     
 8806.5000        11.9584         0.2207       117.7980        51.8948        53.5104         0.6452        44.8939         2.1757         0.8315        79.7346     
 8807.0000        11.9014         0.2136       115.9332        53.3041        57.6199         0.6660        42.6338         2.1416         0.7919        79.7525     
 8807.5000        11.9447         0.1891       113.5719        54.5816        59.7554         0.7359        40.1556         2.1348         0.7507        79.7377     
 8808.0000        11.8386         0.1703       111.5005        54.7469        60.3260         0.8202        37.2487         2.1979         0.7930        79.7229     
 8808.5000        11.8350         0.1710       107.2207        53.5325        58.3533         0.8851        34.0369         2.2344         0.9340        79.7081     
 8809.0000        11.8714         0.1510       101.4866        51.8246        54.2732         0.9500        30.9097         2.2664         1.0882        79.6933     
 8809.5000        11.9681         0.1588        98.1494        50.2792        51.1981         1.0153        29.2653         2.3361         1.2335        79.6785     
 8810.0000        12.2499         0.1808        97.4280        48.3728        53.0794         1.0823        29.1024         2.3879         1.3377        79.5872     
 8810.5000        12.0067         0.2005        97.7870        46.6788        54.8216         1.1509        28.2753         2.4245         1.3995        79.3855     
 8811.0000        11.5560         0.1886        97.7709        45.8046        52.1074         1.2196        27.0912         2.4305         1.4360        79.1878     
 8811.5000        11.7905         0.1633        97.3964        45.5013        49.7228         1.2813        26.6182         2.4094         1.4523        79.0597     
 8812.0000        11.4758         0.1714        97.3248        45.8874        48.2511         1.3241        26.1825         2.4226         1.4276        79.0042     
 8812.5000        11.4397         0.1920        97.9263        46.4339        46.2606         1.3197        27.5212         2.4538         1.3606        78.9895     
 8813.0000        11.4698         0.1808        99.1366        46.6561        44.4035         1.2839        28.7547         2.4303         1.3171        79.1271     
 8813.5000        11.4837         0.1890       100.2930        46.5838        45.1795         1.2477        28.4123         2.4106         1.3343        79.5261     
 8814.0000        11.6778         0.1647       100.6764        46.4966        46.0889         1.2095        28.5044         2.3968         1.3878        79.9072     
 8814.5000        12.0616         0.1362        99.9776        46.7468        46.1656         1.1864        29.6570         2.4088         1.4016        80.1710     
 8815.0000        11.9811         0.1230        99.3443        47.2907        45.8611         1.1858        31.2499         2.4139         1.3332        80.5537     
 8815.5000        11.8312         0.1408       100.0248        47.5946        47.1725         1.2105        33.0352         2.3845         1.2386        80.8466     
 8816.0000        11.6759         0.1503       100.9012        47.2189        49.3918         1.2331        34.3460         2.3587         1.1743        80.3698     
 8816.5000        11.9030         0.1176       100.5221        46.1229        49.8129         1.2323        33.1459         2.3350         1.1907        79.0268     
 8817.0000        11.8840         0.1234        99.4464        45.2174        48.5719         1.2231        31.2217         2.3512         1.3061        77.5128     
 8817.5000        12.1157         0.1522       100.5593        45.2724        49.4245         1.2096        29.8104         2.4159         1.4424        76.7077     
 8818.0000        12.2740         0.1721       101.2591        47.1869        48.5959         1.1935        30.0876         2.4467         1.5346        77.0069     
 8818.5000        11.9267         0.1750       101.0338        49.6273        47.3790         1.1721        31.4832         2.4348         1.5013        77.7878     
 8819.0000        11.5290         0.1416       102.9947        51.1132        49.4627         1.1401        32.3940         2.3972         1.3531        78.3503     
 8819.5000        11.7652         0.1222       105.2469        53.0026        51.6972         1.0968        34.1054         2.3524         1.2207        78.3411     
 8820.0000        12.2972         0.1423       106.5504        55.5421        52.8814         1.0437        36.1537         2.3432         1.1057        77.8499     
 8820.5000        12.7977         0.1550       107.3354        57.9936        53.5063         0.9888        37.6648         2.2951         1.0166        77.5543     
 8821.0000        12.9097         0.1720       108.4131        58.7936        55.1439         0.9377        36.9558         2.2688         0.9888        77.5843     
 8821.5000        12.6689         0.1555       110.9533        57.5684        56.9273         0.8817        36.5410         2.2407         0.9906        77.6928     
 8822.0000        12.8800         0.1327       112.4011        56.1450        56.8469         0.8251        38.0794         2.2368         0.9923        77.8468     
 8822.5000        13.3487         0.1476       112.0040        55.8343        56.8840         0.7772        41.6725         2.2307         0.9369        78.0246     
