~Version Information Section
VERS.          2.0                                     : CWLS LOG ASCII Standard
WRAP.          NO                                      : One line per depth step
CREA.          03/08/17                                : LAS Creation Date
~Well Information Section
STRT.ft        542.0000                                : Start Depth
STOP.ft        10486.0000                              : Stop Depth
STEP.ft        0.5000                                  : Step
NULL.          -999.2500                               : Null Value
COMP.          TEXACO PRODUCTION SERVICES LTD          : Company
WELL.          14/20-10                                : Well
FLD .          MORAY FIRTH                             : Field
LOC .          NORTH SEA                               : Location
LOC1.          -                                       : Location (UTM)
CTRY.          UK                                      : Country
PROV.          UKCS                                    : Province
UWI .          854                                     : UWI Number
API .          -                                       : API Number
SECT.          -                                       : Section
TOWN.          -                                       : Township
RNGE.          -                                       : Range
PDAT.          MSL                                     : Perm Datum
EPD .ft        0.0                                     : Elevation
LMF .          KB                                      : Log Measured From
DMF .          RT                                      : Drill Measured From
APD .ft        86.0                                    : Above Perm Datum
EKB .ft        86.0                                    : Elev-Kelly Bushing
EDF .ft        84.0                                    : Elev-Drill Floor
EGL .ft        -437.0                                  : Elev-Ground Level (Water Depth)
TDD .ft        10500.0                                 : Total Depth (Driller)
SRVC.          SCHLUMBERGER                            : Service Company
LATI.          58 21 15.10" N                          : Latitude
LONG.          00 07 19.40" W                          : Longitude
DATE.          FEB-MAR-1979                            : Logging Date
PROJ.          UKCS                                    : Project
SET .          COMP_WIRE                               : Set
~Curve Information Section
DEPTH.ft                                               : Depth Curve
CALI.in                                                : Caliper (FDC/CNL/GR)
DRHO.g/cc                                              : Delta Rho
DT.us/ft                                               : Delta-T
GR.gAPI                                                : Gamma Ray (ISF/BHC/GR)
GRD.gAPI                                               : Gamma Ray (FDC/CNL/GR)
ILD.Ohmm                                               : Deep Induction Standard Processed Resistivity
NPHI.LPU                                               : Neutron Porosity
RHOB.g/cc                                              : Bulk Density
SFL.Ohmm                                               : Spherically Focussed Log
SP.mV                                                  : Spontaneous Potential
~ASCII Log Data Section
# ...
 9509.0000         8.8255         0.0282        79.6149        93.9202        91.9085         5.1004        19.7631         2.5177         7.4933        73.6380     
 9509.5000         8.8300         0.0160        79.9988        93.3160        93.7049         5.0306        20.9273         2.5148         6.7550        74.0035     
 9510.0000         8.8348         0.0111        80.6135        94.6330        95.5013         5.0117        22.1387         2.4927         5.9761        74.1869     
 9510.5000         8.8395         0.0076        81.2128        97.0249        97.0817         5.0976        22.0782         2.4542         5.4930        73.9828     
 9511.0000         8.8446         0.0056        81.4012        98.7484        98.0245         5.2118        21.2786         2.4312         5.3010        73.5490     
 9511.5000         8.8514         0.0114        80.8356        98.9881        98.9947         5.2354        20.8789         2.4360         5.4923        73.2418     
 9512.0000         8.8585         0.0194        79.6240        96.8374        99.3472         5.2278        19.8650         2.4573         5.9269        73.4570     
 9512.5000         8.8558         0.0239        77.7327        93.6383        96.4668         5.3287        18.7542         2.4728         6.4380        73.8802     
 9513.0000         8.8252         0.0187        76.5322        91.3954        91.2881         5.5721        19.1681         2.4731         8.0516        74.1055     
 9513.5000         8.7928         0.0121        76.7976        91.8167        90.9961         5.8665        20.3371         2.4883         9.6963        74.2456     
 9514.0000         8.7838         0.0086        78.1638        96.3609        98.7950         6.1207        21.0952         2.5133         9.4623        74.2430     
 9514.5000         8.7838         0.0127        78.6831       102.1837       107.2185         6.2471        20.5296         2.5025         8.4328        74.1752     
 9515.0000         8.7865         0.0205        77.3761       104.3361       104.6116         6.2287        19.4353         2.4729         7.8229        74.2413     
 9515.5000         8.7913         0.0261        77.1141       102.6650        99.9203         6.1065        19.3892         2.4594         7.7876        74.3852     
 9516.0000         8.7961         0.0313        78.6870       100.5048        96.6605         5.8764        20.5420         2.4971         8.1101        74.5340     
 9516.5000         8.8008         0.0273        80.8424       100.4410        98.5534         5.6129        22.3635         2.5064         8.0206        74.7876     
 9517.0000         8.8035         0.0239        83.0003       101.7753       104.1437         5.4234        23.7558         2.4999         7.4111        75.1157     
 9517.5000         8.8035         0.0332        84.2743       102.0934       108.0031         5.3795        23.0519         2.5233         6.8793        75.2708     
 9518.0000         8.8015         0.0088        83.9256       102.2813       105.0778         5.4246        21.9044         2.5171         6.4506        75.0912     
 9518.5000         8.7951         0.0087        82.1992       101.8916       105.4329         5.4730        20.9521         2.5282         6.3906        74.2391     
 9519.0000         8.7887         0.0091        79.9952        99.3360        98.7545         5.4984        20.3256         2.5434         6.7229        72.9635     
 9519.5000         8.7836         0.0129        78.1821        96.0168        91.9861         5.5108        18.4078         2.5615         7.2246        72.1085     
 9520.0000         8.7832         0.0258        77.4486        93.0673        88.0798         5.5439        17.9502         2.5701         7.9383        72.0108     
 9520.5000         8.7831         0.0265        78.6773        91.0071        85.2316         5.6275        19.6716         2.5459         8.2373        72.5866     
 9521.0000         8.7860         0.0175        80.6623        91.5913        88.4836         5.7578        21.0322         2.5156         7.7929        73.4672     
 9521.5000         8.7987         0.0088        81.8138        94.6157        95.5058         5.8481        21.3782         2.4709         7.0407        74.3851     
 9522.0000         8.8121         0.0166        81.6052        97.2695        96.6099         5.8097        20.5547         2.4714         6.2998        74.9864     
 9522.5000         8.8255         0.0101        79.5686        96.4471        95.4873         5.6171        19.0259         2.4761         6.1987        75.2570     
 9523.0000         8.8389         0.0107        78.0553        93.7505        93.3550         5.3666        18.8701         2.4798         6.8482        75.2428     
 9523.5000         8.8391         0.0204        79.0213        92.7385        91.2651         5.2047        20.2125         2.5111         7.6885        75.0180     
 9524.0000         8.8338         0.0138        81.9149        93.6156        91.5395         5.1980        22.0345         2.4992         8.2920        74.8775     
 9524.5000         8.8285         0.0080        85.3490        96.4390        97.1922         5.3020        24.0153         2.4931         8.3108        74.8015     
 9525.0000         8.8232         0.0209        88.2013       100.5110       104.4059         5.4459        26.0396         2.4916         7.8000        74.7331     
 9525.5000         8.8179         0.0141        89.0261       102.7860       108.0435         5.5887        26.1751         2.4656         6.9473        74.5912     
 9526.0000         8.8125         0.0132        86.1575       101.5721       105.3749         5.6950        25.0104         2.4661         6.4738        74.4903     
 9526.5000         8.8072         0.0136        83.3092        98.3045       100.1865         5.7369        23.9230         2.4728         6.9270        74.6832     
 9527.0000         8.8019         0.0092        82.9112        94.2953        95.9074         5.8365        24.5021         2.4856         7.6728        74.8514     
 9527.5000         8.7966         0.0156        83.1521        91.2896        94.8395         6.0113        24.8173         2.4877         7.6710        74.6464     
 9528.0000         8.7913         0.0184        83.2027        89.8475        94.1291         6.1075        23.6538         2.4663         7.0497        74.1986     
 9528.5000         8.7859         0.0360        81.8345        88.4341        92.8359         6.0616        21.5562         2.4736         7.0306        73.6218     
 9529.0000         8.7804         0.0288        79.3089        86.5620        91.2182         5.9106        18.6264         2.4766         8.1889        73.1685     
 9529.5000         8.7741         0.0109        77.4073        84.7541        85.8412         5.6969        18.8976         2.4945         9.5203        72.9698     
 9530.0000         8.7678         0.0166        77.8658        84.1331        81.8217         5.4440        20.7980         2.5225         9.1173        72.8545     
 9530.5000         8.7615         0.0114        79.8820        86.3761        90.8393         5.2448        22.4006         2.5146         7.4955        72.5572     
 9531.0000         8.7552         0.0052        81.5372        90.6381        99.8631         5.1276        22.4478         2.4760         6.2766        72.0477     
 9531.5000         8.7489         0.0304        82.6981        95.2233       103.5311         5.0291        22.0237         2.4601         5.7598        71.6035     
 9532.0000         8.7426         0.0318        83.3479        98.9616       107.2050         4.9116        21.5100         2.4655         5.5533        71.3049     
 9532.5000         8.7363         0.0314        82.9824       100.9848       108.1874         4.7997        21.1143         2.4809         5.3514        70.9807     
 9533.0000         8.7300         0.0365        81.8773       100.6900       105.1785         4.7291        19.9877         2.4791         5.3277        70.5332     
