~Version Information Section
VERS.          2.0                                     : CWLS LOG ASCII Standard
WRAP.          NO                                      : One line per depth step
CREA.          03/08/17                                : LAS Creation Date
~Well Information Section
STRT.ft        542.0000                                : Start Depth
STOP.ft        10486.0000                              : Stop Depth
STEP.ft        0.5000                                  : Step
NULL.          -999.2500                               : Null Value
COMP.          TEXACO PRODUCTION SERVICES LTD          : Company
WELL.          14/20-10                                : Well
FLD .          MORAY FIRTH                             : Field
LOC .          NORTH SEA                               : Location
LOC1.          -                                       : Location (UTM)
CTRY.          UK                                      : Country
PROV.          UKCS                                    : Province
UWI .          854                                     : UWI Number
API .          -                                       : API Number
SECT.          -                                       : Section
TOWN.          -                                       : Township
RNGE.          -                                       : Range
PDAT.          MSL                                     : Perm Datum
EPD .ft        0.0                                     : Elevation
LMF .          KB                                      : Log Measured From
DMF .          RT                                      : Drill Measured From
APD .ft        86.0                                    : Above Perm Datum
EKB .ft        86.0                                    : Elev-Kelly Bushing
EDF .ft        84.0                                    : Elev-Drill Floor
EGL .ft        -437.0                                  : Elev-Ground Level (Water Depth)
TDD .ft        10500.0                                 : Total Depth (Driller)
SRVC.          SCHLUMBERGER                            : Service Company
LATI.          58 21 15.10" N                          : Latitude
LONG.          00 07 19.40" W                          : Longitude
DATE.          FEB-MAR-1979                            : Logging Date
PROJ.          UKCS                                    : Project
SET .          COMP_WIRE                               : Set
~Curve Information Section
DEPTH.ft                                               : Depth Curve
CALI.in                                                : Caliper (FDC/CNL/GR)
DRHO.g/cc                                              : Delta Rho
DT.us/ft                                               : Delta-T
GR.gAPI                                                : Gamma Ray (ISF/BHC/GR)
GRD.gAPI                                               : Gamma Ray (FDC/CNL/GR)
ILD.Ohmm                                               : Deep Induction Standard Processed Resistivity
NPHI.LPU                                               : Neutron Porosity
RHOB.g/cc                                              : Bulk Density
SFL.Ohmm                                               : Spherically Focussed Log
SP.mV                                                  : Spontaneous Potential
~ASCII Log Data Section
# ...
 8553.5000         8.7956         0.0048        81.4957        33.0960        30.8934         2.3216        20.8797         2.5688         2.5176        74.6212     
 8554.0000         8.7269         0.0029        80.7006        32.0762        30.9379         2.3529        20.4936         2.5662         2.7208        74.4884     
 8554.5000         8.6968         0.0113        80.1917        30.5675        30.4169         2.3982        20.2445         2.5718         2.9562        74.0547     
 8555.0000         8.6891         0.0196        79.9504        30.0592        30.5696         2.4523        19.9223         2.5838         3.0539        72.8402     
 8555.5000         8.6887         0.0147        79.8437        30.7373        32.7741         2.5164        19.9959         2.5894         2.9932        70.8367     
 8556.0000         8.6693         0.0065        79.4391        31.6694        31.7586         2.6049        20.3025         2.5719         2.9755        69.8217     
 8556.5000         8.6408        -0.0008        78.6374        32.1486        30.5691         2.6934        20.6071         2.5561         3.1246        70.5274     
 8557.0000         8.6141        -0.0001        78.1327        32.2779        30.4153         2.7642        20.7721         2.5608         3.3735        71.5352     
 8557.5000         8.6282         0.0094        78.1987        32.2021        30.9739         2.8344        20.7033         2.5674         3.4782        72.4091     
 8558.0000         8.6336         0.0152        78.4137        31.5725        32.1091         2.8983        20.3717         2.5927         3.4303        73.0952     
 8558.5000         8.6344         0.0164        78.9117        30.9503        33.5274         2.9534        19.9100         2.6118         3.5186        73.5152     
 8559.0000         8.6410         0.0113        79.3744        31.2126        36.7337         2.9844        19.7448         2.5974         3.6878        73.8584     
 8559.5000         8.6504         0.0077        79.5446        31.7786        40.2528         2.9689        19.8814         2.5835         3.7173        74.1512     
 8560.0000         8.6523         0.0136        79.8036        32.8266        39.3361         2.9185        20.2597         2.5984         3.6200        74.3928     
 8560.5000         8.6421         0.0238        80.1265        34.1023        37.5435         2.8376        20.7296         2.6134         3.4453        74.6079     
 8561.0000         8.6430         0.0167        80.4958        34.7169        37.8213         2.7580        21.2045         2.6021         3.2438        74.8245     
 8561.5000         8.6524         0.0157        80.7107        34.9311        37.6854         2.7030        21.3570         2.6023         3.0974        74.9208     
 8562.0000         8.6538         0.0126        81.0826        35.1443        36.7065         2.6611        21.0231         2.5867         2.9699        74.8404     
 8562.5000         8.6325         0.0083        81.4362        35.2241        36.2446         2.6296        19.7312         2.5796         2.8866        74.6177     
 8563.0000         8.6210         0.0116        81.0974        34.2110        36.1640         2.6045        18.5627         2.5829         2.9559        74.2782     
 8563.5000         8.6219         0.0202        80.5785        32.7512        35.5169         2.5881        20.0152         2.5936         3.1373        73.9074     
 8564.0000         8.6390         0.0288        80.2975        31.8863        35.0859         2.5786        20.4668         2.6109         3.3655        73.3102     
 8564.5000         8.6657         0.0282        80.3800        31.5595        37.0721         2.5744        19.9917         2.6192         3.4220        72.5529     
 8565.0000         8.6804         0.0351        80.8220        32.3147        37.9137         2.5646        19.8663         2.6303         3.2716        71.7635     
 8565.5000         8.6701         0.0442        81.4176        33.6465        37.8729         2.5411        19.6940         2.6194         3.0771        71.4190     
 8566.0000         8.6485         0.0466        81.8289        34.1066        35.0801         2.5080        19.2866         2.6089         2.8812        72.2631     
 8566.5000         8.6169         0.0418        81.9944        33.3894        31.9336         2.4820        19.1759         2.5878         2.7738        73.4774     
 8567.0000         8.6070         0.0333        82.0831        31.4430        30.4042         2.4727        19.0889         2.5617         2.7423        74.1172     
 8567.5000         8.6077         0.0176        82.0500        29.1728        29.9241         2.4895        19.1093         2.5407         2.7534        73.9396     
 8568.0000         8.6137         0.0042        81.8337        27.3944        30.7205         2.5279        19.3052         2.5288         2.8261        73.0312     
 8568.5000         8.6237        -0.0007        81.5168        25.9074        32.5961         2.5694        19.2291         2.5222         2.9213        72.4533     
 8569.0000         8.6216         0.0056        80.9862        24.4690        32.4054         2.6159        19.0832         2.5334         2.9874        73.0051     
 8569.5000         8.6022         0.0168        80.2456        23.1155        31.7529         2.6600        19.4393         2.5708         3.1263        73.9223     
 8570.0000         8.5915         0.0326        79.8016        22.7595        30.9149         2.6845        19.5265         2.5893         3.3749        74.3089     
 8570.5000         8.5922         0.0428        79.7189        23.1664        31.2839         2.6980        19.1311         2.5986         3.5291        74.1746     
 8571.0000         8.5948         0.0296        79.8768        23.9011        32.0144         2.7049        18.6245         2.5824         3.4644        73.9129     
 8571.5000         8.6020         0.0118        80.3395        25.1645        31.7986         2.6844        18.6274         2.5600         3.3122        73.6194     
 8572.0000         8.6091         0.0061        80.6614        26.5389        31.3811         2.6491        18.9961         2.5506         3.2081        72.6479     
 8572.5000         8.6217         0.0024        80.6785        27.4308        31.8975         2.6198        19.1268         2.5402         3.1389        71.5183     
 8573.0000         8.6628        -0.0045        81.2489        28.2581        31.3828         2.5975        18.8113         2.5131         3.0522        71.1528     
 8573.5000         8.7035         0.0023        81.8336        29.4840        30.5813         2.5956        18.5734         2.5079         2.9175        71.3954     
 8574.0000         8.7249         0.0330        82.1541        30.0853        30.2861         2.6092        18.6373         2.5220         2.7712        72.1552     
 8574.5000         8.7366         0.0525        82.3793        30.0307        31.1225         2.6220        18.6139         2.5286         2.7150        73.2525     
 8575.0000         8.7461         0.0398        81.8910        29.9141        32.6248         2.6278        18.4466         2.5258         2.8630        74.2542     
 8575.5000         8.7552         0.0406        80.9532        29.8934        31.5957         2.6192        18.7824         2.5377         3.2009        74.6314     
 8576.0000         8.7644         0.0460        80.3208        31.2182        30.8365         2.6052        18.9320         2.5496         3.4338        74.4199     
 8576.5000         8.7735         0.0491        80.5510        33.0968        30.5329         2.5982        18.8870         2.5594         3.3367        74.0327     
 8577.0000         8.7827         0.0651        81.5629        33.6230        30.0215         2.6033        19.4327         2.5795         3.0186        73.8629     
 8577.5000         8.7936         0.0853        82.4146        32.9850        30.6842         2.6195        19.4426         2.6004         2.7297        74.1459     
