~Version Information Section
VERS.          2.0                                     : CWLS LOG ASCII Standard
WRAP.          NO                                      : One line per depth step
CREA.          03/08/17                                : LAS Creation Date
~Well Information Section
STRT.ft        542.0000                                : Start Depth
STOP.ft        10486.0000                              : Stop Depth
STEP.ft        0.5000                                  : Step
NULL.          -999.2500                               : Null Value
COMP.          TEXACO PRODUCTION SERVICES LTD          : Company
WELL.          14/20-10                                : Well
FLD .          MORAY FIRTH                             : Field
LOC .          NORTH SEA                               : Location
LOC1.          -                                       : Location (UTM)
CTRY.          UK                                      : Country
PROV.          UKCS                                    : Province
UWI .          854                                     : UWI Number
API .          -                                       : API Number
SECT.          -                                       : Section
TOWN.          -                                       : Township
RNGE.          -                                       : Range
PDAT.          MSL                                     : Perm Datum
EPD .ft        0.0                                     : Elevation
LMF .          KB                                      : Log Measured From
DMF .          RT                                      : Drill Measured From
APD .ft        86.0                                    : Above Perm Datum
EKB .ft        86.0                                    : Elev-Kelly Bushing
EDF .ft        84.0                                    : Elev-Drill Floor
EGL .ft        -437.0                                  : Elev-Ground Level (Water Depth)
TDD .ft        10500.0                                 : Total Depth (Driller)
SRVC.          SCHLUMBERGER                            : Service Company
LATI.          58 21 15.10" N                          : Latitude
LONG.          00 07 19.40" W                          : Longitude
DATE.          FEB-MAR-1979                            : Logging Date
PROJ.          UKCS                                    : Project
SET .          COMP_WIRE                               : Set
~Curve Information Section
DEPTH.ft                                               : Depth Curve
CALI.in                                                : Caliper (FDC/CNL/GR)
DRHO.g/cc                                              : Delta Rho
DT.us/ft                                               : Delta-T
GR.gAPI                                                : Gamma Ray (ISF/BHC/GR)
GRD.gAPI                                               : Gamma Ray (FDC/CNL/GR)
ILD.Ohmm                                               : Deep Induction Standard Processed Resistivity
NPHI.LPU                                               : Neutron Porosity
RHOB.g/cc                                              : Bulk Density
SFL.Ohmm                                               : Spherically Focussed Log
SP.mV                                                  : Spontaneous Potential
~ASCII Log Data Section
# ...
 8333.0000         9.2617         0.0441        70.7637        18.6329        21.5476         4.2302        12.8390         2.6860         5.7231        70.5721     
 8333.5000         9.2636         0.0522        71.3189        20.5279        21.7289         4.0934        13.4035         2.6700         5.1154        70.2255     
 8334.0000         9.2655         0.0303        72.2241        21.9636        22.3819         3.9727        14.1250         2.6460         4.3787        70.1622     
 8334.5000         9.2675         0.0216        72.8974        22.1261        23.5476         3.8601        14.5335         2.6276         3.9373        70.1622     
 8335.0000         9.2694         0.0195        73.4174        20.9952        23.5952         3.7586        14.6518         2.6163         3.8177        70.1163     
 8335.5000         9.2713         0.0348        73.6807        19.7704        23.2150         3.6847        14.7115         2.6276         3.8396        70.1951     
 8336.0000         9.2732         0.0227        73.5387        19.4193        23.0801         3.6446        14.7630         2.6003         3.9577        70.3039     
 8336.5000         9.2753         0.0145        73.2558        19.5150        22.5373         3.6409        14.5637         2.6078         4.1383        70.0439     
 8337.0000         9.2794         0.0147        73.2307        19.5477        21.0224         3.6593        14.1482         2.6089         4.3446        69.5650     
 8337.5000         9.2835         0.0040        73.2128        19.0799        20.4384         3.6765        13.3140         2.6066         4.4648        69.3951     
 8338.0000         9.2876        -0.0027        73.1292        19.1588        20.9974         3.6824        13.3997         2.5976         4.4141        69.5440     
 8338.5000         9.2917         0.0027        73.2004        20.1916        21.9042         3.6701        13.7886         2.5965         4.3034        69.6831     
 8339.0000         9.2958         0.0112        73.5159        20.9795        22.7348         3.6418        14.2888         2.6084         4.1583        69.9314     
 8339.5000         9.2999         0.0179        74.0373        21.7136        23.1754         3.5825        14.8583         2.6181         3.9858        70.3763     
 8340.0000         9.3040         0.0302        74.5344        22.4512        23.5160         3.4989        15.0029         2.6264         3.8602        70.7049     
 8340.5000         9.3081         0.0294        74.7697        23.0312        24.0702         3.4185        14.8444         2.6150         3.8130        70.8133     
 8341.0000         9.3122         0.0049        74.7519        23.6075        25.1373         3.3453        15.1535         2.6089         3.8646        70.7218     
 8341.5000         9.3163         0.0173        74.8597        24.0396        25.9923         3.2749        15.2782         2.6031         3.9621        70.6580     
 8342.0000         9.3173         0.0210        75.1246        24.1725        26.3636         3.1894        14.9604         2.6157         3.9956        70.5369     
 8342.5000         9.3175         0.0147        75.4967        24.1824        25.9733         3.0902        14.5637         2.6199         3.8762        70.3369     
 8343.0000         9.3177         0.0232        75.9609        24.8068        26.1371         2.9890        14.8450         2.6186         3.6696        70.3102     
 8343.5000         9.3179         0.0241        76.3250        26.0747        26.2827         2.8986        15.2990         2.6098         3.4761        70.3798     
 8344.0000         9.3181         0.0133        77.2931        27.1806        26.1793         2.8344        15.2796         2.6229         3.3110        70.4328     
 8344.5000         9.3183         0.0298        78.2730        27.7664        26.3416         2.8242        15.9152         2.6293         3.2206        70.6695     
 8345.0000         9.3185         0.0231        78.6272        28.0165        27.3983         2.8753        16.7252         2.6293         3.2345        70.9036     
 8345.5000         9.3199         0.0130        79.0231        28.4741        28.2871         2.9509        17.5845         2.6090         3.2662        70.8083     
 8346.0000         9.3257         0.0183        79.0024        28.7296        27.9750         3.0309        17.7394         2.5923         3.2869        70.4998     
 8346.5000         9.3316         0.0098        78.1226        27.6351        27.0698         3.1028        17.6214         2.5678         3.3790        70.4044     
 8347.0000         9.3374         0.0001        76.8864        25.7423        26.1000         3.1637        16.9456         2.5772         3.5810        70.5703     
 8347.5000         9.3432         0.0036        75.7608        24.3625        24.8537         3.2230        16.2698         2.5987         3.8655        70.7462     
 8348.0000         9.3490         0.0065        75.1784        23.7619        24.4136         3.2987        15.5939         2.6115         4.1446        70.7983     
 8348.5000         9.3548         0.0107        75.3468        23.5949        24.2778         3.4047        15.2966         2.6165         4.2735        70.7018     
 8349.0000         9.3607         0.0024        75.8941        23.2841        24.8935         3.4970        15.8812         2.5987         4.1438        70.9350     
 8349.5000         9.3665        -0.0094        76.6278        22.8136        26.1074         3.5405        16.3745         2.5896         3.9242        71.3741     
 8350.0000         9.3723        -0.0008        76.9669        22.9628        26.8071         3.5221        16.2886         2.5766         3.7828        71.7692     
 8350.5000         9.3781         0.0027        76.7551        23.7056        27.1459         3.4322        15.8993         2.5730         3.6789        72.0868     
 8351.0000         9.3783         0.0055        76.7105        24.0734        27.4771         3.3072        16.0428         2.5770         3.6573        72.0128     
 8351.5000         9.3752        -0.0020        77.0203        24.2630        27.6329         3.1788        16.8822         2.5531         3.7034        71.8055     
 8352.0000         9.3720         0.0094        77.6404        25.8735        28.2467         3.0629        17.1593         2.5722         3.7430        71.7176     
 8352.5000         9.3689         0.0160        78.6662        27.8031        29.1886         2.9674        16.7646         2.5877         3.7354        71.4706     
 8353.0000         9.3658         0.0163        79.6298        28.6116        29.7162         2.8901        17.4439         2.6062         3.6202        71.0468     
 8353.5000         9.3627         0.0241        80.2435        28.8340        31.0076         2.8314        18.9563         2.6174         3.2547        70.7640     
 8354.0000         9.3578         0.0188        80.5463        29.1862        32.4033         2.7869        19.4296         2.5949         2.8998        70.6173     
 8354.5000         9.3494         0.0150        80.5961        29.5689        32.7898         2.7511        19.3136         2.5856         2.8116        70.4366     
 8355.0000         9.3410         0.0158        80.4429        29.4091        32.3939         2.6979        18.5601         2.5748         2.9466        70.3052     
 8355.5000         9.3326         0.0186        80.0094        28.5803        31.1919         2.6380        17.8088         2.5874         3.2685        70.3444     
 8356.0000         9.3242         0.0231        79.6939        27.3883        29.9922         2.5968        18.1460         2.6063         3.5132        70.3893     
 8356.5000         9.3158         0.0237        79.9077        26.8850        29.0516         2.5626        19.1830         2.6108         3.4399        70.3737     
 8357.0000         9.3074         0.0121        80.4469        27.2519        29.3570         2.5455        20.0782         2.5882         3.1319        70.3810     
