~Version Information Section
VERS.          2.0                                     : CWLS LOG ASCII Standard
WRAP.          NO                                      : One line per depth step
CREA.          03/08/17                                : LAS Creation Date
~Well Information Section
STRT.ft        542.0000                                : Start Depth
STOP.ft        10486.0000                              : Stop Depth
STEP.ft        0.5000                                  : Step
NULL.          -999.2500                               : Null Value
COMP.          TEXACO PRODUCTION SERVICES LTD          : Company
WELL.          14/20-10                                : Well
FLD .          MORAY FIRTH                             : Field
LOC .          NORTH SEA                               : Location
LOC1.          -                                       : Location (UTM)
CTRY.          UK                                      : Country
PROV.          UKCS                                    : Province
UWI .          854                                     : UWI Number
API .          -                                       : API Number
SECT.          -                                       : Section
TOWN.          -                                       : Township
RNGE.          -                                       : Range
PDAT.          MSL                                     : Perm Datum
EPD .ft        0.0                                     : Elevation
LMF .          KB                                      : Log Measured From
DMF .          RT                                      : Drill Measured From
APD .ft        86.0                                    : Above Perm Datum
EKB .ft        86.0                                    : Elev-Kelly Bushing
EDF .ft        84.0                                    : Elev-Drill Floor
EGL .ft        -437.0                                  : Elev-Ground Level (Water Depth)
TDD .ft        10500.0                                 : Total Depth (Driller)
SRVC.          SCHLUMBERGER                            : Service Company
LATI.          58 21 15.10" N                          : Latitude
LONG.          00 07 19.40" W                          : Longitude
DATE.          FEB-MAR-1979                            : Logging Date
PROJ.          UKCS                                    : Project
SET .          COMP_WIRE                               : Set
~Curve Information Section
DEPTH.ft                                               : Depth Curve
CALI.in                                                : Caliper (FDC/CNL/GR)
DRHO.g/cc                                              : Delta Rho
DT.us/ft                                               : Delta-T
GR.gAPI                                                : Gamma Ray (ISF/BHC/GR)
GRD.gAPI                                               : Gamma Ray (FDC/CNL/GR)
ILD.Ohmm                                               : Deep Induction Standard Processed Resistivity
NPHI.LPU                                               : Neutron Porosity
RHOB.g/cc                                              : Bulk Density
SFL.Ohmm                                               : Spherically Focussed Log
SP.mV                                                  : Spontaneous Potential
~ASCII Log Data Section
# ...
 9264.0000         9.4666         0.1369        77.2809       118.0127       122.8751         5.3343        18.2443         2.4212         7.1737        72.8868     
 9264.5000         9.5085         0.0978        77.0566       120.1244       117.2639         5.5661        17.7554         2.4282         8.0364        73.5135     
 9265.0000         9.5808         0.0586        78.8905       124.8588       117.8104         5.7805        18.6741         2.4463         8.4014        74.0412     
 9265.5000         9.6792         0.0310        81.6596       130.1837       121.3561         5.9077        19.1220         2.4372         8.3214        74.4496     
 9266.0000         9.6513         0.0467        83.9487       135.5468       125.3696         5.8708        19.6301         2.4485         7.5426        74.7015     
 9266.5000         9.4516         0.0572        85.3431       140.7548       132.1584         5.7199        20.6222         2.4521         6.4362        74.8132     
 9267.0000         9.1796         0.0282        87.1649       145.2048       142.9590         5.5012        22.8191         2.4388         5.5906        74.8552     
 9267.5000         9.0931         0.0351        88.2761       147.0941       150.8486         5.2779        25.1218         2.4276         5.3311        74.9778     
 9268.0000         9.0747         0.0363        88.1164       144.7059       151.5569         5.1069        25.6818         2.3912         5.4037        75.2023     
 9268.5000         9.0825         0.0105        88.3785       139.7327       149.0977         4.9357        24.6258         2.3862         5.5059        75.4068     
 9269.0000         9.1222         0.0040        88.9346       134.1827       142.8825         4.7650        24.1385         2.3940         5.5766        75.5852     
 9269.5000         9.1953         0.0192        88.2843       130.4038       136.6098         4.6188        24.1543         2.4130         5.6143        75.7302     
 9270.0000         9.3695         0.0130        87.5729       128.3838       136.9129         4.5121        25.0345         2.4209         5.5815        75.5557     
 9270.5000         9.5173         0.0073        88.1638       126.4210       134.1808         4.4522        25.5628         2.4041         5.3491        75.0125     
 9271.0000         9.3977         0.0260        88.8400       124.1675       128.8297         4.4359        24.9369         2.4103         4.9582        74.5097     
 9271.5000         9.2715         0.0506        88.2290       121.0664       123.4769         4.4414        24.5976         2.3952         4.5925        74.3039     
 9272.0000         9.2563         0.0984        86.9216       118.6198       120.0657         4.4593        25.1312         2.4176         4.3323        74.6674     
 9272.5000         9.3527         0.1667        84.8920       118.6781       123.0664         4.5016        25.8332         2.4614         4.2502        75.3195     
 9273.0000         9.5029         0.1431        83.3429       119.4364       124.0764         4.5652        26.4231         2.4344         4.3753        75.7737     
 9273.5000         9.5557         0.1183        83.0325       117.6441       121.2629         4.6290        27.0540         2.3852         4.6059        75.9428     
 9274.0000         9.4224         0.0901        82.5025       114.4514       117.1570         4.6850        27.0743         2.3974         4.8128        75.9139     
 9274.5000         9.4239         0.0550        81.9746       111.8249       113.7083         4.7585        25.5238         2.3615         4.8773        75.8248     
 9275.0000         9.5961         0.0594        81.5610       108.4048       116.4763         4.8539        23.9620         2.3692         4.8558        75.6451     
 9275.5000         9.4483         0.1093        80.8262       103.8522       116.2729         4.9420        23.2627         2.4212         4.8601        75.3947     
 9276.0000         9.4128         0.1101        79.6404        99.7789       111.8495         5.0017        22.8267         2.4467         4.9373        75.1355     
 9276.5000         9.5678         0.0547        79.8796        96.6525       104.7952         5.0588        22.4893         2.4188         5.0869        74.9094     
 9277.0000         9.4930         0.0399        82.2356        94.6438        97.1709         5.1322        21.9965         2.4130         5.2145        74.7241     
 9277.5000         9.3647         0.0631        84.8691        93.9663        89.6360         5.1549        21.7622         2.4298         5.1805        74.5686     
 9278.0000         9.3697         0.0549        87.6805        95.5488        90.4808         5.1291        23.3600         2.4197         4.9211        74.5536     
 9278.5000         9.4403         0.0723        88.9643        98.6185        98.5877         5.1033        24.7973         2.4440         4.5133        74.5526     
 9279.0000         9.5402         0.0422        88.1960       101.9227       101.9253         5.0928        25.2303         2.4439         4.2409        74.2907     
 9279.5000         9.5837         0.0738        88.1190       104.4637       105.2477         5.0942        25.7979         2.4430         4.2665        74.0723     
 9280.0000         9.7689         0.0735        89.6843       105.8907       108.3417         5.0457        26.9872         2.3899         4.3456        74.0987     
 9280.5000        10.1400         0.0744        91.6342       107.4425       107.9653         4.8506        28.2823         2.3589         4.1336        74.4695     
 9281.0000         9.7003         0.1365        91.4059       109.1743       106.2017         4.5797        29.3923         2.3460         3.7784        75.0306     
 9281.5000         9.6055         0.1209        89.9519       110.4444       107.2611         4.3610        29.2841         2.2809         3.6735        75.4383     
 9282.0000         9.4981         0.0652        90.5014       111.2051       109.5610         4.1885        28.2553         2.2313         3.7993        75.4284     
 9282.5000         9.7637         0.0836        90.9236       112.4538       109.8800         4.1248        28.4499         2.2831         3.9927        75.0497     
 9283.0000        10.2689         0.1650        89.0587       115.3939       110.1003         4.2282        29.7545         2.3435         4.1803        74.7040     
 9283.5000        10.6479         0.1692        87.1829       119.4538       111.2126         4.3893        29.9342         2.3271         4.3509        74.4741     
 9284.0000        10.9461         0.1931        86.3173       122.4142       114.1009         4.5044        28.7399         2.3082         4.4459        74.3932     
 9284.5000        11.1021         0.2023        85.8221       124.9899       117.4190         4.5817        27.1938         2.3053         4.5163        74.2988     
 9285.0000        10.2289         0.1807        85.4717       128.4242       120.7392         4.6869        26.5230         2.2948         4.6348        74.2447     
 9285.5000         9.9890         0.2059        85.4505       131.8065       123.7348         4.8481        25.9637         2.3291         4.8152        74.3814     
 9286.0000         9.8519         0.2009        84.9404       132.8833       126.2554         5.0300        25.2137         2.3577         5.0349        74.7275     
 9286.5000         9.7389         0.1754        83.7070       129.3108       129.7937         5.1789        24.7351         2.3954         5.2404        75.1029     
 9287.0000         9.2777         0.1489        82.5172       123.7384       128.7133         5.2738        23.9805         2.4290         5.4011        75.2285     
 9287.5000         9.2333         0.1001        81.5754       119.5297       118.5058         5.3243        22.6441         2.4029         5.4792        75.0383     
 9288.0000         9.2480         0.0407        81.2594       116.6811       115.3089         5.3185        21.4795         2.3621         5.4963        74.6074     
