~Version Information Section
VERS.          2.0                                     : CWLS LOG ASCII Standard
WRAP.          NO                                      : One line per depth step
CREA.          03/08/17                                : LAS Creation Date
~Well Information Section
STRT.ft        542.0000                                : Start Depth
STOP.ft        10486.0000                              : Stop Depth
STEP.ft        0.5000                                  : Step
NULL.          -999.2500                               : Null Value
COMP.          TEXACO PRODUCTION SERVICES LTD          : Company
WELL.          14/20-10                                : Well
FLD .          MORAY FIRTH                             : Field
LOC .          NORTH SEA                               : Location
LOC1.          -                                       : Location (UTM)
CTRY.          UK                                      : Country
PROV.          UKCS                                    : Province
UWI .          854                                     : UWI Number
API .          -                                       : API Number
SECT.          -                                       : Section
TOWN.          -                                       : Township
RNGE.          -                                       : Range
PDAT.          MSL                                     : Perm Datum
EPD .ft        0.0                                     : Elevation
LMF .          KB                                      : Log Measured From
DMF .          RT                                      : Drill Measured From
APD .ft        86.0                                    : Above Perm Datum
EKB .ft        86.0                                    : Elev-Kelly Bushing
EDF .ft        84.0                                    : Elev-Drill Floor
EGL .ft        -437.0                                  : Elev-Ground Level (Water Depth)
TDD .ft        10500.0                                 : Total Depth (Driller)
SRVC.          SCHLUMBERGER                            : Service Company
LATI.          58 21 15.10" N                          : Latitude
LONG.          00 07 19.40" W                          : Longitude
DATE.          FEB-MAR-1979                            : Logging Date
PROJ.          UKCS                                    : Project
SET .          COMP_WIRE                               : Set
~Curve Information Section
DEPTH.ft                                               : Depth Curve
CALI.in                                                : Caliper (FDC/CNL/GR)
DRHO.g/cc                                              : Delta Rho
DT.us/ft                                               : Delta-T
GR.gAPI                                                : Gamma Ray (ISF/BHC/GR)
GRD.gAPI                                               : Gamma Ray (FDC/CNL/GR)
ILD.Ohmm                                               : Deep Induction Standard Processed Resistivity
NPHI.LPU                                               : Neutron Porosity
RHOB.g/cc                                              : Bulk Density
SFL.Ohmm                                               : Spherically Focussed Log
SP.mV                                                  : Spontaneous Potential
~ASCII Log Data Section
# ...
 9974.5000         8.0951         0.0669        77.4307        50.0422        51.8431         0.6249        18.4615         2.3728         1.0921        58.2883     
 9975.0000         8.0937         0.0583        77.7644        50.9486        53.2041         0.6017        18.9824         2.3396         1.0139        58.3027     
 9975.5000         8.0922         0.0445        77.9461        52.0187        54.4360         0.5779        19.4170         2.3194         0.9168        58.3988     
 9976.0000         8.0908         0.0478        77.6819        53.2331        55.4596         0.5562        19.1527         2.3134         0.8456        58.6905     
 9976.5000         8.0896         0.0624        76.9824        54.4478        55.9083         0.5414        19.1816         2.3298         0.8266        59.1351     
 9977.0000         8.0885         0.0599        76.4853        54.9548        55.7213         0.5266        19.4074         2.3247         0.8577        59.4587     
 9977.5000         8.0873         0.0204        76.5206        54.5132        54.5019         0.5058        19.3119         2.2905         0.8757        59.6194     
 9978.0000         8.0862         0.0246        77.0423        53.4099        53.6131         0.4883        19.4983         2.2836         0.8462        59.6500     
 9978.5000         8.0850         0.0337        77.7034        51.7342        53.9064         0.4807        19.4829         2.2967         0.8161        59.3859     
 9979.0000         8.0839         0.0296        78.1763        50.7764        54.7100         0.4810        19.2831         2.2958         0.8188        58.8730     
 9979.5000         8.0827         0.0399        78.2608        50.1739        54.9152         0.4854        19.1079         2.3038         0.8376        58.4209     
 9980.0000         8.0816         0.0449        77.9298        50.3342        54.4471         0.4929        18.2340         2.2988         0.8390        58.0556     
 9980.5000         8.0804         0.0208        77.4697        51.5671        54.8376         0.4987        18.5004         2.2824         0.8222        57.7034     
 9981.0000         8.0793         0.0068        77.1656        51.8423        55.4647         0.5010        18.8751         2.2739         0.8266        57.3226     
 9981.5000         8.0782         0.0149        77.1619        51.3704        56.0928         0.5021        18.6393         2.2743         0.8659        57.0501     
 9982.0000         8.0770         0.0151        77.6044        50.8895        56.4528         0.5000        19.8105         2.2794         0.9131        56.9617     
 9982.5000         8.0759         0.0172        78.1752        50.1540        55.1196         0.4942        19.9190         2.2890         0.9171        57.0686     
 9983.0000         8.0747         0.0334        78.5920        48.9499        51.2993         0.4851        19.5342         2.2885         0.8827        57.4673     
 9983.5000         8.0736         0.0601        78.7760        47.4397        49.0019         0.4737        20.0545         2.3112         0.8452        58.1315     
 9984.0000         8.0724         0.0606        78.7796        46.3076        48.3521         0.4603        20.2438         2.3114         0.8015        58.9188     
 9984.5000         8.0712         0.0558        78.7763        46.3927        50.0890         0.4462        20.1075         2.3040         0.7587        59.4503     
 9985.0000         8.0701         0.0588        78.7729        46.6902        49.5774         0.4350        19.9124         2.3102         0.7254        59.6327     
 9985.5000         8.0689         0.0656        78.7696        46.6852        49.6954         0.4266        20.0174         2.3252         0.7087        59.6650     
 9986.0000         8.0677         0.0603        78.9044        47.1124        51.4165         0.4188        20.1022         2.3320         0.7142        59.6068     
 9986.5000         8.0665         0.0518        79.2988        48.1446        54.0635         0.4149        19.9762         2.3191         0.7412        59.5419     
 9987.0000         8.0654         0.0580        79.5556        49.8505        55.0008         0.4148        19.7534         2.3223         0.7777        59.5170     
 9987.5000         8.0642         0.0389        79.4869        51.1751        52.2181         0.4187        19.4810         2.2983         0.7931        59.4979     
 9988.0000         8.0630         0.0289        79.2975        51.1567        49.8157         0.4293        19.2400         2.2853         0.7899        59.4323     
 9988.5000         8.0618         0.0420        79.1607        50.2671        48.5696         0.4456        19.2045         2.2984         0.7938        59.3428     
 9989.0000         8.0607         0.0435        79.1442        48.8397        48.8010         0.4706        19.3465         2.3131         0.8152        59.2532     
 9989.5000         8.0595         0.0412        79.1409        48.0279        50.5333         0.5066        19.2499         2.3134         0.8537        59.2026     
 9990.0000         8.0583         0.0378        79.0806        48.8702        52.1151         0.5478        18.4934         2.3203         0.8959        59.3802     
 9990.5000         8.0572         0.0348        78.8731        50.1708        54.1295         0.5889        17.8366         2.3212         0.9332        59.7911     
 9991.0000         8.0560         0.0355        78.4812        51.9619        58.7096         0.6349        17.9141         2.3331         0.9778        60.2861     
 9991.5000         8.0545         0.0391        77.9480        54.6103        60.0206         0.6896        17.8870         2.3490         1.0488        60.7055     
 9992.0000         8.0531         0.0438        77.3539        57.4294        60.8494         0.7445        17.1474         2.3594         1.1824        61.0040     
 9992.5000         8.0516         0.0503        76.7466        59.0386        57.6156         0.7918        16.6710         2.3830         1.3312        61.1517     
 9993.0000         8.0501         0.0478        76.2547        58.1756        55.8436         0.8317        17.1154         2.3704         1.4033        61.1460     
 9993.5000         8.0487         0.0619        75.9963        56.6814        54.7219         0.8609        18.2222         2.3805         1.4051        60.9817     
 9994.0000         8.0472         0.0626        76.3296        56.0822        53.6393         0.8617        18.2845         2.3657         1.3204        60.6675     
 9994.5000         8.0457         0.0568        77.2128        55.9170        54.5032         0.8299        17.7703         2.3577         1.2005        60.3531     
 9995.0000         8.0442         0.0538        77.6359        56.7555        55.5163         0.7865        17.3085         2.3621         1.1423        60.0151     
 9995.5000         8.0428         0.0476        77.4990        58.6416        56.9011         0.7425        17.5580         2.3551         1.1670        59.6500     
 9996.0000         8.0413         0.0419        77.5235        60.4566        57.1721         0.6998        18.0082         2.3474         1.2446        59.3310     
 9996.5000         8.0398         0.0457        77.9606        59.9078        57.9962         0.6659        18.5039         2.3461         1.2495        59.0770     
 9997.0000         8.0384         0.0424        78.7433        56.7986        58.2595         0.6411        18.9989         2.3214         1.1494        58.8701     
 9997.5000         8.0369         0.0343        79.2389        54.6435        57.3580         0.6180        19.4955         2.2909         0.9644        58.7841     
 9998.0000         8.0359         0.0419        79.1102        54.9378        57.1340         0.5976        19.7379         2.2929         0.7754        58.7873     
 9998.5000         8.0354         0.0291        78.6067        55.7345        57.2954         0.5837        19.1133         2.2798         0.6896        58.9288     
