~Version Information Section
VERS.          2.0                                     : CWLS LOG ASCII Standard
WRAP.          NO                                      : One line per depth step
CREA.          03/08/17                                : LAS Creation Date
~Well Information Section
STRT.ft        542.0000                                : Start Depth
STOP.ft        10486.0000                              : Stop Depth
STEP.ft        0.5000                                  : Step
NULL.          -999.2500                               : Null Value
COMP.          TEXACO PRODUCTION SERVICES LTD          : Company
WELL.          14/20-10                                : Well
FLD .          MORAY FIRTH                             : Field
LOC .          NORTH SEA                               : Location
LOC1.          -                                       : Location (UTM)
CTRY.          UK                                      : Country
PROV.          UKCS                                    : Province
UWI .          854                                     : UWI Number
API .          -                                       : API Number
SECT.          -                                       : Section
TOWN.          -                                       : Township
RNGE.          -                                       : Range
PDAT.          MSL                                     : Perm Datum
EPD .ft        0.0                                     : Elevation
LMF .          KB                                      : Log Measured From
DMF .          RT                                      : Drill Measured From
APD .ft        86.0                                    : Above Perm Datum
EKB .ft        86.0                                    : Elev-Kelly Bushing
EDF .ft        84.0                                    : Elev-Drill Floor
EGL .ft        -437.0                                  : Elev-Ground Level (Water Depth)
TDD .ft        10500.0                                 : Total Depth (Driller)
SRVC.          SCHLUMBERGER                            : Service Company
LATI.          58 21 15.10" N                          : Latitude
LONG.          00 07 19.40" W                          : Longitude
DATE.          FEB-MAR-1979                            : Logging Date
PROJ.          UKCS                                    : Project
SET .          COMP_WIRE                               : Set
~Curve Information Section
DEPTH.ft                                               : Depth Curve
CALI.in                                                : Caliper (FDC/CNL/GR)
DRHO.g/cc                                              : Delta Rho
DT.us/ft                                               : Delta-T
GR.gAPI                                                : Gamma Ray (ISF/BHC/GR)
GRD.gAPI                                               : Gamma Ray (FDC/CNL/GR)
ILD.Ohmm                                               : Deep Induction Standard Processed Resistivity
NPHI.LPU                                               : Neutron Porosity
RHOB.g/cc                                              : Bulk Density
SFL.Ohmm                                               : Spherically Focussed Log
SP.mV                                                  : Spontaneous Potential
~ASCII Log Data Section
# ...
 9729.5000         8.1059        -0.0813        74.1348        51.8970        52.6816         6.7714        10.5792         2.6786         7.5771        54.1735     
 9730.0000         8.1085        -0.0599        72.8124        52.5016        52.2104         7.0871        10.1213         2.7469         7.0711        54.0458     
 9730.5000         8.1134        -0.0388        71.7484        52.0081        53.2050         7.3035         9.5664         2.8121         6.7329        54.5750     
 9731.0000         8.1182        -0.0355        71.1617        50.5760        54.5792         7.5028         9.0162         2.8251         6.4888        55.5354     
 9731.5000         8.1231        -0.0549        71.0085        48.9845        53.8671         7.8365         8.7057         2.7553         6.1302        55.9269     
 9732.0000         8.1282        -0.0755        71.1021        48.4123        49.7169         8.4574         9.0246         2.7426         6.0147        55.7011     
 9732.5000         8.1364        -0.0515        70.9691        49.0550        46.5718         9.1338         8.9000         2.7303         6.8480        55.3234     
 9733.0000         8.1446        -0.0680        70.2298        49.6987        46.8170         9.5023         8.3690         2.6363         9.0843        55.0482     
 9733.5000         8.1528        -0.1098        69.5990        49.7577        48.4078         9.4546         7.8380         2.6146        12.4282        54.7109     
 9734.0000         8.1610        -0.1193        69.6019        49.2974        49.8366         9.0912         7.4102         2.7324        15.0516        53.4016     
 9734.5000         8.1692        -0.1034        69.9112        49.2503        50.3783         8.7891         7.1806         2.8613        14.2786        51.5915     
 9735.0000         8.1744        -0.0850        70.2184        50.4048        51.5255         8.7831         7.1789         2.8965        11.2717        50.8576     
 9735.5000         8.1794        -0.0487        69.8795        53.2273        56.8257         9.1530         7.4880         2.8782         9.7523        51.3129     
 9736.0000         8.1845        -0.0770        68.9627        55.6151        57.8878         9.8471         7.9911         2.8588         9.9029        52.7929     
 9736.5000         8.1895        -0.1634        68.1991        55.5220        58.5332        10.3842         8.2144         2.8406        10.3479        54.2053     
 9737.0000         8.1964        -0.1792        67.5045        54.5049        59.9452        10.3544         7.9601         2.8688        10.5840        54.7507     
 9737.5000         8.2042        -0.1467        66.7703        53.3803        60.2109         9.9478         8.0359         2.9511        10.7872        55.0254     
 9738.0000         8.2119        -0.1236        66.3766        52.8398        59.5057         9.8038         8.8307         2.9511        11.5192        54.9059     
 9738.5000         8.2196        -0.1395        66.6338        53.9176        59.8342         9.9093         9.1725         2.9511        12.7842        54.6420     
 9739.0000         8.2274        -0.1277        67.6863        56.1462        59.9656         9.6392         8.9380         2.9512        13.3891        54.5589     
 9739.5000         8.2237        -0.0829        69.0927        58.3262        57.6516         8.8650         8.9054         2.9512        12.6584        54.7196     
 9740.0000         8.1891        -0.0377        70.5032        59.5731        55.9749         7.9413         9.3919         2.9513        11.3056        55.0442     
 9740.5000         8.1521        -0.0037        71.4776        59.6502        57.2157         7.1114        10.0420         2.9493         9.6800        55.3562     
 9741.0000         8.1160        -0.0401        71.6265        58.4862        57.7363         6.6037        10.5706         2.8865         8.1477        55.7840     
 9741.5000         8.1046        -0.0855        71.2649        56.7179        58.5340         6.5686        10.6797         2.8187         6.9258        56.1714     
 9742.0000         8.0956        -0.0772        71.2399        54.8580        57.9267         6.3854        10.4736         2.8341         6.2195        56.2238     
 9742.5000         8.1039        -0.0752        71.4810        52.3216        53.5908         6.0019        10.1040         2.8404         6.6118        55.8908     
 9743.0000         8.1128        -0.0500        70.9304        49.0666        50.3491         5.9720         8.6459         2.8192         8.5528        55.1347     
 9743.5000         8.1159        -0.0309        69.7697        45.5124        45.9299         6.3249         6.9917         2.8406        13.4216        53.8999     
 9744.0000         8.1163        -0.0794        68.8342        41.9929        45.0270         6.8986         5.6823         2.8332        20.7418        53.2168     
 9744.5000         8.1173        -0.1081        69.0433        40.6447        42.3864         7.5279         4.9332         2.8365        21.7158        53.4771     
 9745.0000         8.1278        -0.0932        69.8174        41.7039        41.2750         7.9472         5.7843         2.9138        15.7624        54.0050     
 9745.5000         8.1381        -0.0763        70.0342        42.8623        41.3499         7.9813         7.0810         2.9399        13.0669        54.7589     
 9746.0000         8.1460        -0.0554        69.6057        44.0506        39.1419         7.7778         7.7587         2.9205        16.1315        55.4423     
 9746.5000         8.1540        -0.0347        68.8722        45.3231        38.6689         7.5094         6.9205         2.8616        20.5676        55.7104     
 9747.0000         8.1537        -0.0766        68.9589        46.0091        39.0597         7.2403         5.7748         2.8273        20.5541        55.7851     
 9747.5000         8.1439        -0.0568        69.1392        46.6505        39.9654         7.0091         5.2050         2.9260        17.2867        56.1495     
 9748.0000         8.1337        -0.0538        68.6190        47.7484        41.2870         6.6897         5.8651         2.9517        15.1389        56.6420     
 9748.5000         8.1230        -0.0749        68.4241        48.5032        43.4971         6.1612         6.7735         2.9514        12.7690        56.7274     
 9749.0000         8.1143        -0.0847        68.9733        48.3449        46.3466         5.5623         7.6820         2.9512         9.2525        56.3797     
 9749.5000         8.1066        -0.0822        69.8548        48.0089        49.2285         5.0255         8.5589         2.9509         5.9555        55.6303     
 9750.0000         8.0988        -0.0713        70.3223        48.6838        52.1947         4.5381         9.1688         2.9507         4.1788        54.5387     
 9750.5000         8.0910        -0.0485        70.0349        50.7250        53.9910         4.0944         9.6827         2.9505         3.9296        53.6051     
 9751.0000         8.0833        -0.0229        69.1929        53.4293        54.1003         3.7472        10.1294         2.9501         4.0479        53.1083     
 9751.5000         8.0755         0.0004        68.9369        54.5422        52.7544         3.4842        10.3299         2.9253         4.2299        53.2027     
 9752.0000         8.0678        -0.0318        69.6785        54.1645        51.7853         3.2921        10.7512         2.8976         4.0446        53.8799     
 9752.5000         8.0652        -0.0714        70.7387        54.6655        52.6669         3.1683        11.3588         2.9143         3.4465        54.7747     
 9753.0000         8.0660        -0.0648        71.6569        56.2727        52.5371         3.0868        12.0434         2.9497         2.9445        55.6155     
 9753.5000         8.0669        -0.0401        71.5672        58.7387        52.7381         3.0367        12.6257         2.9218         2.6860        56.2334     
