~Version Information Section
VERS.          2.0                                     : CWLS LOG ASCII Standard
WRAP.          NO                                      : One line per depth step
CREA.          03/08/17                                : LAS Creation Date
~Well Information Section
STRT.ft        542.0000                                : Start Depth
STOP.ft        10486.0000                              : Stop Depth
STEP.ft        0.5000                                  : Step
NULL.          -999.2500                               : Null Value
COMP.          TEXACO PRODUCTION SERVICES LTD          : Company
WELL.          14/20-10                                : Well
FLD .          MORAY FIRTH                             : Field
LOC .          NORTH SEA                               : Location
LOC1.          -                                       : Location (UTM)
CTRY.          UK                                      : Country
PROV.          UKCS                                    : Province
UWI .          854                                     : UWI Number
API .          -                                       : API Number
SECT.          -                                       : Section
TOWN.          -                                       : Township
RNGE.          -                                       : Range
PDAT.          MSL                                     : Perm Datum
EPD .ft        0.0                                     : Elevation
LMF .          KB                                      : Log Measured From
DMF .          RT                                      : Drill Measured From
APD .ft        86.0                                    : Above Perm Datum
EKB .ft        86.0                                    : Elev-Kelly Bushing
EDF .ft        84.0                                    : Elev-Drill Floor
EGL .ft        -437.0                                  : Elev-Ground Level (Water Depth)
TDD .ft        10500.0                                 : Total Depth (Driller)
SRVC.          SCHLUMBERGER                            : Service Company
LATI.          58 21 15.10" N                          : Latitude
LONG.          00 07 19.40" W                          : Longitude
DATE.          FEB-MAR-1979                            : Logging Date
PROJ.          UKCS                                    : Project
SET .          COMP_WIRE                               : Set
~Curve Information Section
DEPTH.ft                                               : Depth Curve
CALI.in                                                : Caliper (FDC/CNL/GR)
DRHO.g/cc                                              : Delta Rho
DT.us/ft                                               : Delta-T
GR.gAPI                                                : Gamma Ray (ISF/BHC/GR)
GRD.gAPI                                               : Gamma Ray (FDC/CNL/GR)
ILD.Ohmm                                               : Deep Induction Standard Processed Resistivity
NPHI.LPU                                               : Neutron Porosity
RHOB.g/cc                                              : Bulk Density
SFL.Ohmm                                               : Spherically Focussed Log
SP.mV                                                  : Spontaneous Potential
~ASCII Log Data Section
# ...
 8088.0000         9.4783         0.0092        92.9728        36.2189        37.4131         1.6482        25.1955         2.4973         1.7952        71.5739     
 8088.5000         9.5070         0.0147        93.0266        36.6032        37.9340         1.6210        25.7894         2.4918         1.6967        71.3376     
 8089.0000         9.5087         0.0223        92.3809        36.2935        38.2822         1.5981        25.4387         2.4871         1.7228        71.1138     
 8089.5000         9.5080         0.0231        91.2117        36.0530        38.8247         1.5843        25.3267         2.4923         1.8238        70.8459     
 8090.0000         9.4985         0.0550        91.1145        36.0423        39.4483         1.5786        25.6036         2.5393         1.9148        70.6804     
 8090.5000         9.4897         0.0322        91.8098        35.5324        38.8290         1.5785        26.2688         2.5172         1.9749        70.4619     
 8091.0000         9.4977         0.0567        92.0421        34.9227        35.8648         1.5937        27.1927         2.5202         1.9731        70.0765     
 8091.5000         9.5069         0.1113        92.1046        34.3124        36.2702         1.6226        28.6213         2.5414         1.9145        69.9791     
 8092.0000         9.5436         0.1280        93.0716        33.8095        36.7819         1.6487        30.7926         2.5198         1.8450        70.1567     
 8092.5000         9.6420         0.1137        95.2355        33.9937        37.4766         1.6638        30.7597         2.5132         1.8595        70.3387     
 8093.0000         9.7823         0.0754        96.7018        35.0196        38.5589         1.6151        29.1940         2.4989         1.9362        70.3751     
 8093.5000         9.5318         0.0442        97.9900        36.4518        42.4495         1.5292        27.8767         2.5142         1.9695        70.1452     
 8094.0000         9.4824         0.0065        98.3536        38.0175        41.7012         1.4862        28.5409         2.5029         1.9330        69.5176     
 8094.5000         9.4712         0.0152        97.4954        39.8141        42.5523         1.4857        30.8180         2.5086         1.8096        68.6208     
 8095.0000         9.5417         0.0751        97.8218        41.2258        43.4577         1.5011        32.6396         2.5446         1.6719        68.0851     
 8095.5000         9.6122         0.1277        98.3614        41.3184        42.0960         1.5019        32.8396         2.5604         1.6027        68.1215     
 8096.0000         9.6588         0.0589        97.8776        39.4219        39.9222         1.4802        30.0473         2.5027         1.6167        68.5542     
 8096.5000         9.4463        -0.0005        97.3830        36.4725        36.2465         1.4469        26.6773         2.5037         1.7031        69.2729     
 8097.0000         9.2717         0.0431        96.1321        34.2854        35.3278         1.4409        24.0473         2.5731         1.7974        70.1277     
 8097.5000         9.2855         0.0641        93.9719        33.3449        35.8458         1.4791        24.0111         2.5663         1.8473        70.7396     
 8098.0000         9.3425         0.0332        93.7148        33.3777        36.8319         1.5365        25.5108         2.5076         1.8793        70.9022     
 8098.5000         9.4250         0.0678        94.1451        33.5631        38.4077         1.6020        27.0142         2.5314         1.9106        70.8348     
 8099.0000         9.5273         0.0936        93.9287        33.2848        38.6522         1.6591        27.1856         2.5780         1.9441        70.8007     
 8099.5000         9.6036         0.0602        93.0027        33.1645        37.2332         1.7023        26.2105         2.5583         1.9907        71.0463     
 8100.0000         9.6062         0.0615        91.4308        32.8706        35.8260         1.7439        25.3093         2.5836         2.0747        71.2565     
 8100.5000         9.5916         0.0137        90.4176        31.8165        35.5225         1.7771        25.1943         2.5430         2.1854        71.0701     
 8101.0000         9.6035         0.0086        90.0256        31.2121        36.3693         1.8035        24.9488         2.5308         2.2493        70.6819     
 8101.5000         9.5901         0.0090        89.8473        31.4827        36.4375         1.8288        24.1137         2.5316         2.2233        70.3557     
 8102.0000         9.5767         0.0083        89.5616        30.7923        34.3464         1.8484        23.3738         2.5353         2.1478        70.2659     
 8102.5000         9.5621         0.0110        89.3273        29.8144        31.9897         1.8636        23.6658         2.5324         2.1250        70.3228     
 8103.0000         9.5435         0.0185        89.4585        29.5485        32.3365         1.8785        23.7715         2.5420         2.1531        70.3597     
 8103.5000         9.5251         0.0224        89.7446        29.2912        34.8680         1.8883        24.0380         2.5445         2.1331        70.5560     
 8104.0000         9.5079         0.0316        90.2815        28.7279        33.3273         1.8933        24.3872         2.5751         2.0742        70.9588     
 8104.5000         9.4913         0.0423        90.5256        28.2175        29.3775         1.8948        23.8467         2.5896         2.0556        71.2422     
 8105.0000         9.4929         0.0343        90.1458        28.1640        29.3525         1.8801        23.5482         2.5802         2.0916        71.2325     
 8105.5000         9.5005         0.0145        89.6054        27.4333        30.1264         1.8486        24.3018         2.5645         2.1424        70.8754     
 8106.0000         9.5087         0.0273        89.3872        26.7469        29.4345         1.7986        25.1989         2.6011         2.1596        70.2183     
 8106.5000         9.5198         0.0405        89.4969        26.9092        28.1970         1.7439        26.0672         2.6131         2.1097        69.3611     
 8107.0000         9.5271         0.0261        89.6225        27.4731        29.5431         1.6951        26.8841         2.5855         2.0187        68.5366     
 8107.5000         9.5273         0.0105        89.7930        27.4627        31.2121         1.6475        26.7019         2.5716         1.9460        68.0506     
 8108.0000         9.5333         0.0114        90.1758        26.4697        32.9864         1.6283        25.7652         2.5951         1.9264        68.3392     
 8108.5000         9.5420         0.0354        90.9803        25.6958        34.7971         1.6429        25.7224         2.6113         1.9549        69.1740     
 8109.0000         9.5594         0.0655        91.8984        26.0453        36.8314         1.6841        26.2891         2.6230         1.9802        69.6445     
 8109.5000         9.5898         0.0264        92.1328        27.1766        36.9490         1.7339        25.8583         2.5740         1.9621        69.7398     
 8110.0000         9.6130         0.0277        91.1235        27.7451        35.5451         1.7672        24.3371         2.5717         1.9315        69.7113     
 8110.5000         9.6244         0.0346        89.4590        27.8729        34.0043         1.7669        23.0122         2.5663         2.0348        69.5425     
 8111.0000         9.6158         0.0154        88.1102        28.3519        33.0579         1.7317        22.4678         2.5565         2.2745        69.2270     
 8111.5000         9.6021         0.0320        87.6418        28.8287        32.4009         1.6982        22.4177         2.5885         2.4822        68.7780     
 8112.0000         9.5849         0.0237        87.9446        28.5714        30.9543         1.6865        24.1215         2.5825         2.5067        68.3160     
