~Version Information Section
VERS.          2.0                                     : CWLS LOG ASCII Standard
WRAP.          NO                                      : One line per depth step
CREA.          03/08/17                                : LAS Creation Date
~Well Information Section
STRT.ft        542.0000                                : Start Depth
STOP.ft        10486.0000                              : Stop Depth
STEP.ft        0.5000                                  : Step
NULL.          -999.2500                               : Null Value
COMP.          TEXACO PRODUCTION SERVICES LTD          : Company
WELL.          14/20-10                                : Well
FLD .          MORAY FIRTH                             : Field
LOC .          NORTH SEA                               : Location
LOC1.          -                                       : Location (UTM)
CTRY.          UK                                      : Country
PROV.          UKCS                                    : Province
UWI .          854                                     : UWI Number
API .          -                                       : API Number
SECT.          -                                       : Section
TOWN.          -                                       : Township
RNGE.          -                                       : Range
PDAT.          MSL                                     : Perm Datum
EPD .ft        0.0                                     : Elevation
LMF .          KB                                      : Log Measured From
DMF .          RT                                      : Drill Measured From
APD .ft        86.0                                    : Above Perm Datum
EKB .ft        86.0                                    : Elev-Kelly Bushing
EDF .ft        84.0                                    : Elev-Drill Floor
EGL .ft        -437.0                                  : Elev-Ground Level (Water Depth)
TDD .ft        10500.0                                 : Total Depth (Driller)
SRVC.          SCHLUMBERGER                            : Service Company
LATI.          58 21 15.10" N                          : Latitude
LONG.          00 07 19.40" W                          : Longitude
DATE.          FEB-MAR-1979                            : Logging Date
PROJ.          UKCS                                    : Project
SET .          COMP_WIRE                               : Set
~Curve Information Section
DEPTH.ft                                               : Depth Curve
CALI.in                                                : Caliper (FDC/CNL/GR)
DRHO.g/cc                                              : Delta Rho
DT.us/ft                                               : Delta-T
GR.gAPI                                                : Gamma Ray (ISF/BHC/GR)
GRD.gAPI                                               : Gamma Ray (FDC/CNL/GR)
ILD.Ohmm                                               : Deep Induction Standard Processed Resistivity
NPHI.LPU                                               : Neutron Porosity
RHOB.g/cc                                              : Bulk Density
SFL.Ohmm                                               : Spherically Focussed Log
SP.mV                                                  : Spontaneous Potential
~ASCII Log Data Section
# ...
 6912.0000      -999.2500      -999.2500        62.9082        12.3783      -999.2500         9.5626      -999.2500      -999.2500        11.5467        62.0214     
 6912.5000      -999.2500      -999.2500        62.9620        12.7745      -999.2500         9.6651      -999.2500      -999.2500        10.5897        61.6879     
 6913.0000      -999.2500      -999.2500        62.7713        13.8848      -999.2500         9.9923      -999.2500      -999.2500         9.6319        62.2102     
 6913.5000      -999.2500      -999.2500        62.7338        14.2688      -999.2500        10.4165      -999.2500      -999.2500         8.7843        63.4050     
 6914.0000      -999.2500      -999.2500        63.3824        13.7042      -999.2500        10.4396      -999.2500      -999.2500         8.2634        64.4605     
 6914.5000      -999.2500      -999.2500        63.9191        13.3856      -999.2500        10.2269      -999.2500      -999.2500         8.5989        64.9634     
 6915.0000      -999.2500      -999.2500        63.6452        13.4312      -999.2500        10.1764      -999.2500      -999.2500         9.5676        64.6815     
 6915.5000      -999.2500      -999.2500        62.7270        12.7507      -999.2500        10.3172      -999.2500      -999.2500        10.5476        63.8218     
 6916.0000      -999.2500      -999.2500        62.0535        11.8060      -999.2500        10.7109      -999.2500      -999.2500        11.4839        62.9358     
 6916.5000      -999.2500      -999.2500        61.9734        11.5026      -999.2500        11.2626      -999.2500      -999.2500        11.8456        62.5972     
 6917.0000      -999.2500      -999.2500        62.4488        11.8099      -999.2500        11.8870      -999.2500      -999.2500        11.1505        62.7547     
 6917.5000      -999.2500      -999.2500        63.1476        11.6811      -999.2500        12.6042      -999.2500      -999.2500        10.2484        63.3335     
 6918.0000      -999.2500      -999.2500        63.1798        11.2910      -999.2500        13.2518      -999.2500      -999.2500        10.4190        64.2414     
 6918.5000      -999.2500      -999.2500        62.1012        11.3896      -999.2500        13.7507      -999.2500      -999.2500        11.5031        65.1270     
 6919.0000      -999.2500      -999.2500        60.9945        11.1637      -999.2500        14.1695      -999.2500      -999.2500        13.3921        65.8594     
 6919.5000      -999.2500      -999.2500        60.3533        11.4358      -999.2500        14.3678      -999.2500      -999.2500        15.8046        65.9231     
 6920.0000      -999.2500      -999.2500        59.9481        12.7615      -999.2500        14.2556      -999.2500      -999.2500        17.1885        65.0254     
 6920.5000      -999.2500      -999.2500        60.6049        13.3702      -999.2500        13.8132      -999.2500      -999.2500        16.8653        64.2732     
 6921.0000      -999.2500      -999.2500        61.8841        12.9875      -999.2500        12.8768      -999.2500      -999.2500        15.2331        64.4608     
 6921.5000      -999.2500      -999.2500        62.9352        12.5752      -999.2500        11.6937      -999.2500      -999.2500        13.0860        65.2691     
 6922.0000      -999.2500      -999.2500        63.7055        12.2754      -999.2500        10.6348      -999.2500      -999.2500        11.1933        65.9288     
 6922.5000      -999.2500      -999.2500        64.2150        12.5768      -999.2500         9.7043      -999.2500      -999.2500         9.9453        65.8700     
 6923.0000      -999.2500      -999.2500        64.5686        13.4712      -999.2500         8.8093      -999.2500      -999.2500         9.2379        65.6828     
 6923.5000      -999.2500      -999.2500        64.7681        14.0181      -999.2500         7.8260      -999.2500      -999.2500         8.8787        66.0549     
 6924.0000      -999.2500      -999.2500        65.0170        13.5653      -999.2500         7.3663      -999.2500      -999.2500         8.5568        66.2912     
 6924.5000      -999.2500      -999.2500        65.6385        12.7015      -999.2500         7.7643      -999.2500      -999.2500         7.8636        65.7038     
 6925.0000      -999.2500      -999.2500        66.5260        12.1593      -999.2500         7.9767      -999.2500      -999.2500         7.1391        65.2382     
 6925.5000      -999.2500      -999.2500        67.1014        11.8647      -999.2500         7.6821      -999.2500      -999.2500         6.9570        65.6036     
 6926.0000      -999.2500      -999.2500        67.0182        12.0148      -999.2500         7.5950      -999.2500      -999.2500         7.1520        66.0741     
 6926.5000      -999.2500      -999.2500        66.4879        12.2596      -999.2500         8.0130      -999.2500      -999.2500         7.4365        66.0496     
 6927.0000      -999.2500      -999.2500        65.6489        12.1099      -999.2500         8.7753      -999.2500      -999.2500         8.4366        65.8500     
 6927.5000      -999.2500      -999.2500        64.6329        11.9261      -999.2500         9.5499      -999.2500      -999.2500         9.7109        65.5872     
 6928.0000      -999.2500      -999.2500        63.9193        12.2748      -999.2500        10.4119      -999.2500      -999.2500        10.3524        65.1384     
 6928.5000      -999.2500      -999.2500        63.1985        12.6507      -999.2500        11.9531      -999.2500      -999.2500        10.7963        64.4371     
 6929.0000      -999.2500      -999.2500        62.1773        12.5010      -999.2500        13.4871      -999.2500      -999.2500        11.3590        63.3689     
 6929.5000      -999.2500      -999.2500        61.2519        12.1756      -999.2500        14.0608      -999.2500      -999.2500        12.1794        63.2176     
 6930.0000      -999.2500      -999.2500        60.3009        11.8762      -999.2500        13.9805      -999.2500      -999.2500        14.4730        63.7466     
 6930.5000      -999.2500      -999.2500        59.5017        11.5765      -999.2500        13.7241      -999.2500      -999.2500        18.0467        63.7026     
 6931.0000      -999.2500      -999.2500        59.6397        10.8150      -999.2500        13.5862      -999.2500      -999.2500        19.2568        63.5639     
 6931.5000      -999.2500      -999.2500        60.2384        10.9497      -999.2500        13.6891      -999.2500      -999.2500        17.0778        63.4135     
 6932.0000      -999.2500      -999.2500        61.1461        11.8850      -999.2500        13.8921      -999.2500      -999.2500        14.6872        63.2569     
 6932.5000      -999.2500      -999.2500        61.9939        12.4494      -999.2500        13.9263      -999.2500      -999.2500        14.1569        63.1246     
 6933.0000      -999.2500      -999.2500        61.4740        12.5923      -999.2500        13.7233      -999.2500      -999.2500        14.9094        63.0905     
 6933.5000      -999.2500      -999.2500        60.5765        11.8169      -999.2500        13.4036      -999.2500      -999.2500        16.0090        63.1741     
 6934.0000      -999.2500      -999.2500        60.3270        11.3787      -999.2500        13.2322      -999.2500      -999.2500        16.4494        63.2572     
 6934.5000      -999.2500      -999.2500        60.4766        11.4556      -999.2500        13.4902      -999.2500      -999.2500        15.4234        63.2735     
 6935.0000      -999.2500      -999.2500        60.5765        11.2295      -999.2500        13.8789      -999.2500      -999.2500        14.0169        62.9923     
 6935.5000      -999.2500      -999.2500        60.0316        10.9301      -999.2500        14.1389      -999.2500      -999.2500        14.4422        62.4509     
 6936.0000      -999.2500      -999.2500        58.7359        10.6786      -999.2500        14.3507      -999.2500      -999.2500        16.9831        62.1332     
