~Version Information Section
VERS.          2.0                                     : CWLS LOG ASCII Standard
WRAP.          NO                                      : One line per depth step
CREA.          03/08/17                                : LAS Creation Date
~Well Information Section
STRT.ft        420.0000                                : Start Depth
STOP.ft        8605.0000                               : Stop Depth
STEP.ft        0.5000                                  : Step
NULL.          -999.2500                               : Null Value
COMP.          TEXACO UK                               : Company
WELL.          14/20-11                                : Well
FLD .          MORAY FIRTH                             : Field
LOC .          NORTH SEA                               : Location
LOC1.          -                                       : Location (UTM)
CTRY.          UK                                      : Country
PROV.          UKCS                                    : Province
UWI .          855                                     : UWI Number
API .          -                                       : API Number
SECT.          -                                       : Section
TOWN.          -                                       : Township
RNGE.          -                                       : Range
PDAT.          MSL                                     : Perm Datum
EPD .ft        0.0                                     : Elevation
LMF .          KB                                      : Log Measured From
DMF .          KB                                      : Drill Measured From
APD .ft        81.0                                    : Above Perm Datum
EKB .ft        81.0                                    : Elev-Kelly Bushing
EDF .ft        80.0                                    : Elev-Drill Floor
EGL .ft        -434.0                                  : Elev-Ground Level (Water Depth)
TDD .ft        8605.0                                  : Total Depth (Driller)
TDL .ft        8605.0                                  : Total Depth (Logger)
SRVC.          SCHLUMBERGER                            : Service Company
LATI.          58 20 05.29" N                          : Latitude
LONG.          00 06 26.84" W                          : Longitude
DATE.          MAY-JUN-1980                            : Logging Date
PROJ.          UKCS                                    : Project
SET .          COMP_WIRE                               : Set
~Curve Information Section
DEPTH.ft                                               : Depth Curve
CALD.in                                                : Caliper (FDC/CNL/GR)
CALS.in                                                : Caliper (DLL/MSFL/GR)
DRHO.g/cc                                              : Delta Rho
DT.us/ft                                               : Delta-T
GR.gAPI                                                : Gamma Ray (ISF/BHC/GR)
GRD.gAPI                                               : Gamma Ray (FDC/CNL/GR)
GRL.gAPI                                               : Gamma Ray (DLL/MSFL/GR)
ILD.Ohmm                                               : Deep Induction Standard Processed Resistivity
LLD.Ohmm                                               : Latero-Log Deep (Resistivity)
LLS.Ohmm                                               : Latero-Log Shallow (Resistivity)
MSFL.Ohmm                                              : Msfl Resistivity
NPHI.LPU                                               : Neutron Porosity
RHOB.g/cc                                              : Bulk Density
SFLU.Ohmm                                              : SFL Resistivity (Unaveraged)
SP.mV                                                  : Spontaneous Potential (ISF/BHC/GR)
~ASCII Log Data Section
# ...
 8495.0000        12.0923        11.9513         0.0360        76.7102        77.6952        71.2465        73.2697         1.6193         3.0219         3.3234         9.4520        21.4533         2.4238         2.1195       -39.9433     
 8495.5000        12.0922        11.9518         0.0300        78.7416        72.7086        69.3159        70.8709         1.4830         2.6037         2.6766         7.1180        21.9672         2.3633         1.5986       -40.4070     
 8496.0000        12.1269        11.9523         0.0378        79.8559        64.8497        66.2640        65.4319         1.3907         1.6883         1.8650         5.0068        21.8488         2.3559         1.3816       -40.4068     
 8496.5000        12.1648        11.9527         0.0285        79.9784        59.8235        63.3116        58.8640         1.3169         1.4034         1.5567         3.3139        20.8619         2.3229         1.3420       -40.1733     
 8497.0000        12.1653        11.9532         0.0077        79.4767        56.6807        60.1712        55.4954         1.2850         1.4892         1.4871         2.3605        20.4660         2.3281         1.4993       -39.6072     
 8497.5000        12.1640        12.0314        -0.0002        78.5332        56.4028        57.5729        55.1864         1.3305         1.7376         1.7089         3.5125        20.1604         2.3285         1.8352       -39.2158     
 8498.0000        12.2396        12.1153        -0.0026        77.8549        61.7398        57.5820        56.8654         1.4053         2.1094         2.1867         4.6715        20.1599         2.3680         2.2321       -38.4366     
 8498.5000        12.2978        12.1993         0.0055        77.9067        65.4977        59.5249        60.3925         1.5212         2.5461         2.6537         5.8305        20.4159         2.4128         2.5958       -37.5138     
 8499.0000        12.3556        12.2832         0.0120        78.2717        67.8777        62.4766        63.2188         1.6678         2.9732         3.1535         4.6682        21.0170         2.4362         2.7689       -36.3456     
 8499.5000        12.4700        12.3672         0.0145        78.5999        67.0287        65.1919        65.4867         1.8147         3.1607         3.1715         6.5980        21.6444         2.4498         2.8204       -34.9212     
 8500.0000        12.5850        12.4322         0.0189        78.5930        65.3131        66.9232        67.4876         2.1841         3.0110         3.1264         4.1439        22.9594         2.4556         2.8340       -33.6571     
 8500.5000        12.6032        12.4779         0.0192        77.9536        68.0059        68.0161        69.1015         2.7146         3.0191         3.0152         6.2066        24.3012         2.4635         2.8459       -31.9338     
 8501.0000        12.6212        12.5233         0.0182        76.5479        70.5044        70.1137        71.3885         2.9580         3.1575         2.9094         8.8548        25.8877         2.4741         3.0082       -30.3947     
 8501.5000        12.6197        12.5688         0.0171        73.7540        72.9002        73.7015        77.6196         2.9905         3.5136         3.3660        11.4233        26.4303         2.5640         3.5498       -29.5535     
 8502.0000        12.6183        12.5938         0.0161        71.4949        76.0956        78.1520        84.8679         3.1417         3.9614         3.9398        11.2280        27.6604         2.6038         3.7709       -28.7134     
 8502.5000        12.6369        12.6003         0.0245        71.3703        79.3033        83.2834        92.0631         3.3044         4.1634         4.2379        10.4158        29.6453         2.5990         3.8161       -27.8734     
 8503.0000        12.6605        12.6067         0.0397        72.8641        86.9432        89.5669        98.4180         3.5421         3.8536         4.0173         6.3304        32.1435         2.5617         3.5706       -27.0406     
 8503.5000        13.4759        12.6128         0.1272        73.9373        95.2477        95.9583       100.2686         3.8326         4.0330         3.8489         4.6326        33.1658         2.5692         3.5177       -26.3549     
 8504.0000        13.8410        12.6135         0.1612        73.6673        98.3403        98.6429       100.3653         4.1927         4.8947         4.7118         6.7125        39.2081         2.5867         3.8372       -26.1572     
 8504.5000        12.6522        12.6142         0.0405        72.9951        99.5196       100.7924        99.6757         4.5750         6.1625         5.9116         8.8001        37.7663         2.5085         5.0174       -26.1454     
 8505.0000        12.6097        12.6149         0.0101        71.5993        98.2552       101.1741        97.5647         4.8296         7.4572         7.4604         9.9236        34.0231         2.4358         6.7502       -25.9764     
 8505.5000        12.6080        12.6156         0.0338        69.5071        95.3309        99.6953        96.5551         5.0170         8.6069         8.6689        10.3713        30.7500         2.6016         8.2050       -25.7969     
 8506.0000        12.6062        12.6163         0.0357        67.7078        96.5148        98.3020        95.5517         5.2639         8.8216         8.8551        11.0629        29.8539         2.6525         8.5923       -25.5896     
 8506.5000        12.6045        12.6169         0.0313        66.4133        97.5649        96.9715        94.3470         5.7134         8.7407         8.3254        12.5338        28.9797         2.6534         8.2994       -25.4183     
 8507.0000        12.6055        12.6176         0.0347        66.0878        95.4125        97.6861        92.3000         6.0353         8.4379         7.8732        11.2834        27.5404         2.6252         7.8643       -25.4073     
 8507.5000        12.7201        12.6163         0.0702        67.1166        92.7923        97.0305        89.1459         6.3575         8.1309         7.4575         6.4070        29.4487         2.6202         7.4179       -25.4068     
 8508.0000        12.8163        12.6124         0.1058        70.3673        89.2179        95.4580        86.4031         6.4322         7.6992         7.1394         1.5247        31.5072         2.5884         6.9716       -25.2479     
 8508.5000        12.9090        12.6086         0.1145        75.8896        83.9331        93.6572        85.5718         6.4825         6.8406         6.8456         4.2053        41.7623         2.4928         6.5759       -25.2807     
 8509.0000        12.7189        12.6047         0.0891        79.5831        83.4295        91.2563        87.6053         6.5135         7.3886         7.1048         7.1092        43.1966         2.3996         6.5755       -25.4036     
 8509.5000        12.9208        12.6009         0.0636        79.4079        87.7626        93.5934        93.1995         6.4770         8.4697         7.9559        10.0051        43.3112         2.3777         6.8877       -25.4072     
 8510.0000        13.6708        12.5970         0.0381        77.5116        93.8246        98.1965        96.6294         6.2864         8.9405         8.3858         8.2201        41.5093         2.3829         7.6287       -25.4075     
 8510.5000        12.7111        12.5932         0.0127        75.4218        98.6655       100.5543        98.1629         5.9793         8.4606         8.2133         5.6530        35.3062         2.4377         8.6629       -25.6352     
 8511.0000        12.7487        12.5893         0.0178        73.3577        99.7094        99.6649        99.4926         5.6826         7.3994         7.2915         3.0799        36.3599         2.5504         9.3230       -25.8655     
 8511.5000        12.7933        12.5855         0.0139        72.7744       102.2399       102.5476       100.3922         5.3285         6.1235         6.0788         2.5887        36.9771         2.5805         7.3264       -25.9109     
