~Version Information Section
VERS.          2.0                                     : CWLS LOG ASCII Standard
WRAP.          NO                                      : One line per depth step
CREA.          03/08/17                                : LAS Creation Date
~Well Information Section
STRT.ft        420.0000                                : Start Depth
STOP.ft        8605.0000                               : Stop Depth
STEP.ft        0.5000                                  : Step
NULL.          -999.2500                               : Null Value
COMP.          TEXACO UK                               : Company
WELL.          14/20-11                                : Well
FLD .          MORAY FIRTH                             : Field
LOC .          NORTH SEA                               : Location
LOC1.          -                                       : Location (UTM)
CTRY.          UK                                      : Country
PROV.          UKCS                                    : Province
UWI .          855                                     : UWI Number
API .          -                                       : API Number
SECT.          -                                       : Section
TOWN.          -                                       : Township
RNGE.          -                                       : Range
PDAT.          MSL                                     : Perm Datum
EPD .ft        0.0                                     : Elevation
LMF .          KB                                      : Log Measured From
DMF .          KB                                      : Drill Measured From
APD .ft        81.0                                    : Above Perm Datum
EKB .ft        81.0                                    : Elev-Kelly Bushing
EDF .ft        80.0                                    : Elev-Drill Floor
EGL .ft        -434.0                                  : Elev-Ground Level (Water Depth)
TDD .ft        8605.0                                  : Total Depth (Driller)
TDL .ft        8605.0                                  : Total Depth (Logger)
SRVC.          SCHLUMBERGER                            : Service Company
LATI.          58 20 05.29" N                          : Latitude
LONG.          00 06 26.84" W                          : Longitude
DATE.          MAY-JUN-1980                            : Logging Date
PROJ.          UKCS                                    : Project
SET .          COMP_WIRE                               : Set
~Curve Information Section
DEPTH.ft                                               : Depth Curve
CALD.in                                                : Caliper (FDC/CNL/GR)
CALS.in                                                : Caliper (DLL/MSFL/GR)
DRHO.g/cc                                              : Delta Rho
DT.us/ft                                               : Delta-T
GR.gAPI                                                : Gamma Ray (ISF/BHC/GR)
GRD.gAPI                                               : Gamma Ray (FDC/CNL/GR)
GRL.gAPI                                               : Gamma Ray (DLL/MSFL/GR)
ILD.Ohmm                                               : Deep Induction Standard Processed Resistivity
LLD.Ohmm                                               : Latero-Log Deep (Resistivity)
LLS.Ohmm                                               : Latero-Log Shallow (Resistivity)
MSFL.Ohmm                                              : Msfl Resistivity
NPHI.LPU                                               : Neutron Porosity
RHOB.g/cc                                              : Bulk Density
SFLU.Ohmm                                              : SFL Resistivity (Unaveraged)
SP.mV                                                  : Spontaneous Potential (ISF/BHC/GR)
~ASCII Log Data Section
# ...
 8325.0000        13.9670        13.0740         0.1257        76.3600        77.4946        75.6322        70.3985         3.8006         3.3951         3.4368         0.9519        30.2510         2.4359         3.1466       -14.4531     
 8325.5000        14.0715        13.2075         0.1355        77.3388        79.2423        75.1382        71.9368         3.8210         3.3927         3.4350         1.0123        31.1480         2.4048         3.1015       -14.7080     
 8326.0000        14.6894        13.4072         0.1740        78.5028        76.1736        74.0154        72.0629         3.7658         3.3727         3.4095         1.2853        32.3708         2.3698         3.1087       -15.0159     
 8326.5000        15.2047        13.6074         0.1935        79.8876        73.5000        73.6246        72.3959         3.7104         3.3499         3.3813         1.1571        33.5938         2.3028         3.1459       -15.4078     
 8327.0000        15.3120        13.7893         0.1474        79.1499        72.3186        73.0034        72.2682         3.6197         3.3189         3.3531         0.9100        34.8269         2.2270         3.2064       -15.4698     
 8327.5000        15.2008        13.8576         0.0800        77.7611        73.5603        70.7979        71.2366         3.5008         3.2793         3.3240         0.9362        36.2551         2.2094         3.1733       -15.5904     
 8328.0000        14.4367        13.8728         0.0644        79.3194        74.7603        69.3672        70.1738         3.3947         3.2225         3.2502         1.2092        37.8528         2.2292         3.1402       -15.4820     
 8328.5000        14.4100        14.0848         0.0895        79.7516        71.4344        67.2041        69.5201         3.3387         3.1541         3.1517         1.5267        39.4530         2.2061         3.0773       -15.7340     
 8329.0000        15.2635        14.5401         0.0748        80.1779        69.2381        67.2727        70.3645         3.3529         3.0642         3.0447         1.3743        41.0533         2.1564         2.9526       -15.9048     
 8329.5000        15.7800        14.9687         0.0545        80.9499        67.4044        67.8246        70.7021         3.3671         2.9270         2.8042         1.1874        39.0467         2.1194         2.7106       -15.8238     
 8330.0000        16.7830        15.1898         0.0455        81.7212        66.4634        67.1694        70.2123         3.3813         2.7605         2.6138         1.0615        35.1725         2.0824         2.5150       -15.7478     
 8330.5000        17.4253        14.9870         0.0489        81.8378        65.6220        66.8125        68.4720         3.3793         2.5891         2.5490         1.0727        34.9775         2.0454         2.4460       -15.9002     
 8331.0000        17.7808        14.6953         0.0693        80.1501        65.0243        65.9276        64.8836         3.2411         2.5275         2.5712         1.2798        36.7478         2.0084         2.4913       -15.7080     
 8331.5000        18.2820        14.6454         0.0676        76.6282        64.3667        64.5010        61.5315         3.1032         2.5932         2.6165         1.1328        38.0457         1.9818         2.5433       -15.4024     
 8332.0000        18.3944        14.7438         0.0531        77.3450        68.0498        64.5237        60.6617         2.9667         2.6859         2.7655         0.7141        39.5156         1.9855         2.5930       -15.2988     
 8332.5000        18.5133        14.9920         0.0349        79.4632        69.9473        64.6650        62.6057         2.8307         2.7514         2.8396         0.6019        40.7772         2.0009         2.6376       -15.1514     
 8333.0000        18.3509        15.0459         0.0264        81.8836        70.1422        64.4848        64.8430         2.8864         2.7759         2.8400         0.8236        40.0265         1.9993         2.6745       -15.0403     
 8333.5000        17.4432        14.6938         0.0418        81.7582        68.4232        65.8477        64.9908         2.9480         2.7770         2.8404         0.9179        37.9449         2.0086         2.6658       -14.8997     
 8334.0000        16.4066        14.2502         0.0589        79.9014        68.0555        66.4542        62.7973         3.0988         2.7520         2.8408         0.7870        35.8790         2.0606         2.6571       -14.7734     
 8334.5000        15.7319        13.8823         0.0647        80.1984        68.2049        65.7420        61.4356         3.2083         2.7741         2.9749         0.6809        33.9253         2.1644         2.6611       -14.5274     
 8335.0000        15.1393        13.5887         0.0802        78.2491        69.4022        66.9691        61.8674         3.1967         2.8912         3.1683         0.7835        31.8914         2.2997         2.6906       -14.3978     
 8335.5000        14.5469        13.4121         0.0948        75.8431        72.9502        70.9992        63.5576         3.1851         3.0259         3.3833         1.0403        30.2042         2.4353         2.8188       -14.2585     
 8336.0000        13.9723        13.3216         0.1100        75.0441        75.5383        74.2447        64.8545         3.3376         3.1913         3.6166         1.5525        29.2142         2.5015         3.0225       -14.0158     
 8336.5000        13.7626        13.2802         0.1128        74.9674        78.1059        77.7123        63.8528         3.5291         3.4271         3.8109         1.8857        28.6259         2.4791         3.2717       -13.9157     
 8337.0000        14.1385        13.2729         0.0917        75.4750        80.7484        81.5301        63.9484         3.7268         3.6316         3.8813         2.0112        28.5500         2.4511         3.2922       -14.0369     
 8337.5000        14.5781        13.2735         0.0726        76.8479        83.4465        82.0759        67.2622         3.9703         3.6846         3.7234         2.0631        28.6623         2.4438         3.2064       -14.1490     
 8338.0000        14.4581        13.2831         0.0800        77.3664        85.5864        82.4684        71.0971         3.9618         3.5232         3.2753         1.4832        28.9967         2.4462         3.0778       -14.2950     
 8338.5000        13.9906        13.2732         0.1146        77.0200        85.6676        80.6442        72.9774         3.8852         3.3081         3.1291         1.2859        29.6559         2.4057         3.1205       -14.2574     
 8339.0000        13.9100        13.2177         0.1347        76.7986        80.3057        79.5711        72.8716         3.6951         3.3120         3.2588         1.7313        30.7988         2.3310         3.1669       -14.1636     
 8339.5000        13.9032        13.1224         0.0946        77.0677        78.2247        78.5614        71.8685         3.5049         3.4236         3.3022         2.3012        31.7194         2.2872         3.2137       -14.1571     
 8340.0000        13.2395        13.0610         0.0864        77.8100        77.9337        76.4265        69.7972         3.3751         3.4568         3.3454         2.5370        31.5704         2.3315         3.2206       -14.1576     
 8340.5000        13.9242        13.1387         0.1601        79.5929        78.7189        76.2700        67.6736         3.2902         3.4349         3.2810         1.7706        31.3307         2.3821         3.1703       -14.4760     
 8341.0000        14.4650        13.2931         0.1873        81.0201        79.5351        74.5579        67.4996         3.2298         3.3090         3.1702         0.7802        32.5971         2.3655         3.1031       -14.6483     
 8341.5000        14.7442        13.3861         0.1731        79.8873        79.9953        72.1844        69.0120         3.2026         3.1579         3.0431         1.1576        34.1490         2.3302         2.8764       -14.8251     
