~Version Information Section
VERS.          2.0                                     : CWLS LOG ASCII Standard
WRAP.          NO                                      : One line per depth step
CREA.          03/08/17                                : LAS Creation Date
~Well Information Section
STRT.ft        420.0000                                : Start Depth
STOP.ft        8605.0000                               : Stop Depth
STEP.ft        0.5000                                  : Step
NULL.          -999.2500                               : Null Value
COMP.          TEXACO UK                               : Company
WELL.          14/20-11                                : Well
FLD .          MORAY FIRTH                             : Field
LOC .          NORTH SEA                               : Location
LOC1.          -                                       : Location (UTM)
CTRY.          UK                                      : Country
PROV.          UKCS                                    : Province
UWI .          855                                     : UWI Number
API .          -                                       : API Number
SECT.          -                                       : Section
TOWN.          -                                       : Township
RNGE.          -                                       : Range
PDAT.          MSL                                     : Perm Datum
EPD .ft        0.0                                     : Elevation
LMF .          KB                                      : Log Measured From
DMF .          KB                                      : Drill Measured From
APD .ft        81.0                                    : Above Perm Datum
EKB .ft        81.0                                    : Elev-Kelly Bushing
EDF .ft        80.0                                    : Elev-Drill Floor
EGL .ft        -434.0                                  : Elev-Ground Level (Water Depth)
TDD .ft        8605.0                                  : Total Depth (Driller)
TDL .ft        8605.0                                  : Total Depth (Logger)
SRVC.          SCHLUMBERGER                            : Service Company
LATI.          58 20 05.29" N                          : Latitude
LONG.          00 06 26.84" W                          : Longitude
DATE.          MAY-JUN-1980                            : Logging Date
PROJ.          UKCS                                    : Project
SET .          COMP_WIRE                               : Set
~Curve Information Section
DEPTH.ft                                               : Depth Curve
CALD.in                                                : Caliper (FDC/CNL/GR)
CALS.in                                                : Caliper (DLL/MSFL/GR)
DRHO.g/cc                                              : Delta Rho
DT.us/ft                                               : Delta-T
GR.gAPI                                                : Gamma Ray (ISF/BHC/GR)
GRD.gAPI                                               : Gamma Ray (FDC/CNL/GR)
GRL.gAPI                                               : Gamma Ray (DLL/MSFL/GR)
ILD.Ohmm                                               : Deep Induction Standard Processed Resistivity
LLD.Ohmm                                               : Latero-Log Deep (Resistivity)
LLS.Ohmm                                               : Latero-Log Shallow (Resistivity)
MSFL.Ohmm                                              : Msfl Resistivity
NPHI.LPU                                               : Neutron Porosity
RHOB.g/cc                                              : Bulk Density
SFLU.Ohmm                                              : SFL Resistivity (Unaveraged)
SP.mV                                                  : Spontaneous Potential (ISF/BHC/GR)
~ASCII Log Data Section
# ...
 8240.0000        12.0503        11.9531         0.0170        81.8457        60.6097        57.9003        58.5519         0.9225         0.9988         1.2976         3.0100        21.2138         2.3135         1.3232       -39.4070     
 8240.5000        12.0503        12.0134         0.0227        81.7237        60.6089        57.3514        58.8614         0.9139         1.0132         1.3426         2.8956        20.4858         2.3264         1.3378       -39.4002     
 8241.0000        12.0503        12.0192         0.0232        81.3347        60.4296        58.0220        59.6139         0.9054         1.0458         1.3678         3.0447        20.1983         2.3225         1.3434       -39.3113     
 8241.5000        12.0503        11.9473         0.0297        80.9322        60.0777        58.0872        58.5515         0.9072         1.0503         1.3449         3.0980        20.0214         2.3309         1.3434       -39.0800     
 8242.0000        12.0504        11.8987         0.0366        81.2982        60.9900        57.3949        59.2723         0.9221         1.0458         1.3435         2.7970        20.6883         2.3363         1.3359       -38.8358     
 8242.5000        12.0504        11.9179         0.0294        81.3241        60.8291        58.3502        62.5350         0.9370         1.0488         1.3537         2.7673        22.2831         2.3364         1.3285       -38.7433     
 8243.0000        12.0504        12.0008         0.0179        80.9238        62.8638        60.2874        65.8949         0.9520         1.0702         1.4049         3.1292        23.2705         2.3135         1.3355       -38.8975     
 8243.5000        12.0504        11.9946         0.0151        80.5200        67.4903        62.3794        65.6547         0.9827         1.1406         1.4824         3.7482        23.1585         2.3058         1.4436       -38.7805     
 8244.0000        12.0504        12.0146         0.0136        80.1163        71.3809        64.0669        66.1398         1.0314         1.2048         1.5849         4.0634        22.8447         2.3094         1.5589       -38.3083     
 8244.5000        12.0504        12.0330         0.0201        80.1254        72.8226        66.0829        68.5852         1.0801         1.2528         1.6888         4.2941        22.6506         2.3336         1.6743       -37.8191     
 8245.0000        12.0504        12.0011         0.0282        80.2505        74.2191        68.4824        69.5405         1.1249         1.2850         1.7250         4.1673        22.3107         2.3562         1.7291       -37.3299     
 8245.5000        12.0504        11.9250         0.0363        80.3773        74.9042        69.5553        68.3811         1.1487         1.2792         1.6582         3.4981        21.5583         2.3676         1.7190       -36.8772     
 8246.0000        12.0504        11.8939         0.0441        80.5027        72.7171        70.6294        67.7802         1.1725         1.2427         1.5820         3.4045        21.2851         2.3695         1.6780       -36.6297     
 8246.5000        12.0504        11.8907         0.0238        80.4621        65.2767        70.5374        67.3530         1.1716         1.1925         1.5268         3.3538        21.0288         2.3503         1.6197       -36.4295     
 8247.0000        12.0925        11.8907         0.0094        80.4183        64.8737        69.0488        66.3434         1.1469         1.1416         1.4417         2.9613        21.3212         2.3229         1.5610       -36.6410     
 8247.5000        12.0582        11.9029         0.0032        80.3745        64.8340        66.9350        64.9910         1.1071         1.1053         1.3719         2.7539        21.5850         2.3047         1.5020       -36.4187     
 8248.0000        12.0505        11.9964         0.0100        80.3307        64.3136        63.1429        64.0557         1.0406         1.0709         1.3429         2.7844        21.4790         2.3075         1.4404       -36.6622     
 8248.5000        12.0504        12.0113         0.0103        80.2796        62.1905        61.4254        60.3375         0.9767         1.0524         1.3413         2.8971        21.6659         2.3025         1.3816       -36.9319     
 8249.0000        12.0504        12.0412         0.0100        80.2156        63.1700        60.7821        60.1553         0.9678         1.0405         1.3563         2.7428        22.0715         2.2930         1.3249       -37.4268     
 8249.5000        12.0504        11.9499         0.0124        80.1512        63.3962        60.9592        62.3113         0.9589         1.0469         1.4058         2.7955        23.0020         2.3025         1.3156       -37.6823     
 8250.0000        12.0510        11.9352         0.0113        80.0772        63.6951        62.1199        62.4417         0.9500         1.0752         1.4631         3.1206        23.4544         2.3000         1.3589       -37.8759     
 8250.5000        12.0943        11.9774         0.0110        79.9679        63.9938        63.5167        62.5040         0.9442         1.1170         1.5129         3.4321        23.3194         2.3032         1.4499       -37.7370     
 8251.0000        12.0995        11.9884         0.0085        79.8571        67.5093        66.5354        62.5186         0.9756         1.1540         1.5392         3.5326        22.5453         2.3098         1.4861       -38.1521     
 8251.5000        12.0565        11.9710         0.0089        79.7465        69.4779        68.6895        64.9215         1.0088         1.1701         1.5451         3.1355        21.5620         2.3126         1.4973       -38.0468     
 8252.0000        12.0503        11.9271         0.0337        79.5543        69.0627        69.1577        66.6848         1.0611         1.1764         1.5448         3.0784        21.1662         2.3334         1.4909       -37.5960     
 8252.5000        12.0523        11.9376         0.0362        79.2968        70.5853        68.0259        68.0076         1.1135         1.1866         1.5662         3.2943        21.2583         2.3438         1.5075       -37.3753     
 8253.0000        12.0929        11.9536         0.0334        79.1112        72.5684        66.9937        68.8147         1.1590         1.2488         1.6310         3.7776        20.6552         2.3519         1.5544       -37.1722     
 8253.5000        12.0557        11.9202         0.0251        79.1558        71.5750        66.1829        67.3109         1.1868         1.3367         1.8173         4.3630        20.5266         2.3582         1.7084       -37.2143     
 8254.0000        12.0503        11.9410         0.0214        79.2102        70.9765        66.0510        68.0106         1.2145         1.4190         1.9578         4.1168        20.6965         2.3713         1.8441       -37.3329     
 8254.5000        12.0503        11.9996         0.0166        79.2654        70.6881        67.8218        69.2883         1.2423         1.4915         2.0231         3.9818        20.5064         2.3641         1.9647       -37.2358     
 8255.0000        12.0503        11.9595         0.0115        79.5646        69.7565        68.7656        69.1209         1.2700         1.5305         1.9762         4.1469        20.4447         2.3648         2.0420       -37.3247     
 8255.5000        12.0503        11.9239         0.0191        80.0396        69.5352        67.9152        68.7091         1.2683         1.4794         1.8704         3.9294        20.6046         2.3648         2.0454       -37.0035     
 8256.0000        12.0504        11.9798         0.0239        80.2255        69.5608        67.8802        74.5997         1.2348         1.3591         1.7538         3.3046        20.9463         2.3452         1.8481       -36.5816     
 8256.5000        12.0504        12.0596         0.0403        80.3773        70.4885        67.6604        75.1643         1.2012         1.2470         1.5323         2.9146        22.2404         2.3409         1.6390       -36.4112     
