~Version Information Section
VERS.          2.0                                     : CWLS LOG ASCII Standard
WRAP.          NO                                      : One line per depth step
CREA.          03/08/17                                : LAS Creation Date
~Well Information Section
STRT.ft        420.0000                                : Start Depth
STOP.ft        8605.0000                               : Stop Depth
STEP.ft        0.5000                                  : Step
NULL.          -999.2500                               : Null Value
COMP.          TEXACO UK                               : Company
WELL.          14/20-11                                : Well
FLD .          MORAY FIRTH                             : Field
LOC .          NORTH SEA                               : Location
LOC1.          -                                       : Location (UTM)
CTRY.          UK                                      : Country
PROV.          UKCS                                    : Province
UWI .          855                                     : UWI Number
API .          -                                       : API Number
SECT.          -                                       : Section
TOWN.          -                                       : Township
RNGE.          -                                       : Range
PDAT.          MSL                                     : Perm Datum
EPD .ft        0.0                                     : Elevation
LMF .          KB                                      : Log Measured From
DMF .          KB                                      : Drill Measured From
APD .ft        81.0                                    : Above Perm Datum
EKB .ft        81.0                                    : Elev-Kelly Bushing
EDF .ft        80.0                                    : Elev-Drill Floor
EGL .ft        -434.0                                  : Elev-Ground Level (Water Depth)
TDD .ft        8605.0                                  : Total Depth (Driller)
TDL .ft        8605.0                                  : Total Depth (Logger)
SRVC.          SCHLUMBERGER                            : Service Company
LATI.          58 20 05.29" N                          : Latitude
LONG.          00 06 26.84" W                          : Longitude
DATE.          MAY-JUN-1980                            : Logging Date
PROJ.          UKCS                                    : Project
SET .          COMP_WIRE                               : Set
~Curve Information Section
DEPTH.ft                                               : Depth Curve
CALD.in                                                : Caliper (FDC/CNL/GR)
CALS.in                                                : Caliper (DLL/MSFL/GR)
DRHO.g/cc                                              : Delta Rho
DT.us/ft                                               : Delta-T
GR.gAPI                                                : Gamma Ray (ISF/BHC/GR)
GRD.gAPI                                               : Gamma Ray (FDC/CNL/GR)
GRL.gAPI                                               : Gamma Ray (DLL/MSFL/GR)
ILD.Ohmm                                               : Deep Induction Standard Processed Resistivity
LLD.Ohmm                                               : Latero-Log Deep (Resistivity)
LLS.Ohmm                                               : Latero-Log Shallow (Resistivity)
MSFL.Ohmm                                              : Msfl Resistivity
NPHI.LPU                                               : Neutron Porosity
RHOB.g/cc                                              : Bulk Density
SFLU.Ohmm                                              : SFL Resistivity (Unaveraged)
SP.mV                                                  : Spontaneous Potential (ISF/BHC/GR)
~ASCII Log Data Section
# ...
 7985.0000        12.0503        12.1041         0.0177        85.5201        67.2212        66.3271        69.0218         0.5107         0.5849         0.7319         1.8351        24.1005         2.1955         0.7000       -43.4074     
 7985.5000        12.0503        12.0993         0.0209        85.6389        66.6781        65.1258        67.9794         0.5028         0.5627         0.6752         1.7999        24.7666         2.1945         0.6850       -43.4058     
 7986.0000        12.0503        12.0945         0.0210        85.6959        66.0815        62.9960        67.3134         0.4979         0.5299         0.6508         1.7986        25.7259         2.2003         0.6840       -43.3404     
 7986.5000        12.0504        12.0860         0.0256        85.7441        65.9578        62.6517        66.9038         0.4991         0.5107         0.6402         1.8163        26.4598         2.2073         0.6840       -43.1571     
 7987.0000        12.0504        12.0722         0.0260        85.7922        66.5108        63.1877        66.5544         0.5006         0.5013         0.6367         1.7675        27.1177         2.2085         0.6840       -43.1596     
 7987.5000        12.0504        12.0583         0.0221        85.7506        66.9168        63.1086        64.6440         0.5205         0.4989         0.6415         1.6958        27.6905         2.2230         0.6840       -43.2304     
 7988.0000        12.0504        12.0444         0.0297        85.6235        66.6180        63.3039        62.6088         0.5412         0.5007         0.6358         1.5847        27.6694         2.2322         0.6905       -43.4072     
 7988.5000        12.0504        12.0314         0.0310        85.4808        68.7147        63.3717        63.4647         0.5620         0.5032         0.6278         1.5974        26.8161         2.2308         0.7011       -43.4108     
 7989.0000        12.0504        12.0264         0.0242        85.3382        68.2834        63.9620        66.1639         0.5818         0.5093         0.6251         1.5701        25.4202         2.2274         0.7355       -43.4869     
 7989.5000        12.0504        12.0214         0.0207        85.0299        67.3956        65.1035        68.5535         0.6013         0.5154         0.6252         1.5559        24.6007         2.2170         0.7952       -43.6615     
 7990.0000        12.0504        12.0164         0.0161        84.4592        66.8308        65.4994        70.3859         0.6207         0.5246         0.6464         1.5908        24.6459         2.2242         0.8594       -43.7361     
 7990.5000        12.0495        12.0138         0.0200        83.8324        69.7979        65.8288        70.2159         0.6379         0.5343         0.6761         1.8973        24.5565         2.2328         0.9237       -43.8159     
 7991.0000        12.0304        12.0288         0.0217        83.1459        70.4056        67.9864        70.1151         0.6545         0.5549         0.7249         2.1710        24.0257         2.2372         0.9795       -43.5693     
 7991.5000        12.0210        12.0509         0.0175        82.2751        70.4851        68.9134        70.4068         0.6686         0.5831         0.7755         2.2796        23.0642         2.2560         1.0281       -43.4074     
 7992.0000        12.0504        12.0644         0.0278        81.5012        70.7793        69.1782        70.3608         0.6779         0.6129         0.8571         1.8609        22.1496         2.2758         1.0513       -43.4071     
 7992.5000        12.0504        12.0779         0.0402        82.0550        71.0623        71.0561        70.4630         0.6816         0.6644         0.9268         1.8475        22.1535         2.2772         1.0443       -43.3344     
 7993.0000        12.0504        12.0915         0.0320        82.9411        70.8154        73.3247        70.5474         0.6753         0.7037         0.9264         2.4589        22.7380         2.2752         1.0099       -43.1692     
 7993.5000        12.0504        12.1059         0.0234        83.8264        72.0009        73.2266        73.1030         0.6625         0.7039         0.9051         2.4779        23.4594         2.2568         0.9755       -43.1571     
 7994.0000        12.0504        12.1203         0.0136        84.7127        73.1844        72.5163        75.0457         0.6390         0.7000         0.8837         2.1008        24.3508         2.2341         0.9398       -43.1571     
 7994.5000        12.0504        12.1348         0.0133        85.0457        73.0735        72.4926        74.6599         0.6154         0.6816         0.8633         2.0589        25.2101         2.2219         0.8810       -43.1571     
 7995.0000        12.0504        12.1492         0.0123        84.8977        73.3927        70.9772        74.5276         0.5902         0.6628         0.8456         2.1363        25.9734         2.2125         0.8221       -43.1571     
 7995.5000        12.0504        12.1514         0.0114        84.7821        72.0331        69.0337        75.2636         0.5625         0.6383         0.8069         2.0712        26.6492         2.2014         0.7609       -43.1571     
 7996.0000        12.0503        12.1514         0.0124        84.7045        70.2688        67.5968        75.7658         0.5348         0.5967         0.7503         1.9727        27.0150         2.1962         0.6990       -43.1572     
 7996.5000        12.0503        12.1514         0.0067        84.6281        70.6638        66.4925        74.5313         0.5071         0.5530         0.6645         1.9123        26.8117         2.1916         0.6406       -43.2424     
 7997.0000        12.0503        12.1514         0.0106        84.5517        70.6865        65.5532        72.2164         0.5056         0.5087         0.5727         1.7685        26.3807         2.1958         0.5834       -43.4023     
 7997.5000        12.0503        12.1514         0.0143        84.4754        66.3997        63.4527        69.1548         0.5060         0.4645         0.5379         1.6964        25.9853         2.1948         0.5723       -43.4960     
 7998.0000        12.0504        12.1514         0.0139        84.5112        60.1824        60.4845        66.6937         0.4916         0.4243         0.5212         1.5897        25.7049         2.1976         0.5644       -43.6539     
 7998.5000        12.0504        12.1514         0.0188        84.6047        62.5052        58.8621        65.2720         0.4822         0.4071         0.5293         1.3214        25.5319         2.2117         0.5954       -43.7493     
 7999.0000        12.0504        12.1514         0.0268        84.7060        62.5034        59.1478        64.0674         0.4749         0.4141         0.5472         1.1920        25.4450         2.2180         0.6285       -43.9055     
 7999.5000        12.0504        12.1514         0.0245        84.8069        62.5017        60.1316        63.6676         0.4720         0.4338         0.5863         1.1514        25.4698         2.2126         0.6684       -43.8112     
 8000.0000        12.0504        12.1514         0.0125        84.8428        62.5000        61.7880        63.9203         0.4720         0.4766         0.6207         1.4354        25.5191         2.1953         0.7061       -43.6573     
 8000.5000        12.0504        12.1660         0.0116        84.8476        61.6536        63.3169        62.6857         0.4737         0.5066         0.6612         1.7206        25.6973         2.2022         0.7296       -43.6560     
 8001.0000        12.0504        12.1820         0.0127        84.8490        66.4080        62.9940        64.9528         0.4799         0.5312         0.6898         1.8560        26.0345         2.2049         0.7527       -43.5542     
 8001.5000        12.0503        12.1981         0.0124        84.8503        64.9077        62.6287        67.5340         0.4889         0.5504         0.7099         1.9212        26.2833         2.2069         0.7738       -43.4100     
