~Version Information Section
VERS.          2.0                                     : CWLS LOG ASCII Standard
WRAP.          NO                                      : One line per depth step
CREA.          03/08/17                                : LAS Creation Date
~Well Information Section
STRT.ft        420.0000                                : Start Depth
STOP.ft        8605.0000                               : Stop Depth
STEP.ft        0.5000                                  : Step
NULL.          -999.2500                               : Null Value
COMP.          TEXACO UK                               : Company
WELL.          14/20-11                                : Well
FLD .          MORAY FIRTH                             : Field
LOC .          NORTH SEA                               : Location
LOC1.          -                                       : Location (UTM)
CTRY.          UK                                      : Country
PROV.          UKCS                                    : Province
UWI .          855                                     : UWI Number
API .          -                                       : API Number
SECT.          -                                       : Section
TOWN.          -                                       : Township
RNGE.          -                                       : Range
PDAT.          MSL                                     : Perm Datum
EPD .ft        0.0                                     : Elevation
LMF .          KB                                      : Log Measured From
DMF .          KB                                      : Drill Measured From
APD .ft        81.0                                    : Above Perm Datum
EKB .ft        81.0                                    : Elev-Kelly Bushing
EDF .ft        80.0                                    : Elev-Drill Floor
EGL .ft        -434.0                                  : Elev-Ground Level (Water Depth)
TDD .ft        8605.0                                  : Total Depth (Driller)
TDL .ft        8605.0                                  : Total Depth (Logger)
SRVC.          SCHLUMBERGER                            : Service Company
LATI.          58 20 05.29" N                          : Latitude
LONG.          00 06 26.84" W                          : Longitude
DATE.          MAY-JUN-1980                            : Logging Date
PROJ.          UKCS                                    : Project
SET .          COMP_WIRE                               : Set
~Curve Information Section
DEPTH.ft                                               : Depth Curve
CALD.in                                                : Caliper (FDC/CNL/GR)
CALS.in                                                : Caliper (DLL/MSFL/GR)
DRHO.g/cc                                              : Delta Rho
DT.us/ft                                               : Delta-T
GR.gAPI                                                : Gamma Ray (ISF/BHC/GR)
GRD.gAPI                                               : Gamma Ray (FDC/CNL/GR)
GRL.gAPI                                               : Gamma Ray (DLL/MSFL/GR)
ILD.Ohmm                                               : Deep Induction Standard Processed Resistivity
LLD.Ohmm                                               : Latero-Log Deep (Resistivity)
LLS.Ohmm                                               : Latero-Log Shallow (Resistivity)
MSFL.Ohmm                                              : Msfl Resistivity
NPHI.LPU                                               : Neutron Porosity
RHOB.g/cc                                              : Bulk Density
SFLU.Ohmm                                              : SFL Resistivity (Unaveraged)
SP.mV                                                  : Spontaneous Potential (ISF/BHC/GR)
~ASCII Log Data Section
# ...
 8580.0000        12.3282        12.4096         0.0204      -999.2500        98.6894      -999.2500      -999.2500        14.7122        19.4102        21.2585        30.4810        34.0522         2.4911        19.0924       -17.4068     
 8580.5000        12.2654        12.4222         0.0268      -999.2500        96.4363      -999.2500      -999.2500        15.0597        19.6248        21.3633        36.1026        31.6094         2.5995        20.5241       -17.4530     
 8581.0000        12.2612        12.4348         0.0175      -999.2500        95.1386      -999.2500      -999.2500        15.8232        20.1416        21.2142        32.7480        29.2730         2.5978        20.9849       -18.4793     
 8581.5000        12.2597        12.4473         0.0170      -999.2500      -999.2500      -999.2500      -999.2500        17.1248        20.1092        21.1441        32.2985        29.3045         2.5820        21.1786       -19.5008     
 8582.0000        12.2582        12.4599         0.0112      -999.2500      -999.2500      -999.2500      -999.2500        18.7233        19.3751        20.3539        28.4341        29.0796         2.5878        21.1114       -20.4055     
 8582.5000        12.2567        12.4676         0.0262      -999.2500      -999.2500      -999.2500      -999.2500        19.8025        18.7373        19.5681        24.4646        28.6558         2.5817        21.0443       -20.4135     
 8583.0000        12.2191        12.4720         0.0362      -999.2500      -999.2500      -999.2500      -999.2500        18.8102        19.0869        19.9571        37.6760        26.9075         2.5722        21.3516       -20.4963     
 8583.5000        12.2151        12.4764         0.0192      -999.2500      -999.2500      -999.2500      -999.2500        16.4582        19.5417        20.5506        35.6577        26.2284         2.5835        22.0035       -21.6655     
 8584.0000        12.2139        12.4809         0.0051      -999.2500      -999.2500      -999.2500      -999.2500        14.8656        20.5875        21.0186        31.3512        25.7512         2.5754        22.4878       -22.6809     
 8584.5000        12.2126        12.4852         0.0028      -999.2500      -999.2500      -999.2500      -999.2500        13.2730        19.1593        19.1127        28.1964        24.9027         2.5663        20.9815       -23.4908     
 8585.0000        12.2295        12.4919         0.0067      -999.2500      -999.2500      -999.2500      -999.2500        12.3458        14.7346        14.2750        17.8104        22.3747         2.5815        18.3620       -24.4102     
 8585.5000        12.2476        12.5038         0.0280      -999.2500      -999.2500      -999.2500      -999.2500        11.5717        11.2691        11.4069        14.6256        19.7633         2.5844        15.3187       -24.7252     
 8586.0000        12.2090        12.5156         0.0418      -999.2500      -999.2500      -999.2500      -999.2500        10.9086         9.1049         9.5185        13.3661        19.3670         2.5867        12.3633       -25.1491     
 8586.5000        12.2052        12.5274         0.0438      -999.2500      -999.2500      -999.2500      -999.2500        10.2566         8.0760         8.7961        13.1956        19.0376         2.5737         9.9518       -25.2462     
 8587.0000        12.2037        12.5392         0.0458      -999.2500      -999.2500      -999.2500      -999.2500         9.7047         8.0494         8.4764        13.2562        18.8205         2.5797         9.0447       -25.6086     
 8587.5000        12.2024        12.5507         0.0162      -999.2500      -999.2500      -999.2500      -999.2500         9.3029         7.8487         8.7050        12.5446        18.6101         2.5533         8.9190       -25.3536     
 8588.0000        12.2012        12.5462         0.0063      -999.2500      -999.2500      -999.2500      -999.2500         9.0888         7.8656         8.8687        12.3266        18.3151         2.5499         8.8046       -25.1554     
 8588.5000        12.2364        12.5418         0.0100      -999.2500      -999.2500      -999.2500      -999.2500         9.1369         8.0155         8.9285        11.9526        18.5372         2.5281         8.7710       -25.0225     
 8589.0000        12.2556        12.5373         0.0040      -999.2500      -999.2500      -999.2500      -999.2500         9.4945         8.1316         8.5243        12.8512        18.6116         2.5314         8.7374       -24.3756     
 8589.5000        12.2739        12.5352        -0.0036      -999.2500      -999.2500      -999.2500      -999.2500        10.1891         8.0830         8.5814        13.2845        18.2527         2.5040         8.8284       -23.3580     
 8590.0000        12.2359        12.5415         0.0022      -999.2500      -999.2500      -999.2500      -999.2500        11.6937         8.2890         8.9078        13.1746        17.9112         2.5091         9.0276       -22.4193     
 8590.5000        12.2143        12.5479         0.0078      -999.2500      -999.2500      -999.2500      -999.2500        17.7456         9.4737         9.7253        16.7416      -999.2500         2.5188         9.4512       -21.7367     
 8591.0000        12.1935        12.5542         0.0055      -999.2500      -999.2500      -999.2500      -999.2500        19.9243        12.6466        13.1845        23.4224      -999.2500         2.5158         9.9840       -21.2265     
 8591.5000        12.1907        12.5742        -0.0045      -999.2500      -999.2500      -999.2500      -999.2500        20.2438      -999.2500        18.0025        27.9792      -999.2500         2.4839        10.7685       -20.7150     
 8592.0000        12.2268        12.5987        -0.0141      -999.2500      -999.2500      -999.2500      -999.2500        14.2795      -999.2500      -999.2500        26.5258      -999.2500         2.4345        13.7849       -20.2050     
 8592.5000        12.4174        12.6231        -0.0137      -999.2500      -999.2500      -999.2500      -999.2500         9.6347      -999.2500      -999.2500        21.6628      -999.2500         2.2532        19.0347       -19.6880     
 8593.0000        12.8922        12.6475         0.0346      -999.2500      -999.2500      -999.2500      -999.2500         8.6408      -999.2500      -999.2500         3.7457      -999.2500         2.2454        18.1955       -19.0869     
 8593.5000        13.8400      -999.2500         0.0756      -999.2500      -999.2500      -999.2500      -999.2500         8.2554      -999.2500      -999.2500         0.8001      -999.2500         2.2448        14.1242       -18.5364     
 8594.0000        14.7217      -999.2500         0.0487      -999.2500      -999.2500      -999.2500      -999.2500         8.8108      -999.2500      -999.2500         0.7703      -999.2500         2.2832        10.9298       -18.2298     
 8594.5000        13.5175      -999.2500         0.0471      -999.2500      -999.2500      -999.2500      -999.2500         9.7569      -999.2500      -999.2500         0.4468      -999.2500         2.3014         9.8250       -17.5435     
 8595.0000        13.5997      -999.2500         0.0109      -999.2500      -999.2500      -999.2500      -999.2500        10.3830      -999.2500      -999.2500         0.4491      -999.2500         2.3479         9.6445       -16.4501     
 8595.5000        12.5034      -999.2500         0.0090      -999.2500      -999.2500      -999.2500      -999.2500         9.7891      -999.2500      -999.2500         1.3320      -999.2500         2.3811         9.4787       -15.8106     
 8596.0000        12.5675      -999.2500         0.0356      -999.2500      -999.2500      -999.2500      -999.2500         7.6732      -999.2500      -999.2500         4.5136      -999.2500         2.4276        10.2181       -15.5723     
 8596.5000        12.5274      -999.2500         0.0196      -999.2500      -999.2500      -999.2500      -999.2500         8.2282      -999.2500      -999.2500         9.3309      -999.2500         2.4647        11.3099       -15.0665     
