~Version Information Section
VERS.          2.0                                     : CWLS LOG ASCII Standard
WRAP.          NO                                      : One line per depth step
CREA.          03/08/17                                : LAS Creation Date
~Well Information Section
STRT.ft        420.0000                                : Start Depth
STOP.ft        8605.0000                               : Stop Depth
STEP.ft        0.5000                                  : Step
NULL.          -999.2500                               : Null Value
COMP.          TEXACO UK                               : Company
WELL.          14/20-11                                : Well
FLD .          MORAY FIRTH                             : Field
LOC .          NORTH SEA                               : Location
LOC1.          -                                       : Location (UTM)
CTRY.          UK                                      : Country
PROV.          UKCS                                    : Province
UWI .          855                                     : UWI Number
API .          -                                       : API Number
SECT.          -                                       : Section
TOWN.          -                                       : Township
RNGE.          -                                       : Range
PDAT.          MSL                                     : Perm Datum
EPD .ft        0.0                                     : Elevation
LMF .          KB                                      : Log Measured From
DMF .          KB                                      : Drill Measured From
APD .ft        81.0                                    : Above Perm Datum
EKB .ft        81.0                                    : Elev-Kelly Bushing
EDF .ft        80.0                                    : Elev-Drill Floor
EGL .ft        -434.0                                  : Elev-Ground Level (Water Depth)
TDD .ft        8605.0                                  : Total Depth (Driller)
TDL .ft        8605.0                                  : Total Depth (Logger)
SRVC.          SCHLUMBERGER                            : Service Company
LATI.          58 20 05.29" N                          : Latitude
LONG.          00 06 26.84" W                          : Longitude
DATE.          MAY-JUN-1980                            : Logging Date
PROJ.          UKCS                                    : Project
SET .          COMP_WIRE                               : Set
~Curve Information Section
DEPTH.ft                                               : Depth Curve
CALD.in                                                : Caliper (FDC/CNL/GR)
CALS.in                                                : Caliper (DLL/MSFL/GR)
DRHO.g/cc                                              : Delta Rho
DT.us/ft                                               : Delta-T
GR.gAPI                                                : Gamma Ray (ISF/BHC/GR)
GRD.gAPI                                               : Gamma Ray (FDC/CNL/GR)
GRL.gAPI                                               : Gamma Ray (DLL/MSFL/GR)
ILD.Ohmm                                               : Deep Induction Standard Processed Resistivity
LLD.Ohmm                                               : Latero-Log Deep (Resistivity)
LLS.Ohmm                                               : Latero-Log Shallow (Resistivity)
MSFL.Ohmm                                              : Msfl Resistivity
NPHI.LPU                                               : Neutron Porosity
RHOB.g/cc                                              : Bulk Density
SFLU.Ohmm                                              : SFL Resistivity (Unaveraged)
SP.mV                                                  : Spontaneous Potential (ISF/BHC/GR)
~ASCII Log Data Section
# ...
 8410.0000        12.2014        12.3358         0.0238        48.5778        36.7579        41.1706        40.3934        32.5009       123.9657       121.9346       129.1268         3.6762         2.7316       210.9939       -27.0787     
 8410.5000        12.2035        12.2658         0.0218        48.7587        37.4216        42.3766        42.7461        30.2003       102.7993       108.5726       172.5302         4.4455         2.7272       185.1858       -27.3522     
 8411.0000        12.2432        12.1212         0.0226        49.0316        38.8194        44.8314        48.5668        27.9332        82.7688        92.0222       206.2281         5.0649         2.7227       149.0474       -28.1214     
 8411.5000        12.2884        11.9741         0.0528        49.1729        45.0887        48.1516        57.3406        25.5622        52.5325        65.4237       173.4451         6.3095         2.7327       108.5127       -28.5715     
 8412.0000        12.3013        11.8617         0.0784        48.9826        51.3480        52.3645        64.3501        23.5681        40.1433        47.0238       129.8789         8.3632         2.7763        74.9837       -28.9482     
 8412.5000        12.2293        11.7612         0.0530        48.6446        57.6073        57.4945        67.8406        21.3749        37.0338        44.2229        86.3488        10.1641         2.7661        53.9491       -29.2931     
 8413.0000        12.2026        11.6666         0.0437        48.4587        64.0301        61.2547        67.8741        19.3424        33.8511        40.5298       163.2808        10.7463         2.7341        44.7284       -29.7481     
 8413.5000        12.1641        11.5733         0.0454        48.3738        65.0681        61.6175        64.1619        17.6304        29.2473        37.6194       145.4128        11.2264         2.7194        40.3941       -30.3544     
 8414.0000        12.1131        11.5060         0.0349        48.5905        60.2792        57.9558        58.2781        16.2451        23.8038        34.6748        63.6081        11.6468         2.6962        37.2618       -30.8250     
 8414.5000        12.0280        11.4929         0.0384        49.0867        57.1376        53.5187        53.5127        15.1784        19.5313        23.4113        45.4200        12.1944         2.7039        31.2865       -31.3553     
 8415.0000        12.0731        11.6105         0.0370        49.6575        55.9206        52.4564        51.4008        14.2310        16.9740        17.0171        36.0543        13.3264         2.7127        25.5199       -32.0063     
 8415.5000        12.0611        11.7402         0.0234        50.2980        51.4801        52.7541        49.3269        13.0386        15.7034        15.3630        31.5767        14.6349         2.6893        22.4926       -32.4414     
 8416.0000        12.0129        11.8050         0.0178        51.5135        47.7209        51.2879        45.7394        11.6532        14.1896        14.0978        28.2640        16.2527         2.6693        16.9145       -32.6627     
 8416.5000        12.0000        11.8362         0.0232        53.4126        44.1558        47.1907        42.2673         9.5045        10.9634        12.6863        32.4286        17.6175         2.6676        12.3138       -32.7333     
 8417.0000        12.0000        11.8626         0.0296        56.0513        42.1630        42.0333        39.1223         7.7142         7.7323         9.7707        26.1157        18.8787         2.6635         8.5046       -33.2030     
 8417.5000        12.0000        11.8793         0.0244        59.0148        42.4831        39.2659        37.8315         6.4690         5.7056         5.7091        14.9767        19.9532         2.6477         6.4772       -33.5094     
 8418.0000        12.0000        11.8405         0.0339        61.2709        44.3342        38.9522        39.4480         5.6950         4.6144         4.4064         9.3461        20.8472         2.6359         5.4810       -33.6502     
 8418.5000        11.9646        11.7683         0.0255        62.0554        46.0844        39.0165        41.1537         5.1916         4.6806         4.4658         9.0965        20.2275         2.6192         5.3001       -33.4665     
 8419.0000        11.9497        11.7224         0.0104        61.6846        47.7865        40.2060        40.6936         4.8462         5.2794         5.1681         9.3124        19.0536         2.6103         4.7950       -33.6404     
 8419.5000        11.9508        11.7549         0.0109        60.6538        49.4679        41.6524        38.6140         4.5199         5.8970         5.6285        10.2895        18.8097         2.6008         5.2414       -33.4416     
 8420.0000        11.9849        11.8270         0.0158        60.3493        40.4068        43.0066        37.0456         4.3712         5.9901         6.0339        11.8499        19.5074         2.6030         6.0288       -33.7230     
 8420.5000        12.0000        11.7735         0.0198        61.1105        39.8607        43.3498        37.0528         4.3478         5.8163         6.0130        14.8581        20.1569         2.6221         6.6597       -33.7965     
 8421.0000        12.0000        11.7173         0.0223        61.6578        39.4190        42.4243        38.3215         4.3949         5.6086         5.5952        13.2063        21.1432         2.6396         6.5861       -33.6589     
 8421.5000        12.0000        11.7629         0.0214        61.8747        40.1476        41.1812        39.9005         4.4227         5.5198         5.5352        10.6878        21.8623         2.6355         6.1550       -33.8477     
 8422.0000        12.0000        11.8132         0.0155        61.7626        42.4202        41.2538        41.6077         4.4250         5.5126         5.5233        10.9611        21.3569         2.6334         5.7295       -33.8950     
 8422.5000        12.0000        11.7743         0.0135        61.1150        45.0132        43.8006        42.7200         4.3404         5.5155         5.4182        12.8566        20.8261         2.6296         5.4755       -33.4092     
 8423.0000        12.0000        11.7587         0.0201        60.3431        45.7498        46.2856        43.0538         4.2146         5.6505         5.4250        13.8748        20.4037         2.6229         5.4703       -33.4710     
 8423.5000        12.0000        11.8190         0.0170        59.9650        45.6824        47.0978        41.9852         4.1228         5.7641         5.5832        15.0469        19.7009         2.6172         5.5261       -33.5409     
 8424.0000        12.0000        11.8390         0.0070        59.8454        44.9344        46.6933        41.4819         4.0548         5.7203         5.5917        17.9302        19.4543         2.6041         5.5583       -33.2374     
 8424.5000        12.0000        11.8373         0.0044        59.7255        44.0440        45.7715        42.5380         4.0885         5.6233         5.4985        15.9955        20.3152         2.5899         5.4897       -32.7600     
 8425.0000        12.0000        11.8699         0.0075        59.6672        43.3335        44.3495        42.4459         4.1428         5.5153         5.3468        10.7991        20.8824         2.5873         5.1709       -32.2572     
 8425.5000        12.0000        11.8907         0.0211        59.6644        43.2127        43.8845        42.5717         4.2290         5.2585         5.0533        10.2861        20.7820         2.6013         4.6282       -31.4165     
 8426.0000        12.0000        11.9191         0.0323        59.6664        44.2864        44.1880        45.3165         4.3832         4.9083         4.6630        11.1629        20.6018         2.6265         4.2627       -30.0839     
 8426.5000        12.0296        12.1318         0.0274        59.2765        46.7426        45.8092        49.0859         4.6404         4.7386         4.4468         9.3733        20.6974         2.6364         4.2984       -29.0889     
