~Version Information Section
VERS.          2.0                                     : CWLS LOG ASCII Standard
WRAP.          NO                                      : One line per depth step
CREA.          03/08/17                                : LAS Creation Date
~Well Information Section
STRT.ft        420.0000                                : Start Depth
STOP.ft        8605.0000                               : Stop Depth
STEP.ft        0.5000                                  : Step
NULL.          -999.2500                               : Null Value
COMP.          TEXACO UK                               : Company
WELL.          14/20-11                                : Well
FLD .          MORAY FIRTH                             : Field
LOC .          NORTH SEA                               : Location
LOC1.          -                                       : Location (UTM)
CTRY.          UK                                      : Country
PROV.          UKCS                                    : Province
UWI .          855                                     : UWI Number
API .          -                                       : API Number
SECT.          -                                       : Section
TOWN.          -                                       : Township
RNGE.          -                                       : Range
PDAT.          MSL                                     : Perm Datum
EPD .ft        0.0                                     : Elevation
LMF .          KB                                      : Log Measured From
DMF .          KB                                      : Drill Measured From
APD .ft        81.0                                    : Above Perm Datum
EKB .ft        81.0                                    : Elev-Kelly Bushing
EDF .ft        80.0                                    : Elev-Drill Floor
EGL .ft        -434.0                                  : Elev-Ground Level (Water Depth)
TDD .ft        8605.0                                  : Total Depth (Driller)
TDL .ft        8605.0                                  : Total Depth (Logger)
SRVC.          SCHLUMBERGER                            : Service Company
LATI.          58 20 05.29" N                          : Latitude
LONG.          00 06 26.84" W                          : Longitude
DATE.          MAY-JUN-1980                            : Logging Date
PROJ.          UKCS                                    : Project
SET .          COMP_WIRE                               : Set
~Curve Information Section
DEPTH.ft                                               : Depth Curve
CALD.in                                                : Caliper (FDC/CNL/GR)
CALS.in                                                : Caliper (DLL/MSFL/GR)
DRHO.g/cc                                              : Delta Rho
DT.us/ft                                               : Delta-T
GR.gAPI                                                : Gamma Ray (ISF/BHC/GR)
GRD.gAPI                                               : Gamma Ray (FDC/CNL/GR)
GRL.gAPI                                               : Gamma Ray (DLL/MSFL/GR)
ILD.Ohmm                                               : Deep Induction Standard Processed Resistivity
LLD.Ohmm                                               : Latero-Log Deep (Resistivity)
LLS.Ohmm                                               : Latero-Log Shallow (Resistivity)
MSFL.Ohmm                                              : Msfl Resistivity
NPHI.LPU                                               : Neutron Porosity
RHOB.g/cc                                              : Bulk Density
SFLU.Ohmm                                              : SFL Resistivity (Unaveraged)
SP.mV                                                  : Spontaneous Potential (ISF/BHC/GR)
~ASCII Log Data Section
# ...
 7458.0000        12.8577        12.7212         0.0238       111.0921        55.3535        45.9659        51.2775         1.5274         1.6751         1.6935         2.4862        37.2643         2.3150         1.7686       -13.2652     
 7458.5000        12.8784        12.7161         0.0246       109.3800        54.9551        45.7253        50.6315         1.5339         1.5870         1.5806         2.7995        36.8511         2.3070         1.7543       -13.2849     
 7459.0000        12.9248        12.7150         0.0152       107.6012        54.0217        45.7914        50.7971         1.5343         1.5821         1.6039         3.3486        35.9237         2.2910         1.7594       -13.4027     
 7459.5000        12.8947        12.7177         0.0117       105.0857        53.4580        46.0636        55.1979         1.5301         1.6984         1.7310         3.8984        35.9078         2.2816         1.7736       -13.3176     
 7460.0000        12.8108        12.7205         0.0180       105.6457        54.3329        47.4013        57.9204         1.5144         1.9374         1.9293         4.4473        36.4337         2.3002         1.7884       -13.1575     
 7460.5000        12.8057        12.7232         0.0185       108.7967        55.8399        49.2822        58.9017         1.4911         2.1205         2.1340         3.8191        37.3209         2.3300         1.8034       -13.1572     
 7461.0000        12.8058        12.7260         0.0266       110.7775        55.1419        51.0674        59.6014         1.4766         1.9273         1.9558         3.0170        37.7021         2.3460         1.8165       -13.1570     
 7461.5000        12.8260        12.7288         0.0462       111.5422        54.3136        51.7534        58.8480         1.4397         1.7067         1.7625         3.3259        37.6382         2.3587         1.7385       -13.1563     
 7462.0000        12.8757        12.7315         0.0515       111.2020        53.1135        52.0419        57.5881         1.4265         1.6020         1.6888         2.1241        37.3554         2.3606         1.6597       -12.7436     
 7462.5000        12.8858        12.7343         0.0463       111.0101        51.5465        52.2938        58.0562         1.3937         1.5317         1.6103         1.8225        36.8836         2.3386         1.5949       -12.8487     
 7463.0000        12.8564        12.7371         0.0500       110.7952        53.4917        52.4709        58.9700         1.3679         1.4783         1.5743         2.0003        36.2910         2.3324         1.5453       -12.7350     
 7463.5000        12.8763        12.7398         0.0439       108.3792        55.4356        52.7708        58.9865         1.3533         1.5000         1.6147         2.3203        35.5135         2.3533         1.5577       -12.6599     
 7464.0000        12.9065        12.7426         0.0371       106.7663        56.6724        53.0711        58.4494         1.3387         1.5209         1.6372         2.2105        35.6087         2.3593         1.5703       -12.5260     
 7464.5000        12.9052        12.7453         0.0338       107.8163        57.0039        53.2569        57.8958         1.3241         1.5450         1.6305         2.4735        35.9668         2.3617         1.6442       -12.4104     
 7465.0000        12.8654        12.7481         0.0225       106.7810        57.2311        53.3145        57.5127         1.3426         1.6265         1.6849         2.4797        35.7321         2.3651         1.7259       -12.4071     
 7465.5000        12.8058        12.7509         0.0113       103.9189        57.2331        53.7624        57.4201         1.3732         1.6391         1.7239         2.1844        36.8214         2.3574         1.8130       -12.4072     
 7466.0000        12.8068        12.7527         0.0167       103.4578        56.8386        54.1890        58.0824         1.4037         1.6039         1.7145         3.2542        38.9116         2.3543         1.9132       -12.4571     
 7466.5000        12.8266        12.7526         0.0201       103.3061        55.0352        53.8212        59.4564         1.4340         1.6466         1.7664         2.2193        39.6400         2.3548         1.9899       -12.6860     
 7467.0000        12.8573        12.7526         0.0204       102.4907        53.0046        54.0159        60.2346         1.4638         1.6718         1.8406         2.5290        37.5551         2.3629         2.0324       -12.8978     
 7467.5000        12.8756        12.7874         0.0388       104.7127        52.8628        54.2320        58.5903         1.4938         1.6559         1.8601         3.4792        35.6171         2.3897         2.0325       -12.6712     
 7468.0000        12.9043        12.8029         0.0597       107.5635        53.1055        53.5648        55.9901         1.5236         1.6769         1.8637         3.2792        35.5303         2.4108         2.0325       -12.6571     
 7468.5000        12.9065        12.8161         0.0580       105.1177        52.9255        52.6334        53.8871         1.5245         1.7613         1.9129         2.0536        36.4548         2.3865         2.0172       -12.6572     
 7469.0000        12.9065        12.7862         0.0524        98.2324        52.0031        51.1389        52.0571         1.5185         1.6611         1.8264         2.3009        37.2848         2.3669         1.9612       -12.6572     
 7469.5000        12.9065        12.7941         0.0419        93.9794        51.3235        49.7638        53.0552         1.4904         1.6141         1.7970         2.1315        37.4494         2.3795         1.8549       -12.6635     
 7470.0000        12.9585        12.8375         0.0211        97.2611        51.5663        49.5741        54.1827         1.4404         1.7285         1.8608         1.9718        37.4461         2.4416         1.7187       -12.8042     
 7470.5000        13.0369        12.8432         0.0109       105.6958        51.5536        49.3858        55.3214         1.3929         2.0082         2.0794         2.6941        36.8191         2.5124         1.5684       -13.1443     
 7471.0000        13.0254        12.8489         0.0493       114.7034        51.3354        48.7649        54.2039         1.3498         2.1923         2.2077         6.2807        37.0787         2.5608         1.4324       -13.5127     
 7471.5000        13.1442        12.8709         0.0944       117.8273        49.8085        48.0060        51.8069         1.3085         1.9807         1.9533         4.3219        38.3024         2.5451         1.3255       -13.8166     
 7472.0000        13.4798        12.9112         0.0944       112.3342        46.0269        45.8076        45.6190         1.3030         1.4257         1.4131         2.3238        39.2770         2.4533         1.2528       -14.2177     
 7472.5000        13.6896        12.9527         0.0609       102.3397        40.7174        42.5964        41.2422         1.2975         0.9949         1.0694         1.4897        38.9546         2.3694         1.2186       -14.4336     
 7473.0000        13.5246        12.9954         0.0138        88.5651        43.1345        38.9108        40.5238         1.3687         0.9929         1.0681         1.7730        35.7338         2.3473         1.2533       -14.8747     
 7473.5000        13.4643        13.0380         0.0055        80.4044        46.8354        34.6987        47.4320         1.4479         1.3221         1.3719         4.3799        31.1416         2.3940         1.3831       -15.4082     
 7474.0000        13.1079        13.0452         0.0073        80.1153        50.9776        29.7879        53.3682         1.5274         1.8151         1.8505         4.8635        26.3187         2.4596         1.7309       -15.7129     
 7474.5000        13.1087        13.0371         0.0070        81.4004        48.3310        26.8467        54.0253         1.6656         2.3250         2.4119         4.8011        24.7988         2.4768         2.1187       -16.1026     
