~Version Information Section
VERS.          2.0                                     : CWLS LOG ASCII Standard
WRAP.          NO                                      : One line per depth step
CREA.          03/08/17                                : LAS Creation Date
~Well Information Section
STRT.ft        420.0000                                : Start Depth
STOP.ft        8605.0000                               : Stop Depth
STEP.ft        0.5000                                  : Step
NULL.          -999.2500                               : Null Value
COMP.          TEXACO UK                               : Company
WELL.          14/20-11                                : Well
FLD .          MORAY FIRTH                             : Field
LOC .          NORTH SEA                               : Location
LOC1.          -                                       : Location (UTM)
CTRY.          UK                                      : Country
PROV.          UKCS                                    : Province
UWI .          855                                     : UWI Number
API .          -                                       : API Number
SECT.          -                                       : Section
TOWN.          -                                       : Township
RNGE.          -                                       : Range
PDAT.          MSL                                     : Perm Datum
EPD .ft        0.0                                     : Elevation
LMF .          KB                                      : Log Measured From
DMF .          KB                                      : Drill Measured From
APD .ft        81.0                                    : Above Perm Datum
EKB .ft        81.0                                    : Elev-Kelly Bushing
EDF .ft        80.0                                    : Elev-Drill Floor
EGL .ft        -434.0                                  : Elev-Ground Level (Water Depth)
TDD .ft        8605.0                                  : Total Depth (Driller)
TDL .ft        8605.0                                  : Total Depth (Logger)
SRVC.          SCHLUMBERGER                            : Service Company
LATI.          58 20 05.29" N                          : Latitude
LONG.          00 06 26.84" W                          : Longitude
DATE.          MAY-JUN-1980                            : Logging Date
PROJ.          UKCS                                    : Project
SET .          COMP_WIRE                               : Set
~Curve Information Section
DEPTH.ft                                               : Depth Curve
CALD.in                                                : Caliper (FDC/CNL/GR)
CALS.in                                                : Caliper (DLL/MSFL/GR)
DRHO.g/cc                                              : Delta Rho
DT.us/ft                                               : Delta-T
GR.gAPI                                                : Gamma Ray (ISF/BHC/GR)
GRD.gAPI                                               : Gamma Ray (FDC/CNL/GR)
GRL.gAPI                                               : Gamma Ray (DLL/MSFL/GR)
ILD.Ohmm                                               : Deep Induction Standard Processed Resistivity
LLD.Ohmm                                               : Latero-Log Deep (Resistivity)
LLS.Ohmm                                               : Latero-Log Shallow (Resistivity)
MSFL.Ohmm                                              : Msfl Resistivity
NPHI.LPU                                               : Neutron Porosity
RHOB.g/cc                                              : Bulk Density
SFLU.Ohmm                                              : SFL Resistivity (Unaveraged)
SP.mV                                                  : Spontaneous Potential (ISF/BHC/GR)
~ASCII Log Data Section
# ...
 7883.0000        12.1007        12.2922         0.0081        88.0397        65.1301        59.7792        59.0842         0.4209         0.4196         0.5011         1.5760        26.5591         2.1786         0.5786       -44.5198     
 7883.5000        12.1007        12.2852         0.0090        87.8076        62.7200        59.5699        58.3587         0.4188         0.4213         0.5167         1.2601        26.4878         2.1894         0.5850       -44.6489     
 7884.0000        12.1007        12.2847         0.0139        87.4759        62.1908        59.1918        58.9574         0.4187         0.4316         0.5583         1.4620        27.0226         2.2004         0.5944       -44.6570     
 7884.5000        12.1007        12.2392         0.0228        87.1791        63.9071        59.7283        63.3113         0.4187         0.4423         0.5733         1.7002        27.1983         2.1933         0.6047       -44.5381     
 7885.0000        12.1007        12.1889         0.0122        87.1037        67.7541        61.4621        65.1526         0.4187         0.4480         0.5745         1.6925        27.1544         2.1833         0.6219       -44.1710     
 7885.5000        12.1007        12.1386         0.0090        87.1067        69.5024        63.3530        66.2743         0.4206         0.4538         0.5745         1.6253        25.9771         2.1812         0.6392       -43.7941     
 7886.0000        12.1007        12.0885         0.0053        87.1553        69.9761        64.4497        64.9650         0.4245         0.4596         0.5823         1.6211        25.7231         2.1882         0.6573       -43.7858     
 7886.5000        12.1007        12.1123         0.0127        87.3954        68.4229        64.6010        65.8533         0.4265         0.4637         0.5893         1.7135        25.3591         2.1954         0.6813       -43.9042     
 7887.0000        12.1007        12.1394         0.0121        87.6199        67.5428        65.3829        69.2887         0.4265         0.4667         0.5959         1.7293        25.1462         2.1816         0.6902       -43.9074     
 7887.5000        12.1007        12.1665         0.0133        87.7347        67.5377        66.2260        66.4380         0.4286         0.4698         0.6128         1.7293        25.5419         2.1822         0.6879       -44.0390     
 7888.0000        12.1007        12.1847         0.0185        87.7794        67.2351        67.4783        67.4364         0.4304         0.4689         0.6181         1.7070        26.0891         2.1956         0.6857       -44.2907     
 7888.5000        12.1007        12.2028         0.0169        87.8243        69.0079        68.3417        68.4589         0.4304         0.4674         0.6028         1.6827        26.4735         2.2004         0.6647       -44.4071     
 7889.0000        12.1007        12.2210         0.0135        87.8690        68.6222        67.2584        69.1754         0.4282         0.4652         0.5904         1.6618        26.8172         2.1912         0.6403       -44.4071     
 7889.5000        12.1007        12.2391         0.0096        87.9128        65.5101        65.3999        68.6807         0.4265         0.4581         0.5805         1.6047        27.3498         2.1814         0.6276       -44.4013     
 7890.0000        12.1007        12.2496         0.0125        87.9531        62.2522        63.2310        66.5002         0.4265         0.4511         0.5746         1.6447        27.8562         2.1821         0.6170       -44.1194     
 7890.5000        12.1007        12.2542         0.0181        87.9935        62.5750        62.1073        64.6026         0.4265         0.4450         0.5746         1.6673        27.6363         2.1854         0.6155       -43.7778     
 7891.0000        12.1007        12.2587         0.0198        88.0339        62.4471        62.2072        64.5994         0.4266         0.4379         0.5762         1.6425        27.7418         2.1908         0.6180       -44.0839     
 7891.5000        12.1007        12.2632         0.0261        88.0712        64.1962        63.2988        64.4005         0.4288         0.4308         0.5789         1.7328        27.2285         2.1900         0.6251       -44.1246     
 7892.0000        12.1007        12.2677         0.0296        88.0650        64.5355        65.3540        61.9297         0.4306         0.4277         0.5844         1.7450        27.4731         2.1971         0.6397       -44.2075     
 7892.5000        12.1007        12.2515         0.0265        87.8950        64.0087        66.6507        61.1914         0.4332         0.4357         0.5915         1.7755        27.1725         2.1988         0.6543       -44.4070     
 7893.0000        12.1007        12.2344         0.0320        87.7247        64.1390        66.8924        62.1888         0.4396         0.4509         0.5977         1.7770        27.1451         2.2077         0.6684       -44.4070     
 7893.5000        12.1007        12.2173         0.0328        87.5546        64.2790        66.9000        63.4725         0.4454         0.4679         0.6030         1.7932        26.8371         2.2091         0.6819       -44.4070     
 7894.0000        12.1007        12.2002         0.0269        87.3869        65.1744        67.1542        62.9213         0.4511         0.4736         0.6083         1.7908        26.8501         2.2043         0.6873       -44.4068     
 7894.5000        12.1007        12.1831         0.0212        87.2403        63.5677        67.4470        61.0595         0.4570         0.4774         0.6152         1.7196        26.5728         2.1988         0.6898       -44.1291     
 7895.0000        12.1007        12.1702         0.0244        87.1149        63.7203        67.7029        61.6947         0.4614         0.4815         0.6285         1.6545        26.4863         2.1974         0.6897       -43.9211     
 7895.5000        12.1007        12.1736         0.0147        86.9982        65.5041        67.7932        65.0845         0.4657         0.4856         0.6408         1.7537        26.4800         2.1969         0.6822       -43.7634     
 7896.0000        12.1007        12.1769         0.0067        86.9711        67.2475        67.1850        66.6285         0.4701         0.4838         0.6364         1.7622        26.4800         2.1964         0.6748       -43.6629     
 7896.5000        12.1007        12.1803         0.0104        87.1197        64.2691        65.9889        65.6839         0.4719         0.4762         0.6216         1.7447        26.1758         2.1973         0.6673       -43.8056     
 7897.0000        12.1007        12.1837         0.0225        87.4086        63.7563        64.8140        63.0230         0.4720         0.4675         0.6033         1.6314        25.7789         2.2033         0.6271       -43.9038     
 7897.5000        12.1007        12.1871         0.0220        87.7226        63.2681        62.8538        62.7938         0.4746         0.4537         0.5810         1.6371        25.9295         2.2117         0.6143       -44.2132     
 7898.0000        12.1007        12.1905         0.0173        87.9758        62.9680        61.3098        62.7223         0.4763         0.4327         0.5571         1.7501        26.6745         2.2097         0.6060       -44.4019     
 7898.5000        12.1007        12.1962         0.0191        88.1256        64.4268        61.6320        62.9460         0.4763         0.4116         0.5396         1.5561        27.2912         2.2006         0.5976       -44.4072     
 7899.0000        12.1007        12.2021         0.0230        88.2345        64.5554        61.6387        62.4141         0.4792         0.4078         0.5226         1.4234        26.7252         2.2080         0.5893       -44.4072     
 7899.5000        12.1007        12.2079         0.0232        87.9222        63.9501        61.0699        61.6417         0.4836         0.4050         0.5162         1.2691        26.7272         2.2222         0.5810       -44.4071     
