~Version Information Section
VERS.          2.0                                     : CWLS LOG ASCII Standard
WRAP.          NO                                      : One line per depth step
CREA.          03/08/17                                : LAS Creation Date
~Well Information Section
STRT.ft        420.0000                                : Start Depth
STOP.ft        8605.0000                               : Stop Depth
STEP.ft        0.5000                                  : Step
NULL.          -999.2500                               : Null Value
COMP.          TEXACO UK                               : Company
WELL.          14/20-11                                : Well
FLD .          MORAY FIRTH                             : Field
LOC .          NORTH SEA                               : Location
LOC1.          -                                       : Location (UTM)
CTRY.          UK                                      : Country
PROV.          UKCS                                    : Province
UWI .          855                                     : UWI Number
API .          -                                       : API Number
SECT.          -                                       : Section
TOWN.          -                                       : Township
RNGE.          -                                       : Range
PDAT.          MSL                                     : Perm Datum
EPD .ft        0.0                                     : Elevation
LMF .          KB                                      : Log Measured From
DMF .          KB                                      : Drill Measured From
APD .ft        81.0                                    : Above Perm Datum
EKB .ft        81.0                                    : Elev-Kelly Bushing
EDF .ft        80.0                                    : Elev-Drill Floor
EGL .ft        -434.0                                  : Elev-Ground Level (Water Depth)
TDD .ft        8605.0                                  : Total Depth (Driller)
TDL .ft        8605.0                                  : Total Depth (Logger)
SRVC.          SCHLUMBERGER                            : Service Company
LATI.          58 20 05.29" N                          : Latitude
LONG.          00 06 26.84" W                          : Longitude
DATE.          MAY-JUN-1980                            : Logging Date
PROJ.          UKCS                                    : Project
SET .          COMP_WIRE                               : Set
~Curve Information Section
DEPTH.ft                                               : Depth Curve
CALD.in                                                : Caliper (FDC/CNL/GR)
CALS.in                                                : Caliper (DLL/MSFL/GR)
DRHO.g/cc                                              : Delta Rho
DT.us/ft                                               : Delta-T
GR.gAPI                                                : Gamma Ray (ISF/BHC/GR)
GRD.gAPI                                               : Gamma Ray (FDC/CNL/GR)
GRL.gAPI                                               : Gamma Ray (DLL/MSFL/GR)
ILD.Ohmm                                               : Deep Induction Standard Processed Resistivity
LLD.Ohmm                                               : Latero-Log Deep (Resistivity)
LLS.Ohmm                                               : Latero-Log Shallow (Resistivity)
MSFL.Ohmm                                              : Msfl Resistivity
NPHI.LPU                                               : Neutron Porosity
RHOB.g/cc                                              : Bulk Density
SFLU.Ohmm                                              : SFL Resistivity (Unaveraged)
SP.mV                                                  : Spontaneous Potential (ISF/BHC/GR)
~ASCII Log Data Section
# ...
 7543.0000        13.4101        13.2085         0.0426        98.6601       121.1808       122.8352       123.6040         3.3668         4.0090         3.9327         6.4422        30.3887         2.4109         3.6988       -14.5630     
 7543.5000        13.4101        13.2271         0.0402        99.5159       119.9429       123.5201       123.0736         3.2697         3.8133         3.7113         5.6341        31.0804         2.4055         3.6024       -14.4801     
 7544.0000        13.4101        13.1714         0.0258       100.1849       118.8259       123.8115       122.4468         3.1748         3.6377         3.3316         4.7051        31.7381         2.3870         3.4024       -14.0299     
 7544.5000        13.4096        13.1157         0.0295       100.0459       116.8346       123.0782       122.2462         3.0824         3.4058         3.0330         4.3709        30.7209         2.3768         3.2023       -13.9073     
 7545.0000        13.3961        13.0781         0.0357        99.7853       115.6216       122.8010       122.3118         2.9701         3.1067         2.9099         3.5139        30.1808         2.3752         3.0204       -13.9003     
 7545.5000        13.3597        13.0436         0.0397        99.5193       119.3973       123.9630       122.6683         2.9030         2.7871         2.8194         4.7344        30.3290         2.3828         2.8958       -13.6633     
 7546.0000        13.3597        13.0610         0.0263        99.2502       122.2987       126.2180       123.2951         2.8714         2.6806         2.8053         3.7765        30.8463         2.3782         2.8840       -13.3967     
 7546.5000        13.3597        13.1214         0.0109        98.9642       124.2531       128.3712       123.9927         2.8491         2.6353         2.8254         3.9583        30.3251         2.3499         2.8924       -13.1534     
 7547.0000        13.3597        13.1687         0.0101        98.6061       125.4552       129.7753       124.7462         2.8782         2.6589         2.8819         4.4966        29.6692         2.3314         2.9705       -13.0649     
 7547.5000        13.3597        13.1752         0.0123        98.2089       126.9301       130.8139       124.6475         2.9359         2.6828         2.9384         4.3119        29.9015         2.3548         3.1269       -12.9072     
 7548.0000        13.3597        13.1816         0.0100        97.8845       128.6581       130.2787       122.2395         3.0135         2.7509         3.0174         4.6693        29.6091         2.3601         3.2926       -12.8934     
 7548.5000        13.3597        13.1737         0.0077        97.7540       130.7122       129.0933       118.8130         3.1028         2.8929         3.1941         4.9582        29.5511         2.3598         3.4362       -12.6781     
 7549.0000        13.3449        13.0532         0.0110        97.6236       127.8116       127.6453       116.7206         3.1754         3.0031         3.3672         5.2415        29.6553         2.3600         3.5217       -12.3778     
 7549.5000        13.3103        12.9328         0.0187        97.4932       124.1796       126.4103       116.3057         3.1762         3.1005         3.4628         5.4553        29.4490         2.3633         3.5508       -11.9981     
 7550.0000        13.3093        13.0061         0.0237        97.4220       120.8845       124.3955       116.2285         3.1540         3.1747         3.4891         4.7873        29.1504         2.3690         3.4819       -12.2628     
 7550.5000        13.3093        13.0867         0.0233        97.6402       119.0204       121.7458       115.6052         3.0917         3.2195         3.4893         4.0008        28.7097         2.3716         3.4385       -12.5469     
 7551.0000        13.3093        13.1276         0.0330        98.1788       118.7157       121.4739       115.9822         3.0173         3.2757         3.6018         5.2631        28.6688         2.3784         3.3626       -12.6509     
 7551.5000        13.3093        13.1678         0.0421        98.9552       119.1773       122.2793       118.0164         2.9443         3.3684         3.5433         6.7149        29.2543         2.3797         3.2327       -12.5630     
 7552.0000        13.3093        13.2081         0.0464        99.7501       119.6391       121.7361       117.7995         2.8655         3.3228         3.2355         5.2890        30.0161         2.3689         3.0799       -12.4816     
 7552.5000        13.3112        13.2485         0.0575       100.3805       118.9191       119.6198       116.4811         2.7735         3.0524         2.9939         3.9580        31.0310         2.3564         2.9302       -12.6100     
 7553.0000        13.3461        13.2625         0.0512       100.8873       118.1388       118.1353       116.9464         2.6845         2.7626         2.7713         3.2415        31.6843         2.3511         2.7743       -12.4161     
 7553.5000        13.3694        13.2545         0.0325       101.1622       118.6666       118.2759       117.6383         2.5985         2.4503         2.6263         2.7916        32.1259         2.3339         2.6881       -12.4071     
 7554.0000        13.3093        13.2459         0.0189       101.2726       123.3931       119.0431       117.6234         2.5166         2.4855         2.6263         3.5296        32.6057         2.3198         2.6427       -12.4071     
 7554.5000        13.3093        13.2298         0.0226       101.4973       123.9409       119.8742       117.0381         2.4670         2.5482         2.6717         4.2714        33.3068         2.3338         2.6335       -12.4069     
 7555.0000        13.2912        13.2137         0.0228       101.8807       123.9983       120.0973       116.5784         2.4276         2.6269         2.7620         3.8552        33.7623         2.3448         2.6329       -12.2692     
 7555.5000        13.2422        13.1849         0.0272       102.3851       123.8989       121.0951       116.2967         2.3990         2.6200         2.6832         4.2803        33.9084         2.3477         2.6219       -12.0496     
 7556.0000        13.2101        13.1478         0.0327       102.9579       122.8750       122.6956       115.8140         2.3873         2.4788         2.5712         3.9760        33.7572         2.3507         2.6012       -11.8285     
 7556.5000        13.2086        13.1064         0.0330       102.7588       121.5665       122.8279       115.1331         2.3874         2.3514         2.4636         4.0650        34.2530         2.3513         2.5861       -11.6571     
 7557.0000        13.1884        13.0600         0.0338       102.4927       118.4960       120.9576       113.1404         2.3905         2.2659         2.4637         3.7472        34.5200         2.3508         2.5861       -11.6571     
 7557.5000        13.1795        13.0175         0.0329       102.3867       116.9772       118.3819       109.7213         2.4086         2.2733         2.4639         3.0490        34.6559         2.3497         2.5861       -11.6541     
 7558.0000        13.2088        12.9839         0.0321       102.3418       114.7218       116.7840       108.9864         2.4094         2.3010         2.5352         3.6733        35.0693         2.3501         2.5897       -11.4464     
 7558.5000        13.2315        12.9504         0.0358       102.5152       120.2738       116.0068       109.9573         2.4094         2.4066         2.6008         4.0272        35.9002         2.3559         2.6340       -11.4110     
 7559.0000        13.3049        12.9406         0.0296       102.8254       123.7412       115.7452       110.2314         2.4094         2.5449         2.6497         4.0935        36.0437         2.3510         2.6694       -11.5604     
 7559.5000        13.3809        12.9760         0.0190       103.1357       123.7317       116.3538       110.2870         2.4094         2.6277         2.6767         3.5830        34.5982         2.3408         2.6810       -11.6570     
