~Version Information Section
VERS.          2.0                                     : CWLS LOG ASCII Standard
WRAP.          NO                                      : One line per depth step
CREA.          03/08/17                                : LAS Creation Date
~Well Information Section
STRT.ft        420.0000                                : Start Depth
STOP.ft        8605.0000                               : Stop Depth
STEP.ft        0.5000                                  : Step
NULL.          -999.2500                               : Null Value
COMP.          TEXACO UK                               : Company
WELL.          14/20-11                                : Well
FLD .          MORAY FIRTH                             : Field
LOC .          NORTH SEA                               : Location
LOC1.          -                                       : Location (UTM)
CTRY.          UK                                      : Country
PROV.          UKCS                                    : Province
UWI .          855                                     : UWI Number
API .          -                                       : API Number
SECT.          -                                       : Section
TOWN.          -                                       : Township
RNGE.          -                                       : Range
PDAT.          MSL                                     : Perm Datum
EPD .ft        0.0                                     : Elevation
LMF .          KB                                      : Log Measured From
DMF .          KB                                      : Drill Measured From
APD .ft        81.0                                    : Above Perm Datum
EKB .ft        81.0                                    : Elev-Kelly Bushing
EDF .ft        80.0                                    : Elev-Drill Floor
EGL .ft        -434.0                                  : Elev-Ground Level (Water Depth)
TDD .ft        8605.0                                  : Total Depth (Driller)
TDL .ft        8605.0                                  : Total Depth (Logger)
SRVC.          SCHLUMBERGER                            : Service Company
LATI.          58 20 05.29" N                          : Latitude
LONG.          00 06 26.84" W                          : Longitude
DATE.          MAY-JUN-1980                            : Logging Date
PROJ.          UKCS                                    : Project
SET .          COMP_WIRE                               : Set
~Curve Information Section
DEPTH.ft                                               : Depth Curve
CALD.in                                                : Caliper (FDC/CNL/GR)
CALS.in                                                : Caliper (DLL/MSFL/GR)
DRHO.g/cc                                              : Delta Rho
DT.us/ft                                               : Delta-T
GR.gAPI                                                : Gamma Ray (ISF/BHC/GR)
GRD.gAPI                                               : Gamma Ray (FDC/CNL/GR)
GRL.gAPI                                               : Gamma Ray (DLL/MSFL/GR)
ILD.Ohmm                                               : Deep Induction Standard Processed Resistivity
LLD.Ohmm                                               : Latero-Log Deep (Resistivity)
LLS.Ohmm                                               : Latero-Log Shallow (Resistivity)
MSFL.Ohmm                                              : Msfl Resistivity
NPHI.LPU                                               : Neutron Porosity
RHOB.g/cc                                              : Bulk Density
SFLU.Ohmm                                              : SFL Resistivity (Unaveraged)
SP.mV                                                  : Spontaneous Potential (ISF/BHC/GR)
~ASCII Log Data Section
# ...
 7798.0000        12.5700        12.3580         0.0157        82.1334       119.4745       115.0633       115.8670         6.5326         6.2090         7.4398         9.9414        25.5164         2.4680         6.7900       -15.7243     
 7798.5000        12.5887        12.3649         0.0160        82.0116       118.7569       113.5050       113.6236         6.5983         6.2262         7.7337         7.2679        27.1717         2.4646         6.8097       -16.0993     
 7799.0000        12.5691        12.3718         0.0194        83.7333       117.2300       111.1420       110.3148         6.6659         6.1360         7.7153         9.5353        28.6697         2.4511         6.8862       -16.5266     
 7799.5000        12.5767        12.3788         0.0086        85.5384       115.0690       109.5562       108.0891         6.7343         6.0450         7.4575         9.8209        28.5575         2.4461         6.9629       -16.6568     
 7800.0000        12.5083        12.3857         0.0062        85.3520       112.6613       109.7624       107.0426         6.7595         5.9825         7.2571        10.4944        27.1026         2.4521         7.0086       -16.8324     
 7800.5000        12.4916        12.3939         0.0002        83.7998       114.6853       110.7083       105.8559         6.7594         5.9405         7.3350        10.9015        26.3264         2.4647         7.0385       -16.9099     
 7801.0000        12.4551        12.4055        -0.0003        82.4465       120.0672       115.1137       105.6719         6.7595         5.8985         7.4588        12.0267        26.1027         2.4827         6.9512       -17.1277     
 7801.5000        12.4532        12.4170         0.0150        81.7288       124.1669       121.4362       108.3472         6.7595         5.8759         7.4239        13.7355        26.8570         2.5080         6.7504       -16.8942     
 7802.0000        12.4644        12.4286         0.0364        82.1801       123.4553       123.4269       110.4331         6.7594         5.8537         7.4239        12.5881        28.5731         2.5144         6.5499       -16.4364     
 7802.5000        12.4917        12.4401         0.0335        82.9846       119.2671       116.3162       110.4336         6.7541         5.7805         7.4261        12.3666        30.7379         2.5053         6.3495       -16.4318     
 7803.0000        12.4645        12.4520         0.0485        83.7565       114.4075       111.0724       108.2755         6.6019         5.6661         7.4625        12.4440        32.4991         2.5017         6.1490       -17.0265     
 7803.5000        12.5223        12.4837         0.0766        83.6823       109.6101       108.8896       105.4890         6.4281         5.5819         7.5929        11.9879        32.7273         2.5097         5.9485       -17.1669     
 7804.0000        12.6232        12.5156         0.0992        82.9398       107.3511       110.5225       105.7081         6.1810         5.5741         7.6674        11.9246        32.6105         2.5139         5.6479       -17.3361     
 7804.5000        12.7677        12.5474         0.1459        82.2571       113.7767       115.0117       108.8623         5.9142         5.5180         7.5555         7.3809        33.1997         2.4968         5.3867       -17.3856     
 7805.0000        12.9869        12.5872         0.1601        82.4504       118.8329       122.4199       112.5592         5.6034         5.3871         7.4323         3.4783        33.8239         2.4865         5.3054       -17.0896     
 7805.5000        13.3496        12.6526         0.1189        83.2141       123.8891       126.4322       115.6017         5.3029         4.9261         6.8355         3.0346        34.3563         2.4546         5.2241       -16.8341     
 7806.0000        14.0290        12.7097         0.1088        84.1891       128.9519       127.1592       118.7720         5.0026         4.4293         6.0195         2.1645        34.5457         2.4137         5.1786       -17.0169     
 7806.5000        14.5774        12.6898         0.0591        85.6338       132.7809       126.4116       122.1933         5.0191         3.9027         5.4221         1.4324        35.1472         2.4012         5.2431       -17.1995     
 7807.0000        14.3601        12.6698         0.0344        86.3551       131.1323       125.6680       121.7919         5.0660         3.9878         5.3279         2.5575        35.5369         2.4059         5.4287       -17.3826     
 7807.5000        13.6551        12.6413         0.0489        86.5877       128.2976       124.9847       117.4165         5.3409         4.2571         5.5537         3.7813        35.6819         2.4297         5.6633       -17.9135     
 7808.0000        13.0134        12.5611         0.0113        86.3670       125.4651       124.3367       114.0334         5.9786         4.5759         6.0358         3.5992        34.7178         2.4846         5.9121       -18.5459     
 7808.5000        12.7985        12.4808        -0.0006        85.3022       127.7032       124.1032       114.5331         7.0552         4.8527         6.7716         5.5167        32.9949         2.4734         6.6236       -19.1772     
 7809.0000        12.7297        12.4097         0.0003        84.7173       131.2668       125.1833       115.5399         8.1315         4.9994         7.1727         6.2946        31.0321         2.4689         8.7869       -19.8095     
 7809.5000        12.6468        12.3828        -0.0043        83.1967       135.7438       126.4206       117.5565         9.0658         4.9995         7.3298         9.0967        29.6741         2.4791        10.9514       -21.0073     
 7810.0000        12.4722        12.3718         0.0023        82.1196       138.5944       127.6843       117.9760         9.7797         4.8652         7.1274        11.0085        29.1388         2.4676        13.8066       -22.2172     
 7810.5000        12.4532        12.3678         0.0113        82.7517       138.4403       128.3951       118.1173        10.1498         4.6371         6.6839        10.1754        27.8240         2.4719        17.8448       -23.4290     
 7811.0000        12.4532        12.3639         0.0060        83.0725       135.4716       128.5795       121.2603        10.1216         4.4253         6.3602        10.6379        25.4393         2.4768        18.7376       -24.6759     
 7811.5000        12.4532        12.3599         0.0069        83.6592       131.6416       127.8645       125.8645         9.5797         4.3322         6.3198        10.2825        24.5013         2.4734        18.9227       -26.0823     
 7812.0000        12.4532        12.3559         0.0134        84.0486       130.1134       126.4136       128.1806         7.6603         4.7858         6.6436        12.8186        24.4528         2.4519        15.7294       -27.4886     
 7812.5000        12.4532        12.3528         0.0170        84.7373       133.3647       124.7352       129.1581         5.9887         5.6674         7.0356        12.7058        25.7546         2.4449        10.1635       -28.8973     
 7813.0000        12.4532        12.3498         0.0232        84.7378       133.7692       123.3635       129.6336         4.5662         5.2468         6.4666         9.2124        26.8188         2.4362         5.3104       -30.3036     
 7813.5000        12.4505        12.3469         0.0249        84.7384       135.0568       122.7291       126.9140         3.1930         2.5794         3.0352         4.1796        27.8436         2.4164         2.6837       -31.7100     
 7814.0000        12.3967        12.3439         0.0256        84.7389       135.6560       123.6630       120.4646         1.8388         1.2149         1.4823         1.8334        27.8582         2.4032         1.9391       -33.1336     
 7814.5000        12.2515        12.3409         0.0198        84.7395       135.9326       125.1346       117.2499         1.3820         0.7615         1.0030         1.8082        27.3453         2.3571         1.5354       -34.7257     
