~Version Information Section
VERS.          2.0                                     : CWLS LOG ASCII Standard
WRAP.          NO                                      : One line per depth step
CREA.          03/08/17                                : LAS Creation Date
~Well Information Section
STRT.ft        420.0000                                : Start Depth
STOP.ft        8605.0000                               : Stop Depth
STEP.ft        0.5000                                  : Step
NULL.          -999.2500                               : Null Value
COMP.          TEXACO UK                               : Company
WELL.          14/20-11                                : Well
FLD .          MORAY FIRTH                             : Field
LOC .          NORTH SEA                               : Location
LOC1.          -                                       : Location (UTM)
CTRY.          UK                                      : Country
PROV.          UKCS                                    : Province
UWI .          855                                     : UWI Number
API .          -                                       : API Number
SECT.          -                                       : Section
TOWN.          -                                       : Township
RNGE.          -                                       : Range
PDAT.          MSL                                     : Perm Datum
EPD .ft        0.0                                     : Elevation
LMF .          KB                                      : Log Measured From
DMF .          KB                                      : Drill Measured From
APD .ft        81.0                                    : Above Perm Datum
EKB .ft        81.0                                    : Elev-Kelly Bushing
EDF .ft        80.0                                    : Elev-Drill Floor
EGL .ft        -434.0                                  : Elev-Ground Level (Water Depth)
TDD .ft        8605.0                                  : Total Depth (Driller)
TDL .ft        8605.0                                  : Total Depth (Logger)
SRVC.          SCHLUMBERGER                            : Service Company
LATI.          58 20 05.29" N                          : Latitude
LONG.          00 06 26.84" W                          : Longitude
DATE.          MAY-JUN-1980                            : Logging Date
PROJ.          UKCS                                    : Project
SET .          COMP_WIRE                               : Set
~Curve Information Section
DEPTH.ft                                               : Depth Curve
CALD.in                                                : Caliper (FDC/CNL/GR)
CALS.in                                                : Caliper (DLL/MSFL/GR)
DRHO.g/cc                                              : Delta Rho
DT.us/ft                                               : Delta-T
GR.gAPI                                                : Gamma Ray (ISF/BHC/GR)
GRD.gAPI                                               : Gamma Ray (FDC/CNL/GR)
GRL.gAPI                                               : Gamma Ray (DLL/MSFL/GR)
ILD.Ohmm                                               : Deep Induction Standard Processed Resistivity
LLD.Ohmm                                               : Latero-Log Deep (Resistivity)
LLS.Ohmm                                               : Latero-Log Shallow (Resistivity)
MSFL.Ohmm                                              : Msfl Resistivity
NPHI.LPU                                               : Neutron Porosity
RHOB.g/cc                                              : Bulk Density
SFLU.Ohmm                                              : SFL Resistivity (Unaveraged)
SP.mV                                                  : Spontaneous Potential (ISF/BHC/GR)
~ASCII Log Data Section
# ...
 8070.0000        12.0503        12.0927         0.0285        84.8854        73.8609        71.6530        74.8852         0.6885         0.6534         0.9078         2.2843        23.7038         2.2463         0.9378       -41.4075     
 8070.5000        12.0503        12.0994         0.0271        84.7744        73.7295        70.9853        76.7747         0.6885         0.6427         0.9699         2.3402        24.3372         2.2397         0.9281       -41.4701     
 8071.0000        12.0504        12.1094         0.0268        84.6607        73.4748        70.1130        76.5906         0.6900         0.6668         1.0378         2.3171        24.5749         2.2454         0.9544       -41.5983     
 8071.5000        12.0504        12.1194         0.0237        84.5473        74.0236        70.7496        73.7792         0.6976         0.7094         1.0834         2.3320        24.0164         2.2491         0.9920       -41.3559     
 8072.0000        12.0504        12.1295         0.0153        84.4515        76.7174        74.2170        73.4432         0.7113         0.7645         1.1070         2.7018        23.4488         2.2541         1.0786       -41.1573     
 8072.5000        12.0504        12.1395         0.0224        84.3867        78.6705        75.7767        76.6150         0.7297         0.8227         1.1314         3.4242        23.0716         2.2720         1.1471       -41.1570     
 8073.0000        12.0504        12.1495         0.0147        84.3356        76.7087        76.3684        79.4738         0.7454         0.8551         1.1911         3.3151        23.5462         2.2785         1.1995       -41.1563     
 8073.5000        12.0504        12.1528         0.0083        84.2845        74.9535        76.7081        79.9138         0.7781         0.8880         1.2526         3.0164        23.7323         2.2785         1.2503       -41.1322     
 8074.0000        12.0504        12.1546         0.0103        84.1815        74.9545        76.8853        79.4452         0.7993         0.9100         1.2482         2.9852        23.6728         2.2790         1.2720       -40.9243     
 8074.5000        12.0503        12.1564         0.0120        84.0142        76.3969        79.0794        79.4853         0.8210         0.9013         1.2122         2.4738        24.1033         2.2819         1.2936       -40.9073     
 8075.0000        12.0503        12.1581         0.0128        83.4885        76.2136        79.7148        79.3812         0.8427         0.8925         1.1985         2.5392        24.1877         2.2810         1.2508       -40.6892     
 8075.5000        12.0503        12.1599         0.0165        82.4207        79.9263        80.3784        79.3691         0.8561         0.8902         1.2010         2.9568        23.8887         2.2775         1.2048       -40.6579     
 8076.0000        12.0503        12.1617         0.0166        81.2313        81.7013        78.4182        78.1748         0.8587         0.9035         1.2222         2.9290        23.6321         2.2837         1.2108       -40.4508     
 8076.5000        12.0504        12.1634         0.0334        80.9193        83.9930        79.4096        75.6875         0.8774         0.9170         1.2649         2.9812        22.8885         2.3087         1.2242       -40.0099     
 8077.0000        12.0504        12.1652         0.0323        81.3162        85.4813        78.6877        75.5746         0.8887         0.9360         1.2921         3.1541        22.1711         2.3213         1.2589       -39.9094     
 8077.5000        12.0551        12.1670         0.0243        81.6617        85.8394        78.7824        77.4431         0.8969         0.9562         1.3075         2.9400        22.2185         2.3224         1.2936       -39.3486     
 8078.0000        12.0993        12.1688         0.0142        81.9084        84.0861        76.0051        77.7529         0.9108         0.9763         1.3454         2.9295        20.7120         2.3150         1.3372       -38.9804     
 8078.5000        12.1007        12.1705         0.0206        81.7813        78.6691        72.8285        77.5003         0.9215         0.9960         1.3846         3.2117        20.4794         2.3102         1.3825       -39.0797     
 8079.0000        12.1007        12.1704         0.0175        81.3572        77.4926        69.9849        77.0785         0.9244         1.0017         1.3801         3.5908        20.4236         2.3039         1.4309       -39.3217     
 8079.5000        12.1007        12.1687         0.0101        81.2760        77.2529        68.4329        75.8793         0.9245         1.0057         1.3633         3.3889        20.7035         2.3044         1.3989       -39.4070     
 8080.0000        12.1006        12.1670         0.0116        82.1718        76.6861        68.8560        74.6223         0.9245         0.9628         1.3074         2.2655        20.8337         2.3147         1.3632       -39.4070     
 8080.5000        12.0960        12.1653         0.0198        83.3877        76.9230        69.4582        74.2441         0.9245         0.8954         1.2468         2.1213        21.3616         2.3238         1.2976       -39.4070     
 8081.0000        12.0503        12.1636         0.0301        83.2997        77.3396        70.4263        74.4637         0.9245         0.8432         1.1606         2.2267        21.6510         2.3273         1.2375       -39.4070     
 8081.5000        12.0503        12.1619         0.0412        82.3559        74.3499        70.0891        74.1181         0.9287         0.8467         1.0940         2.7395        21.2788         2.3207         1.1992       -39.4003     
 8082.0000        12.0504        12.1602         0.0243        81.5862        72.8413        68.6052        71.2986         0.9371         0.8850         1.3229         3.2737        21.2343         2.3001         1.2369       -39.2855     
 8082.5000        12.0504        12.1585         0.0375        81.0150        73.4871        68.2056        69.7350         0.9493         0.9583         1.4920         3.6004        20.8088         2.3322         1.3818       -39.1571     
 8083.0000        12.0510        12.1568         0.0427        81.0672        77.0504        69.6372        71.1855         0.9663         1.0501         1.6229         4.1644        21.7805         2.3552         1.5319       -39.1573     
 8083.5000        12.0992        12.1551         0.0505        81.5865        77.3890        70.7261        74.3916         0.9771         1.1269         1.5832         2.9428        23.2231         2.3685         1.6593       -39.1573     
 8084.0000        12.1007        12.1534         0.0500        82.7858        78.6860        71.2333        76.7917         0.9800         1.0934         1.4617         2.2961        23.8679         2.3730         1.6720       -39.0841     
 8084.5000        12.1006        12.1518         0.0355        84.1909        78.0709        71.6424        75.4850         0.9834         0.9973         1.3333         2.2716        23.9944         2.3653         1.5384       -38.7854     
 8085.0000        12.0504        12.1514         0.0311        84.7034        74.9596        72.3978        73.5388         0.9795         0.9128         1.2022         2.3438        23.5726         2.3435         1.3982       -38.4237     
 8085.5000        12.0503        12.1514         0.0459        84.5324        71.3192        70.3958        70.6642         0.9837         0.8591         1.1606         2.5275        23.7362         2.3292         1.2637       -38.4571     
 8086.0000        12.0503        12.1514         0.0399        84.1025        65.0088        65.7054        68.5542         0.9750         0.8680         1.2263         2.7587        23.5078         2.3308         1.1888       -38.6524     
 8086.5000        12.0503        12.1514         0.0329        83.6382        65.1773        65.4705        66.9292         0.9680         0.9132         1.2988         2.9957        22.4269         2.3168         1.3113       -38.6572     
