~Version Information Section
VERS.          2.0                                     : CWLS LOG ASCII Standard
WRAP.          NO                                      : One line per depth step
CREA.          03/08/17                                : LAS Creation Date
~Well Information Section
STRT.ft        420.0000                                : Start Depth
STOP.ft        8605.0000                               : Stop Depth
STEP.ft        0.5000                                  : Step
NULL.          -999.2500                               : Null Value
COMP.          TEXACO UK                               : Company
WELL.          14/20-11                                : Well
FLD .          MORAY FIRTH                             : Field
LOC .          NORTH SEA                               : Location
LOC1.          -                                       : Location (UTM)
CTRY.          UK                                      : Country
PROV.          UKCS                                    : Province
UWI .          855                                     : UWI Number
API .          -                                       : API Number
SECT.          -                                       : Section
TOWN.          -                                       : Township
RNGE.          -                                       : Range
PDAT.          MSL                                     : Perm Datum
EPD .ft        0.0                                     : Elevation
LMF .          KB                                      : Log Measured From
DMF .          KB                                      : Drill Measured From
APD .ft        81.0                                    : Above Perm Datum
EKB .ft        81.0                                    : Elev-Kelly Bushing
EDF .ft        80.0                                    : Elev-Drill Floor
EGL .ft        -434.0                                  : Elev-Ground Level (Water Depth)
TDD .ft        8605.0                                  : Total Depth (Driller)
TDL .ft        8605.0                                  : Total Depth (Logger)
SRVC.          SCHLUMBERGER                            : Service Company
LATI.          58 20 05.29" N                          : Latitude
LONG.          00 06 26.84" W                          : Longitude
DATE.          MAY-JUN-1980                            : Logging Date
PROJ.          UKCS                                    : Project
SET .          COMP_WIRE                               : Set
~Curve Information Section
DEPTH.ft                                               : Depth Curve
CALD.in                                                : Caliper (FDC/CNL/GR)
CALS.in                                                : Caliper (DLL/MSFL/GR)
DRHO.g/cc                                              : Delta Rho
DT.us/ft                                               : Delta-T
GR.gAPI                                                : Gamma Ray (ISF/BHC/GR)
GRD.gAPI                                               : Gamma Ray (FDC/CNL/GR)
GRL.gAPI                                               : Gamma Ray (DLL/MSFL/GR)
ILD.Ohmm                                               : Deep Induction Standard Processed Resistivity
LLD.Ohmm                                               : Latero-Log Deep (Resistivity)
LLS.Ohmm                                               : Latero-Log Shallow (Resistivity)
MSFL.Ohmm                                              : Msfl Resistivity
NPHI.LPU                                               : Neutron Porosity
RHOB.g/cc                                              : Bulk Density
SFLU.Ohmm                                              : SFL Resistivity (Unaveraged)
SP.mV                                                  : Spontaneous Potential (ISF/BHC/GR)
~ASCII Log Data Section
# ...
 7373.0000        12.9469        12.5065         0.0358        67.4858        18.5125        15.9673        15.5241         6.7688         3.7105         4.0913         2.4200        14.4865         2.5550         5.4339       -17.4071     
 7373.5000        12.6407        12.5137         0.0093        60.9958        20.0766        15.8415        16.5237         7.0116         4.0598         4.5394        23.5423        11.8225         2.5789         5.5148       -17.4071     
 7374.0000        12.6053        12.5208         0.0064        57.6981        21.2937        16.1738        18.2649         7.3772         7.5847         8.2124        20.9889        11.4525         2.6286         6.0590       -17.4071     
 7374.5000        12.6043        12.5279         0.0093        58.1677        21.5770        17.1486        19.3025         7.8108        16.3654        16.5201        22.6464        11.7490         2.6292         8.0610       -17.3913     
 7375.0000        12.6043        12.5350         0.0118        59.2602        21.6777        18.0946        19.2348         8.3307        14.2521        15.0723        20.3509        12.2214         2.6281        10.7403       -17.1575     
 7375.5000        12.6043        12.5421         0.0108        60.3132        20.9729        16.9194        18.0515         8.8821        12.4335        13.0096        14.2808        12.3878         2.6289        11.5177       -17.1574     
 7376.0000        12.5578        12.5424         0.0098        61.1812        18.7094        15.1981        16.3841         9.4576        11.0733        11.8939        16.8620        12.2821         2.6328        11.0314       -17.3948     
 7376.5000        12.5540        12.5423         0.0062        61.7816        16.5057        14.7851        15.6427         9.7146         9.3284        10.1844        17.2755        13.1433         2.6128        10.5928       -17.4071     
 7377.0000        12.5540        12.5406        -0.0023        62.2467        15.2110        14.4509        15.8974         9.7148         9.5103        10.1993        12.5664        14.3474         2.5820        10.2827       -17.4079     
 7377.5000        12.5540        12.5299        -0.0025        62.5584        14.0821        13.9170        16.1061         9.6471         9.0522         9.4887        13.3542        14.6458         2.5588        10.0898       -17.9080     
 7378.0000        12.6011        12.5191        -0.0017        62.1021        13.1723        13.8452        15.9531         9.7682         9.2041         9.4324        14.5740        14.7137         2.5654        10.1211       -18.1628     
 7378.5000        12.6043        12.5083        -0.0012        61.6526        12.9907        14.1975        15.1295         9.6714         9.4424         9.8622        12.4471        14.5086         2.5793        10.1527       -18.4178     
 7379.0000        12.6043        12.4976         0.0007        61.6830        13.3317        14.2775        15.1136         9.4129        10.0306        10.1740        13.2785        14.3767         2.5701        10.1725       -18.6872     
 7379.5000        12.6043        12.4868         0.0074        61.8272        13.9395        14.1032        15.5047         9.3258        10.0631        10.2264        17.0606        14.2578         2.5739        10.1727       -19.1564     
 7380.0000        12.6043        12.4819         0.0170        61.9131        14.3853        14.1094        14.3868         9.2393         9.8842        10.1991        17.6866        14.2589         2.5858        10.1340       -19.1571     
 7380.5000        12.6043        12.4756         0.0249        61.9295        14.5481        14.1996        14.1117         9.1603         9.9179        10.0208        15.2402        14.4068         2.6013        10.0355       -19.3932     
 7381.0000        12.6043        12.3890         0.0327        61.8548        14.9126        14.1602        14.1110         9.1602         9.0733         8.7936        13.6934        14.5657         2.6078         9.9369       -19.4075     
 7381.5000        12.6043        12.3762         0.0194        61.4691        15.2703        13.7296        14.0787         9.0821         8.5214         8.3165         9.2980        14.3279         2.6143         9.7027       -19.6522     
 7382.0000        12.6013        12.3700         0.0090        61.0449        15.2869        13.1652        13.5109         9.0759         8.4128         8.5607        10.9259        13.9366         2.6058         8.9068       -19.6571     
 7382.5000        12.5613        12.3639         0.0087        61.2231        14.3792        13.7465        13.5097         8.7629         8.9597         8.9184        19.2350        13.6184         2.6068         8.1254       -19.6571     
 7383.0000        12.5118        12.3580         0.0048        61.6062        13.6927        14.1710        13.5087         8.4422         9.9003         9.3856        12.9156        13.9145         2.6107         7.5358       -19.6661     
 7383.5000        12.5466        12.3521         0.0111        63.6256        13.3378        14.7238        13.0230         7.9887         9.0746         8.8752        14.5507        14.7934         2.5963         6.9472       -19.9072     
 7384.0000        12.5965        12.3463         0.0159        65.3032        13.3383        14.8870        13.2319         7.5547         7.3920         7.2274        12.6338        15.7300         2.5842         6.3588       -19.9072     
 7384.5000        12.6040        12.3428         0.0078        68.6143        13.5193        14.7865        14.2302         6.9942         5.0982         4.9404         9.7356        16.8736         2.5776         5.9286       -19.9070     
 7385.0000        12.6043        12.3508         0.0052        70.3089        13.9569        14.6878        14.7943         6.4309         4.4257         4.1940         5.5662        18.1950         2.5651         5.5490       -19.9070     
 7385.5000        12.6043        12.3589         0.0014        69.2058        15.3598        14.6527        14.8093         5.8689         4.2440         4.2314         4.7209        18.1674         2.5208         5.2485       -19.9071     
 7386.0000        12.5605        12.3669         0.0024        66.6204        18.3468        15.2967        15.1085         5.5132         4.0648         4.5308         9.3865        17.5339         2.5070         5.1236       -19.9067     
 7386.5000        12.5541        12.3750         0.0042        65.3218        19.1510        14.5806        15.6162         5.3414         4.6648         5.4546        14.6251        17.1739         2.5346         5.0231       -19.6579     
 7387.0000        12.5540        12.3820         0.0104        67.7194        19.6957        14.9581        16.6864         5.1112         5.7257         6.5073        15.0272        18.5211         2.5455         4.9133       -19.6571     
 7387.5000        12.5544        12.3858         0.0247        70.7245        19.8095        14.7138        16.8450         4.8248         6.0267         6.4384        11.4734        19.9115         2.5465         4.8034       -19.6657     
 7388.0000        12.5980        12.3896         0.0154        73.9462        18.6445        14.6913        16.5958         4.4504         3.6899         4.6209         5.0772        21.2688         2.5435         4.4785       -19.9327     
 7388.5000        12.6043        12.3933         0.0113        74.1806        16.7345        14.5018        15.9087         4.0807         3.4220         3.7702         4.5942        22.6141         2.5052         4.1286       -20.4210     
 7389.0000        12.6043        12.3971         0.0220        72.8580        14.7346        14.4322        15.9003         3.7144         3.2283         3.3399         6.4240        23.2999         2.4937         3.7788       -20.6393     
 7389.5000        12.6063        12.4008         0.0313        74.0183        14.9779        15.2074        15.8088         3.3476         3.1328         3.0987         4.7498        23.6210         2.5141         3.4283       -21.1570     
