~Version Information Section
VERS.          2.0                                     : CWLS LOG ASCII Standard
WRAP.          NO                                      : One line per depth step
CREA.          03/08/17                                : LAS Creation Date
~Well Information Section
STRT.ft        420.0000                                : Start Depth
STOP.ft        8605.0000                               : Stop Depth
STEP.ft        0.5000                                  : Step
NULL.          -999.2500                               : Null Value
COMP.          TEXACO UK                               : Company
WELL.          14/20-11                                : Well
FLD .          MORAY FIRTH                             : Field
LOC .          NORTH SEA                               : Location
LOC1.          -                                       : Location (UTM)
CTRY.          UK                                      : Country
PROV.          UKCS                                    : Province
UWI .          855                                     : UWI Number
API .          -                                       : API Number
SECT.          -                                       : Section
TOWN.          -                                       : Township
RNGE.          -                                       : Range
PDAT.          MSL                                     : Perm Datum
EPD .ft        0.0                                     : Elevation
LMF .          KB                                      : Log Measured From
DMF .          KB                                      : Drill Measured From
APD .ft        81.0                                    : Above Perm Datum
EKB .ft        81.0                                    : Elev-Kelly Bushing
EDF .ft        80.0                                    : Elev-Drill Floor
EGL .ft        -434.0                                  : Elev-Ground Level (Water Depth)
TDD .ft        8605.0                                  : Total Depth (Driller)
TDL .ft        8605.0                                  : Total Depth (Logger)
SRVC.          SCHLUMBERGER                            : Service Company
LATI.          58 20 05.29" N                          : Latitude
LONG.          00 06 26.84" W                          : Longitude
DATE.          MAY-JUN-1980                            : Logging Date
PROJ.          UKCS                                    : Project
SET .          COMP_WIRE                               : Set
~Curve Information Section
DEPTH.ft                                               : Depth Curve
CALD.in                                                : Caliper (FDC/CNL/GR)
CALS.in                                                : Caliper (DLL/MSFL/GR)
DRHO.g/cc                                              : Delta Rho
DT.us/ft                                               : Delta-T
GR.gAPI                                                : Gamma Ray (ISF/BHC/GR)
GRD.gAPI                                               : Gamma Ray (FDC/CNL/GR)
GRL.gAPI                                               : Gamma Ray (DLL/MSFL/GR)
ILD.Ohmm                                               : Deep Induction Standard Processed Resistivity
LLD.Ohmm                                               : Latero-Log Deep (Resistivity)
LLS.Ohmm                                               : Latero-Log Shallow (Resistivity)
MSFL.Ohmm                                              : Msfl Resistivity
NPHI.LPU                                               : Neutron Porosity
RHOB.g/cc                                              : Bulk Density
SFLU.Ohmm                                              : SFL Resistivity (Unaveraged)
SP.mV                                                  : Spontaneous Potential (ISF/BHC/GR)
~ASCII Log Data Section
# ...
 7628.0000        13.0756        12.7514         0.0377        92.2038        73.9805        77.1595        80.4587         3.2746         3.0589         3.0984         3.3417        30.5042         2.3005         3.1353       -15.1572     
 7628.5000        12.9575        12.7559         0.0058        90.4028        81.2440        78.9112        82.3902         3.2656         3.3935         3.1335         5.4932        28.9514         2.3421         3.2640       -15.1724     
 7629.0000        12.8601        12.7604         0.0073        90.6183        88.5871        82.0160        82.0362         3.2892         3.7860         3.3247         5.8121        27.7489         2.3790         3.4697       -15.3502     
 7629.5000        12.8561        12.7649         0.0110        92.0962        91.6230        83.3856        80.8069         3.3460         3.9762         3.7561         6.0691        27.1573         2.3849         3.6017       -15.1894     
 7630.0000        12.8561        12.7715         0.0148        90.3286        95.8429        81.8964        79.0395         3.4105         4.1020         4.2031         6.1692        27.2619         2.3822         3.6612       -15.1595     
 7630.5000        12.8562        12.7941         0.0187        88.9070        87.6878        78.1642        77.0583         3.4767         4.1432         4.2557         6.1697        27.5084         2.3794         3.7207       -14.9422     
 7631.0000        12.8764        12.8168         0.0164        89.0248        80.4713        74.4076        74.5330         3.6692         4.1847         4.2421         6.1701        27.6496         2.3801         3.7801       -14.9083     
 7631.5000        12.9065        12.8317         0.0070        91.3651        72.0533        70.4506        71.4526         3.8161         4.1202         4.1355         6.1710        27.6126         2.3838         3.8337       -14.9075     
 7632.0000        12.9072        12.8381         0.0019        93.0022        67.4525        66.6811        69.1603         3.9716         4.0097         4.0353         6.5150        28.2180         2.3922         3.8840       -15.1779     
 7632.5000        12.9266        12.8444         0.0068        94.1055        61.9278        65.8349        69.3348         4.0469         3.8921         3.9722         7.8170        28.8417         2.3855         3.9344       -15.3942     
 7633.0000        12.9098        12.8436         0.0105        93.4454        63.8112        66.9773        71.4939         4.1086         3.8477         3.9092         7.7567        28.5920         2.3699         3.9270       -15.4075     
 7633.5000        12.8326        12.8295         0.0143        92.9843        65.2550        68.5522        72.6262         4.1006         4.1300         3.9664         6.6462        28.0484         2.3705         3.9073       -15.7060     
 7634.0000        12.8058        12.8152         0.0305        91.4055        66.7374        69.0726        72.3568         4.0430         4.1876         4.0528         6.6461        28.5912         2.3914         3.8877       -15.8979     
 7634.5000        12.8058        12.7434         0.0365        92.6011        72.9031        68.7358        71.6402         3.9643         4.2445         4.3558         6.7143        29.2574         2.3992         3.8655       -15.9075     
 7635.0000        12.7416        12.6232         0.0252        93.8724        78.1156        68.3291        70.3815         3.8410         4.3011         4.3750         6.8383        29.1777         2.3950         3.8319       -16.1719     
 7635.5000        12.6379        12.5635         0.0199        95.1654        80.0691        69.8663        69.5036         3.7296         4.0222         4.3238         7.2511        28.6124         2.3826         3.7983       -16.4621     
 7636.0000        12.6058        12.6041         0.0157        96.8409        80.0734        70.9039        71.2482         3.6659         3.6821         3.8494         6.9751        27.6854         2.3673         3.7646       -16.7519     
 7636.5000        12.6043        12.6646         0.0058        97.1545        78.9738        70.7587        74.6603         3.6468         3.6080         3.6245         5.9585        27.0245         2.3675         3.7340       -16.9024     
 7637.0000        12.6043        12.7091         0.0058        95.5976        78.4213        71.6223        77.0409         3.6502         3.6033         3.5190         4.8925        26.6322         2.3647         3.7990       -16.7278     
 7637.5000        12.6043        12.7092         0.0136        93.2488        76.7012        73.2903        77.4638         3.7418         3.8324         3.5803         6.0261        26.3693         2.3636         3.8639       -16.6586     
 7638.0000        12.6291        12.7091         0.0150        91.9759        76.3944        75.5162        77.8873         3.8311         4.0535         3.6972         6.3072        26.2774         2.3654         3.9288       -16.6705     
 7638.5000        12.6542        12.6785         0.0130        91.1290        80.5099        77.6954        77.2215         3.9751         4.2619         3.9579         6.6447        26.3083         2.3647         4.0493       -16.9556     
 7639.0000        12.6287        12.6400         0.0089        89.3252        81.1600        78.2651        74.0093         4.1768         4.4943         4.3100         7.0243        26.3777         2.3680         4.3720       -17.1551     
 7639.5000        12.6043        12.6014         0.0014        87.1982        79.1414        76.1852        72.4426         4.3366         4.7280         4.6853         7.2865        26.3086         2.3738         4.6940       -17.2878     
 7640.0000        12.6030        12.5628        -0.0026        86.9487        78.2471        73.9254        71.5879         4.4709         4.8039         4.8456         7.3418        26.5356         2.3947         4.8632       -17.4067     
 7640.5000        12.5749        12.5421        -0.0071        88.0856        77.3995        72.2307        71.6078         4.5072         4.8766         4.9989         8.8591        27.1283         2.4142         4.9759       -17.4067     
 7641.0000        12.5256        12.5305        -0.0055        91.4341        76.0260        70.7910        73.3049         4.5072         4.9101         4.9084        13.3098        27.6368         2.4152         4.9548       -17.1556     
 7641.5000        12.5036        12.5189        -0.0007        92.3994        75.6012        69.5820        73.1057         4.5044         4.8352         4.8175         9.6673        27.7743         2.3942         4.8864       -16.9675     
 7642.0000        12.5036        12.5072         0.0048        92.9424        75.0834        69.1700        72.1256         4.4689         4.7029         4.7240         6.2354        27.2825         2.3820         4.7485       -16.7791     
 7642.5000        12.5036        12.4956         0.0116        92.7358        71.7027        68.7279        70.8649         4.3812         4.5716         4.6305         6.3939        26.9654         2.3861         4.5876       -16.5910     
 7643.0000        12.5304        12.4840         0.0179        92.5288        69.8737        69.1237        70.5188         4.2890         4.4879         4.5704         6.3184        27.2517         2.3872         4.4266       -16.4072     
 7643.5000        12.5529        12.4724         0.0235        92.7632        67.7861        70.5019        72.5796         4.2024         4.4347         4.5227         5.8992        27.7289         2.3911         4.2964       -16.4035     
 7644.0000        12.5540        12.4608         0.0273        92.1778        70.1898        72.1770        74.7146         4.1164         4.3719         4.4749         5.4630        28.2046         2.4110         4.1871       -16.2779     
 7644.5000        12.5251        12.4497         0.0332        91.8477        74.3052        75.4204        75.4840         4.0053         4.2381         4.3978         5.3149        28.6279         2.4207         4.0778       -16.1573     
