~Version Information Section
VERS.          2.0                                     : CWLS LOG ASCII Standard
WRAP.          NO                                      : One line per depth step
CREA.          03/08/17                                : LAS Creation Date
~Well Information Section
STRT.ft        420.0000                                : Start Depth
STOP.ft        8605.0000                               : Stop Depth
STEP.ft        0.5000                                  : Step
NULL.          -999.2500                               : Null Value
COMP.          TEXACO UK                               : Company
WELL.          14/20-11                                : Well
FLD .          MORAY FIRTH                             : Field
LOC .          NORTH SEA                               : Location
LOC1.          -                                       : Location (UTM)
CTRY.          UK                                      : Country
PROV.          UKCS                                    : Province
UWI .          855                                     : UWI Number
API .          -                                       : API Number
SECT.          -                                       : Section
TOWN.          -                                       : Township
RNGE.          -                                       : Range
PDAT.          MSL                                     : Perm Datum
EPD .ft        0.0                                     : Elevation
LMF .          KB                                      : Log Measured From
DMF .          KB                                      : Drill Measured From
APD .ft        81.0                                    : Above Perm Datum
EKB .ft        81.0                                    : Elev-Kelly Bushing
EDF .ft        80.0                                    : Elev-Drill Floor
EGL .ft        -434.0                                  : Elev-Ground Level (Water Depth)
TDD .ft        8605.0                                  : Total Depth (Driller)
TDL .ft        8605.0                                  : Total Depth (Logger)
SRVC.          SCHLUMBERGER                            : Service Company
LATI.          58 20 05.29" N                          : Latitude
LONG.          00 06 26.84" W                          : Longitude
DATE.          MAY-JUN-1980                            : Logging Date
PROJ.          UKCS                                    : Project
SET .          COMP_WIRE                               : Set
~Curve Information Section
DEPTH.ft                                               : Depth Curve
CALD.in                                                : Caliper (FDC/CNL/GR)
CALS.in                                                : Caliper (DLL/MSFL/GR)
DRHO.g/cc                                              : Delta Rho
DT.us/ft                                               : Delta-T
GR.gAPI                                                : Gamma Ray (ISF/BHC/GR)
GRD.gAPI                                               : Gamma Ray (FDC/CNL/GR)
GRL.gAPI                                               : Gamma Ray (DLL/MSFL/GR)
ILD.Ohmm                                               : Deep Induction Standard Processed Resistivity
LLD.Ohmm                                               : Latero-Log Deep (Resistivity)
LLS.Ohmm                                               : Latero-Log Shallow (Resistivity)
MSFL.Ohmm                                              : Msfl Resistivity
NPHI.LPU                                               : Neutron Porosity
RHOB.g/cc                                              : Bulk Density
SFLU.Ohmm                                              : SFL Resistivity (Unaveraged)
SP.mV                                                  : Spontaneous Potential (ISF/BHC/GR)
~ASCII Log Data Section
# ...
 7713.0000        12.7250        12.3076         0.0032        90.6443        76.2584        75.1012        73.6551        10.3855         9.2150         8.7152         4.1398        25.8937         2.2304         8.7422       -43.4071     
 7713.5000        12.6819        12.3154         0.0082        90.2146        74.1942        72.5459        70.5864        10.1487         8.9531         8.3224         3.9906        25.4886         2.2356         8.4062       -43.4186     
 7714.0000        12.6328        12.3232         0.0125        90.0652        73.5739        71.9429        68.8685        10.1059         8.6562         8.3161         4.4583        24.8921         2.2450         8.1978       -43.6463     
 7714.5000        12.7035        12.3309         0.0189        90.0617        75.6481        73.8250        67.3930        10.0631         8.2263         7.9511         4.8160        24.8459         2.2559         8.1065       -43.6844     
 7715.0000        12.6769        12.3387         0.0219        90.0598        79.7803        75.4817        67.6557        10.2079         7.8641         7.8868         4.5897        24.8333         2.2678         8.2647       -43.9071     
 7715.5000        12.6847        12.3465         0.0177        90.0482        80.6461        76.4023        71.9043        10.3832         8.1031         8.1849         3.9912        24.6394         2.2752         8.4690       -43.9071     
 7716.0000        12.7802        12.3543         0.0106        90.4652        79.3952        75.4308        72.0001        10.8673         9.2779         9.2406         4.9254        25.1978         2.2612         9.5804       -43.9071     
 7716.5000        12.6698        12.3620         0.0078        90.9209        78.3669        73.1080        71.6102        11.4780        11.5790        10.9965         5.5222        25.3549         2.2348        10.0882       -43.9071     
 7717.0000        12.5828        12.3698         0.0014        91.0787        79.5015        73.7034        71.4822        12.2292        13.6661        12.4109         4.9672        24.9223         2.2121        11.3766       -43.9076     
 7717.5000        12.6607        12.3776        -0.0076        91.2985        80.6743        73.5989        72.9954        13.0330        14.8247        13.4326         4.2932        25.3230         2.1870        12.7020       -44.1999     
 7718.0000        12.7344        12.3853        -0.0083        90.9936        79.5915        72.4620        75.9390        13.9046        15.0187        13.9209         4.4055        26.4054         2.1790        13.6932       -44.3982     
 7718.5000        12.8140        12.3932        -0.0030        90.9971        77.3815        69.3316        76.1783        14.8007        14.3721        13.2825         4.4610        27.3995         2.1904        14.1951       -44.4071     
 7719.0000        12.8865        12.4554         0.0012        91.0956        73.2478        64.4215        70.7268        15.6968        13.1627        12.7087         4.3797        27.4532         2.1945        14.6694       -44.4071     
 7719.5000        12.9388        12.6153         0.0062        91.4007        67.8114        60.0279        64.7542        16.5907        12.9471        12.5382         4.3434        26.4950         2.1989        14.8599       -44.4071     
 7720.0000        13.0207        12.7478         0.0109        91.6200        64.3819        57.9584        64.2146        17.4485        13.8457        13.2650         4.4800        26.1176         2.2066        15.0503       -44.4071     
 7720.5000        13.1212        12.7939         0.0146        91.6801        62.0125        57.3614        64.1045        18.1166        14.7782        14.3048         4.4717        26.4383         2.2113        15.3954       -44.4071     
 7721.0000        13.1974        12.8397         0.0190        91.6932        60.8069        57.3626        63.5426        18.5410        15.9775        15.0311         4.6001        27.2791         2.2148        15.7515       -44.4071     
 7721.5000        13.3411        12.8845         0.0187        91.6932        60.3586        57.4405        62.3636        18.7743        16.1367        14.9900         3.9286        27.5456         2.2180        15.5347       -44.4071     
 7722.0000        13.4792        12.9289         0.0203        91.6930        60.3024        57.6220        60.1001        18.7739        13.9545        13.4435         3.5971        27.2135         2.2285        14.5349       -44.4071     
 7722.5000        13.5720        12.9745         0.0232        91.4055        59.9410        57.9905        61.2892        18.2408        10.8053        10.8525         3.4191        27.2072         2.2405        13.2985       -44.4071     
 7723.0000        13.6681        13.0202         0.0309        91.2160        59.4160        58.6411        63.5854        17.2512         8.7057         8.9034         3.7281        27.5863         2.2500        11.8353       -44.4071     
 7723.5000        13.7699        13.0689         0.0303        91.1955        59.5521        59.5017        61.8470        15.9802         7.0907         7.4946         4.4630        27.8853         2.2406        10.4482       -44.3890     
 7724.0000        13.8107        13.1323         0.0211        91.5209        59.6343        60.5637        62.5264        14.2769         6.0147         6.4148         4.5220        27.4075         2.2257         9.2367       -43.9603     
 7724.5000        13.9381        13.2054         0.0077        91.6932        62.1147        61.7605        62.6863        12.3865         5.3490         5.7745         4.0651        26.8653         2.2175         8.1577       -43.6802     
 7725.0000        14.0749        13.2648         0.0034        91.6932        63.3384        63.2608        62.3990        10.1096         4.8649         5.1834         4.3651        26.9966         2.2133         7.3650       -43.4458     
 7725.5000        14.1788        13.3136        -0.0047        91.6932        63.3534        64.4157        61.1199         8.0200         4.4610         4.7346         4.1926        27.5266         2.2058         6.7127       -43.4071     
 7726.0000        14.3143        13.3592        -0.0036        91.6941        65.9656        64.7245        63.3089         6.8396         4.1876         4.3791         3.5902        27.6083         2.1949         5.9538       -43.4071     
 7726.5000        14.4334        13.3789        -0.0022        92.2720        68.2513        64.5557        62.2988         5.6614         3.7870         4.0261         3.4233        27.8342         2.1870         4.9951       -43.4071     
 7727.0000        14.5359        13.3985         0.0026        92.8307        68.3303        64.4989        61.8669         4.7008         3.3207         3.5653         3.2663        27.8116         2.1839         4.3174       -43.4071     
 7727.5000        14.6729        13.4181         0.0089        93.3501        67.5319        64.1889        63.6293         3.7772         2.8534         3.0747         3.1393        27.9082         2.1856         3.2837       -43.4071     
 7728.0000        14.7908        13.4371         0.0220        93.0670        65.7883        63.5949        61.5901         2.9725         2.3829         2.6227         3.0124        28.1552         2.2060         2.7237       -43.4071     
 7728.5000        14.8930        13.2875         0.0270        92.7885        65.5864        62.4703        60.9748         2.3723         2.0816         2.2499         2.8694        27.6965         2.2163         2.3709       -43.4074     
 7729.0000        14.9953        13.1373         0.0284        92.2880        65.9246        61.1817        60.8969         1.7726         1.8295         2.0014         2.4720        26.5518         2.2192         1.9466       -43.5794     
 7729.5000        15.0961        12.9875         0.0398        91.8692        65.8166        60.9129        61.0951         1.4673         1.5507         1.6580         2.0488        25.9696         2.2241         1.7218       -43.6549     
