~Version Information Section
VERS.          2.0                                     : CWLS LOG ASCII Standard
WRAP.          NO                                      : One line per depth step
CREA.          03/08/17                                : LAS Creation Date
~Well Information Section
STRT.ft        420.0000                                : Start Depth
STOP.ft        8605.0000                               : Stop Depth
STEP.ft        0.5000                                  : Step
NULL.          -999.2500                               : Null Value
COMP.          TEXACO UK                               : Company
WELL.          14/20-11                                : Well
FLD .          MORAY FIRTH                             : Field
LOC .          NORTH SEA                               : Location
LOC1.          -                                       : Location (UTM)
CTRY.          UK                                      : Country
PROV.          UKCS                                    : Province
UWI .          855                                     : UWI Number
API .          -                                       : API Number
SECT.          -                                       : Section
TOWN.          -                                       : Township
RNGE.          -                                       : Range
PDAT.          MSL                                     : Perm Datum
EPD .ft        0.0                                     : Elevation
LMF .          KB                                      : Log Measured From
DMF .          KB                                      : Drill Measured From
APD .ft        81.0                                    : Above Perm Datum
EKB .ft        81.0                                    : Elev-Kelly Bushing
EDF .ft        80.0                                    : Elev-Drill Floor
EGL .ft        -434.0                                  : Elev-Ground Level (Water Depth)
TDD .ft        8605.0                                  : Total Depth (Driller)
TDL .ft        8605.0                                  : Total Depth (Logger)
SRVC.          SCHLUMBERGER                            : Service Company
LATI.          58 20 05.29" N                          : Latitude
LONG.          00 06 26.84" W                          : Longitude
DATE.          MAY-JUN-1980                            : Logging Date
PROJ.          UKCS                                    : Project
SET .          COMP_WIRE                               : Set
~Curve Information Section
DEPTH.ft                                               : Depth Curve
CALD.in                                                : Caliper (FDC/CNL/GR)
CALS.in                                                : Caliper (DLL/MSFL/GR)
DRHO.g/cc                                              : Delta Rho
DT.us/ft                                               : Delta-T
GR.gAPI                                                : Gamma Ray (ISF/BHC/GR)
GRD.gAPI                                               : Gamma Ray (FDC/CNL/GR)
GRL.gAPI                                               : Gamma Ray (DLL/MSFL/GR)
ILD.Ohmm                                               : Deep Induction Standard Processed Resistivity
LLD.Ohmm                                               : Latero-Log Deep (Resistivity)
LLS.Ohmm                                               : Latero-Log Shallow (Resistivity)
MSFL.Ohmm                                              : Msfl Resistivity
NPHI.LPU                                               : Neutron Porosity
RHOB.g/cc                                              : Bulk Density
SFLU.Ohmm                                              : SFL Resistivity (Unaveraged)
SP.mV                                                  : Spontaneous Potential (ISF/BHC/GR)
~ASCII Log Data Section
# ...
 7288.0000        12.8057      -999.2500      -999.2500        78.9596        26.9528      -999.2500      -999.2500         2.5967      -999.2500      -999.2500      -999.2500      -999.2500      -999.2500         2.6838       -16.6587     
 7288.5000        12.8057      -999.2500      -999.2500        79.0806        26.7384      -999.2500      -999.2500         2.6674      -999.2500      -999.2500      -999.2500      -999.2500      -999.2500         2.7308       -16.9067     
 7289.0000        12.8057      -999.2500      -999.2500        79.3611        26.0216      -999.2500      -999.2500         2.6910      -999.2500      -999.2500      -999.2500      -999.2500      -999.2500         2.7296       -16.9071     
 7289.5000        12.8057      -999.2500      -999.2500        79.9826        25.6666      -999.2500      -999.2500         2.6924      -999.2500         3.7899      -999.2500      -999.2500      -999.2500         2.7048       -16.9071     
 7290.0000        12.8057      -999.2500      -999.2500        80.4239        25.7227      -999.2500      -999.2500         2.7191      -999.2500         3.7899      -999.2500      -999.2500      -999.2500         2.6802       -16.9071     
 7290.5000        12.8057      -999.2500      -999.2500        80.4238        26.4606      -999.2500      -999.2500         2.7681      -999.2500         3.7899      -999.2500      -999.2500      -999.2500         2.6575       -16.9071     
 7291.0000        12.8058      -999.2500      -999.2500        79.8965        25.6819      -999.2500      -999.2500         2.7977      -999.2500         3.7899      -999.2500      -999.2500      -999.2500         2.6593       -16.9070     
 7291.5000        12.8058      -999.2500      -999.2500        79.1258        25.6322      -999.2500      -999.2500         2.8764      -999.2500         3.7899      -999.2500      -999.2500      -999.2500         2.6894       -16.8813     
 7292.0000        12.7556      -999.2500      -999.2500        78.1823        25.9214      -999.2500      -999.2500         2.9566      -999.2500         3.7899      -999.2500      -999.2500      -999.2500         2.7921       -16.3921     
 7292.5000        12.8058      -999.2500      -999.2500        76.8735        27.3991      -999.2500      -999.2500         3.0279      -999.2500         3.7899      -999.2500      -999.2500      -999.2500         2.9263       -16.1405     
 7293.0000        12.8058      -999.2500      -999.2500        75.2042        27.3845      -999.2500      -999.2500         3.1659      -999.2500         3.7899      -999.2500      -999.2500      -999.2500         3.0893       -15.8885     
 7293.5000        12.8058      -999.2500      -999.2500        74.4755        26.9303      -999.2500      -999.2500         3.3155      -999.2500         3.7899      -999.2500      -999.2500      -999.2500         3.2910       -15.6398     
 7294.0000        12.8058      -999.2500      -999.2500        75.0246        27.4641      -999.2500      -999.2500         3.4731      -999.2500         3.7847      -999.2500      -999.2500      -999.2500         3.4497       -15.4241     
 7294.5000        12.8058      -999.2500      -999.2500        75.4195        26.8961      -999.2500      -999.2500         3.7015      -999.2500         3.7665      -999.2500        22.4016      -999.2500         3.6738       -15.4076     
 7295.0000        12.8058      -999.2500      -999.2500        75.1236        25.3650      -999.2500      -999.2500         3.9145         3.9635         3.8436         5.8725        20.6828      -999.2500         3.8494       -15.6411     
 7295.5000        12.8058      -999.2500      -999.2500        74.9535        23.3365      -999.2500        25.2171         4.1382         4.1058         4.0028         7.1078        19.8334      -999.2500         3.9952       -15.8922     
 7296.0000        12.8058        12.5232      -999.2500        73.8674        21.7200      -999.2500        26.0874         4.3363         4.5487         4.4582         7.4992        18.4742      -999.2500         4.2180       -15.9072     
 7296.5000        12.8058        12.5413         0.0128        72.2236        21.9468      -999.2500        26.9557         4.5011         5.0706         5.0725         8.8953        17.8800         2.5728         4.4562       -15.9072     
 7297.0000        12.8058        12.5595         0.0102        71.2721        22.3903      -999.2500        25.9579         4.6295         5.3170         5.1835         9.7039        17.8831         2.5652         4.7086       -15.9071     
 7297.5000        12.8057        12.5777         0.0268        71.2024        22.3846      -999.2500        25.1682         4.6752         5.2579         5.1608         9.8699        18.0303         2.5689         4.8871       -15.9071     
 7298.0000        12.8057        12.5958         0.0175        71.6660        22.2508      -999.2500        25.6351         4.6764         5.1322         5.0790        11.1776        18.8531         2.5769         4.8919       -15.9071     
 7298.5000        12.8057        12.6140         0.0160        72.2561        21.3043      -999.2500        25.1967         4.7619         5.1665         5.0423         6.3044        19.6792         2.5651         4.9359       -15.9068     
 7299.0000        12.8057        12.6322         0.0189        72.8487        20.2901      -999.2500        23.7230         4.7201         5.0495         4.9908         7.6085        20.4404         2.5812         4.8046       -15.6600     
 7299.5000        12.8058        12.6503         0.0139        73.4408        21.3533        21.2106        23.7571         4.6765         4.6542         4.5429         7.5045        20.2073         2.5969         4.6319       -15.4087     
 7300.0000        12.8058        12.6685         0.0148        73.7086        23.0431        21.7669        23.1628         4.5910         4.4219         4.3981         5.9563        20.2264         2.5888         4.4650       -15.4071     
 7300.5000        12.8058        12.6867         0.0046        73.6807        24.3975        21.3890        22.5984         4.5062         4.0398         4.1407         5.3587        20.6890         2.5805         4.3039       -15.4071     
 7301.0000        12.8058        12.6686        -0.0041        73.6236        25.2052        21.7953        23.5346         4.4232         3.8505         4.0217         5.5314        21.0995         2.5682         4.2253       -15.4071     
 7301.5000        12.8058        12.6405        -0.0034        73.6139        24.5047        22.5813        25.7979         4.3430         3.9674         3.9664         6.1342        21.3999         2.5545         4.1507       -15.4070     
 7302.0000        12.8058        12.6199         0.0063        74.0387        24.6183        23.3575        26.4082         4.3044         4.3006         4.3442         5.6300        21.8496         2.5550         4.1506       -15.4070     
 7302.5000        12.8058        12.6036         0.0131        75.0171        26.2965        23.9104        25.1173         4.3022         4.3202         4.2976         8.7736        22.4832         2.5579         4.1527       -15.4070     
 7303.0000        12.8058        12.5873         0.0349        75.7786        27.0511        24.2717        25.1241         4.2623         4.2638         4.2329         5.5084        23.0830         2.5359         4.1938       -15.4069     
 7303.5000        12.8058        12.5710         0.0417        75.7786        26.3049        25.2034        24.9746         4.2233         4.2242         4.1661         5.3713        23.6827         2.5324         4.2683       -15.4070     
 7304.0000        12.8058        12.5547         0.0232        75.5364        24.1758        24.5519        25.1246         4.1898         3.9879         3.9115         6.5052        22.9840         2.5511         4.3022       -15.4177     
 7304.5000        12.8058        12.5531         0.0110        75.2659        22.7578        22.9330        25.4858         4.1871         4.0807         4.0614         6.7127        22.1901         2.5548         4.3049       -15.6569     
