~Version Information Section
VERS.          2.0                                     : CWLS LOG ASCII Standard
WRAP.          NO                                      : One line per depth step
CREA.          03/08/17                                : LAS Creation Date
~Well Information Section
STRT.ft        420.0000                                : Start Depth
STOP.ft        8605.0000                               : Stop Depth
STEP.ft        0.5000                                  : Step
NULL.          -999.2500                               : Null Value
COMP.          TEXACO UK                               : Company
WELL.          14/20-11                                : Well
FLD .          MORAY FIRTH                             : Field
LOC .          NORTH SEA                               : Location
LOC1.          -                                       : Location (UTM)
CTRY.          UK                                      : Country
PROV.          UKCS                                    : Province
UWI .          855                                     : UWI Number
API .          -                                       : API Number
SECT.          -                                       : Section
TOWN.          -                                       : Township
RNGE.          -                                       : Range
PDAT.          MSL                                     : Perm Datum
EPD .ft        0.0                                     : Elevation
LMF .          KB                                      : Log Measured From
DMF .          KB                                      : Drill Measured From
APD .ft        81.0                                    : Above Perm Datum
EKB .ft        81.0                                    : Elev-Kelly Bushing
EDF .ft        80.0                                    : Elev-Drill Floor
EGL .ft        -434.0                                  : Elev-Ground Level (Water Depth)
TDD .ft        8605.0                                  : Total Depth (Driller)
TDL .ft        8605.0                                  : Total Depth (Logger)
SRVC.          SCHLUMBERGER                            : Service Company
LATI.          58 20 05.29" N                          : Latitude
LONG.          00 06 26.84" W                          : Longitude
DATE.          MAY-JUN-1980                            : Logging Date
PROJ.          UKCS                                    : Project
SET .          COMP_WIRE                               : Set
~Curve Information Section
DEPTH.ft                                               : Depth Curve
CALD.in                                                : Caliper (FDC/CNL/GR)
CALS.in                                                : Caliper (DLL/MSFL/GR)
DRHO.g/cc                                              : Delta Rho
DT.us/ft                                               : Delta-T
GR.gAPI                                                : Gamma Ray (ISF/BHC/GR)
GRD.gAPI                                               : Gamma Ray (FDC/CNL/GR)
GRL.gAPI                                               : Gamma Ray (DLL/MSFL/GR)
ILD.Ohmm                                               : Deep Induction Standard Processed Resistivity
LLD.Ohmm                                               : Latero-Log Deep (Resistivity)
LLS.Ohmm                                               : Latero-Log Shallow (Resistivity)
MSFL.Ohmm                                              : Msfl Resistivity
NPHI.LPU                                               : Neutron Porosity
RHOB.g/cc                                              : Bulk Density
SFLU.Ohmm                                              : SFL Resistivity (Unaveraged)
SP.mV                                                  : Spontaneous Potential (ISF/BHC/GR)
~ASCII Log Data Section
# ...
 8155.0000        12.0503        12.1126         0.0494        83.4865        74.6214        68.2414        72.0953         0.8794         0.9472         1.3140         2.8020        25.7647         2.3262         1.3804       -39.2537     
 8155.5000        12.0503        12.1062         0.0470        83.5592        74.2518        68.1232        71.4434         0.8828         0.9327         1.3158         2.8940        24.9739         2.3285         1.4112       -39.1571     
 8156.0000        12.0503        12.0999         0.0449        83.6663        73.6497        67.7687        70.7591         0.8875         0.9106         1.3044         2.9610        23.2314         2.3247         1.4110       -39.1571     
 8156.5000        12.0504        12.0936         0.0510        83.9527        73.4518        68.8223        70.0745         0.8910         0.8856         1.2762         2.5929        22.2683         2.3274         1.3916       -39.1570     
 8157.0000        12.0504        12.0872         0.0487        84.4736        74.2340        69.0353        69.3900         0.8958         0.8607         1.2203         2.2892        22.3934         2.3290         1.3722       -39.1475     
 8157.5000        12.0504        12.0809         0.0367        84.7762        73.8956        68.3855        69.2794         0.8993         0.8569         1.2050         2.2301        22.7747         2.3115         1.3404       -39.0227     
 8158.0000        12.0504        12.0746         0.0246        84.4694        78.0672        68.2853        69.7023         0.8993         0.8660         1.2224         2.5288        23.1344         2.2931         1.3244       -38.9149     
 8158.5000        12.0504        12.0682         0.0155        84.1445        78.2064        70.4451        69.2220         0.8993         0.9141         1.2928         2.6480        23.3751         2.2846         1.3122       -39.0401     
 8159.0000        12.0504        12.0619         0.0122        83.8080        78.3662        71.2537        68.0145         0.8947         0.9679         1.3628         2.9238        23.2536         2.2766         1.3304       -38.8846     
 8159.5000        12.0504        12.0556         0.0119        83.4837        71.5649        70.8503        67.7756         0.8958         1.0168         1.4321         3.2743        22.7121         2.2722         1.3507       -39.0689     
 8160.0000        12.0504        12.0530         0.0144        83.3056        71.1599        70.7815        68.3855         0.8992         1.0351         1.4636         3.3267        22.1869         2.2800         1.3632       -39.2608     
 8160.5000        12.0504        12.0570         0.0230        83.3782        71.1604        70.5639        69.2079         0.8950         1.0506         1.4856         3.0078        21.8238         2.2925         1.3658       -39.0259     
 8161.0000        12.0504        12.0610         0.0312        83.4333        72.5758        71.0871        70.3603         0.9009         1.0505         1.4331         2.7959        21.6175         2.2977         1.3507       -38.9091     
 8161.5000        12.0504        12.0651         0.0281        83.4102        71.2643        69.9939        71.8049         0.9172         1.0337         1.3808         2.7394        21.9443         2.2978         1.3514       -38.7722     
 8162.0000        12.0504        12.0691         0.0262        83.3059        69.8976        69.6460        72.9071         0.9248         1.0229         1.4038         2.9510        22.6822         2.2985         1.3608       -38.5220     
 8162.5000        12.0504        12.0731         0.0254        83.2018        70.0215        70.7098        74.1313         0.9297         1.0361         1.4395         3.1873        23.1943         2.3002         1.4087       -38.4082     
 8163.0000        12.0504        12.0771         0.0264        83.0883        71.3254        69.2805        73.9626         0.9383         1.0498         1.4826         3.2198        23.1009         2.2989         1.4564       -38.5399     
 8163.5000        12.0504        12.0811         0.0304        82.9405        70.3073        67.7321        72.3883         0.9466         1.0674         1.4737         3.2082        22.6155         2.3061         1.4453       -38.5219     
 8164.0000        12.0504        12.0852         0.0357        82.7731        69.7181        67.1642        71.5595         0.9502         1.0708         1.4648         3.1636        22.4820         2.3202         1.4272       -38.4025     
 8164.5000        12.0504        12.0892         0.0428        82.6060        70.3864        68.0394        72.1988         0.9633         1.0592         1.4531         3.1189        22.6316         2.3317         1.4092       -38.2715     
 8165.0000        12.0504        12.0932         0.0511        82.4389        75.7423        68.2237        73.0748         0.9850         1.0459         1.4135         3.3738        22.6915         2.3463         1.3958       -38.1573     
 8165.5000        12.0504        12.0972         0.0466        82.2718        74.2090        69.6268        73.2124         0.9947         1.0314         1.3728         3.6505        22.5302         2.3476         1.3958       -38.1571     
 8166.0000        12.0503        12.1012         0.0298        82.1198        73.3549        70.9568        72.1388         1.0042         1.0154         1.3256         3.9262        22.2379         2.3332         1.4348       -38.1485     
 8166.5000        12.0503        12.1053         0.0235        82.0240        71.1332        70.0578        69.7372         1.0179         0.9993         1.2784         3.7503        21.9641         2.3354         1.5239       -38.0140     
 8167.0000        12.0503        12.1055         0.0244        81.9540        73.2933        68.8267        68.0171         1.0275         0.9869         1.2312         3.4770        21.7804         2.3440         1.5337       -37.7987     
 8167.5000        12.0503        12.1053         0.0265        81.9167        76.5572        69.1735        67.2573         1.0324         0.9788         1.1688         2.8732        21.7004         2.3442         1.5053       -37.6662     
 8168.0000        12.0503        12.1051         0.0288        81.9924        78.6126        70.3596        66.6579         1.0326         0.9715         1.1143         2.5236        21.7700         2.3374         1.4672       -37.6571     
 8168.5000        12.0503        12.1050         0.0271        82.0871        75.1198        71.0723        66.5861         1.0325         0.9679         1.0808         2.4438        21.9670         2.3288         1.4403       -37.6575     
 8169.0000        12.0503        12.1048         0.0237        82.1817        69.0204        69.5462        66.2709         1.0234         0.9643         1.0650         2.5117        22.2265         2.3226         1.4258       -37.8899     
 8169.5000        12.0503        12.1046         0.0216        82.2747        66.4661        67.2747        65.1259         1.0136         0.9520         1.0648         2.6969        22.4033         2.3177         1.4112       -38.2639     
 8170.0000        12.0503        12.1044         0.0197        82.3610        63.7815        65.6734        64.3469         1.0001         0.9335         1.0629         2.8982        22.6042         2.3057         1.3966       -38.4035     
 8170.5000        12.0504        12.1042         0.0171        82.4378        63.7421        65.2653        63.9071         0.9685         0.9152         1.0585         2.9978        22.9367         2.2969         1.3821       -38.5238     
 8171.0000        12.0504        12.1044         0.0146        82.4394        62.7748        65.5776        62.8860         0.9373         0.8993         1.0533         3.0871        23.3149         2.2995         1.3679       -38.7726     
 8171.5000        12.0504        12.1048         0.0120        82.2466        63.6678        63.8851        61.5178         0.9037         0.8810         1.0406         3.2339        23.1766         2.3027         1.2872       -38.9071     
