~Version Information Section
VERS.          2.0                                     : CWLS LOG ASCII Standard
WRAP.          NO                                      : One line per depth step
CREA.          03/06/17                                : LAS Creation Date
~Well Information Section
STRT.ft        491.0000                                : Start Depth
STOP.ft        9197.0000                               : Stop Depth
STEP.ft        0.5000                                  : Step
NULL.          -999.2500                               : Null Value
COMP.          TEXACO PRODUCTION SERVICES LTD.         : Company
WELL.          14/20-2                                 : Well
FLD .          MORAY FIRTH                             : Field
LOC .          NORTH SEA                               : Location
LOC1.          -                                       : Location (UTM)
CTRY.          UK                                      : Country
PROV.          UKCS                                    : Province
UWI .          859                                     : UWI Number
API .          -                                       : API Number
SECT.          -                                       : Section
TOWN.          -                                       : Township
RNGE.          -                                       : Range
PDAT.          MSL                                     : Perm Datum
EPD .ft        0.0                                       : Elevation
LMF .          KB                                      : Log Measured From
DMF .          KB                                      : Drill Measured From
APD .ft        82.0                                    : Above Perm Datum
EKB .ft        82.0                                    : Elev-Kelly Bushing
EDF .ft        81.0                                    : Elev-Drill Floor
EGL .ft        -426.0                                  : Elev-Ground Level (Water Depth)
TDD .ft        9200.0                                  : Total Depth (Driller)
TDL .ft        9197.0                                  : Total Depth (Logger)
SRVC.          SCHLUMBERGER                            : Service Company
LATI.          58 20 30.98" N                          : Latitude
LONG.          00 08 39.66" W                          : Longitude
DATE.          MAY-JUN-1975                            : Logging Date
PROJ.          UKCS                                    : Project
SET .          COMP_WIRE                               : Set
~Curve Information Section
DEPTH.ft                                               : Depth Curve
CALD.in                                                : Caliper (from FDC/CNL/GR)
MCAL.in                                                : Caliper (from MLL/ML)
DRHO.g/cc                                              : Delta Rho
DT.us/ft                                               : Delta-T
GR.gAPI                                                : Gamma Ray (from ISF/BHC/GR)
GRD.gAPI                                               : Gamma Ray (from FDC/CNL/GR)
ILD.Ohmm                                               : Deep Induction Standard Processed Resistivity
MINV.Ohmm                                              : Micro-Inverse Resistivity
MLL.Ohmm                                               : Mll Resistivity
MNOR.Ohmm                                              : Micro-Normal Resistivity
NPHI.LPU                                               : Neutron Porosity
RHOB.g/cc                                              : Bulk Density
SFLU.Ohmm                                              : SFL Resistivity (Unaveraged)
SP.mV                                                  : Spontaneous Potential
~ASCII Log Data Section
# ...
 8627.0000         9.0892         9.6858         0.1280        88.1427        96.4566        96.1229         2.1618         0.4807         0.5585         0.6340        35.0969         2.3470         1.9190        85.7257     
 8627.5000         9.1823         9.6844         0.1263        89.0653        96.2325        94.7220         2.1658         0.4335         0.6026         0.5672        34.4617         2.3481         1.8871        85.5258     
 8628.0000         9.6477         9.5383         0.0850        90.7163        96.0732        92.3327         2.1698         0.4660         0.8270         0.5748        36.2868         2.3080         1.8540        85.3255     
 8628.5000         9.6810         9.4993         0.0878        93.5603        95.5178        86.9442         2.1739         0.4551         0.8041         0.6277        37.0459         2.2542         1.8131        85.1255     
 8629.0000         9.2247         9.6662         0.1167        95.3590        94.4961        83.9562         2.0980         0.4689         0.7251         0.6509        37.3057         2.2242         1.7722        84.9256     
 8629.5000         9.2577         9.9018         0.1151       100.6057        90.9879        86.0104         2.0199         0.4103         0.5784         0.5434        36.0692         2.1998         1.7313        84.7256     
 8630.0000         9.4917        10.0474         0.1031       104.0568        87.6459        87.0726         1.9417         0.4490         0.6047         0.4885        34.7597         2.1810         1.6903        84.5253     
 8630.5000         9.6387        10.0743         0.0862        88.9646        87.4032        85.3699         1.9167         0.4623         0.6924         0.4950        37.8307         2.1608         1.6494        84.3254     
 8631.0000         9.6686        10.0733         0.0558        88.7557        88.8590        84.2465         1.9244         0.4501         0.5834         0.5007        38.6052         2.1544         1.6085        84.1254     
 8631.5000         9.9037         9.9604         0.0632        90.0461        89.8649        83.1732         1.9176         0.4177         0.6177         0.4903        38.3181         2.1785         1.6109        83.9255     
 8632.0000         9.9318         9.9043         0.0632        92.2692        90.8388        82.7086         1.8734         0.3657         0.6981         0.4546        38.0570         2.1944         1.6166        83.7255     
 8632.5000         9.5611         9.8722         0.0980        93.6266        89.6846        84.7912         1.8292         0.3564         0.8424         0.4908        37.9383         2.2211         1.6110        83.5252     
 8633.0000         9.6043         9.6958         0.0974        93.2543        86.9822        88.2203         1.7850         0.4956         0.8588         0.6835        37.7399         2.2461         1.5730        83.3253     
 8633.5000         9.2800         9.7025         0.0898        92.7257        87.1790        89.2825         1.7450         0.4803         0.9098         0.6219        36.7448         2.2404         1.5350        83.1253     
 8634.0000         9.1282         9.9172         0.1195        91.6944        88.8425        89.5179         1.7451         0.4519         0.7832         0.5537        36.4205         2.2596         1.4939        82.9254     
 8634.5000         9.6838        10.1507         0.1436        90.6644        90.5233        89.7791         1.7453         0.4109         0.7961         0.4776        37.9916         2.2443         1.4431        82.7596     
 8635.0000        10.3907        10.2894         0.1355        91.4822        90.8668        89.3486         1.7467         0.4238         0.5545         0.4795        39.5699         2.2169         1.3924        82.5943     
 8635.5000        10.5535        10.4058         0.1105        92.5073        88.7923        88.2223         1.7608         0.3427         0.4838         0.4602        40.5308         2.2189         1.3962        82.4290     
 8636.0000        10.5801        10.3789         0.1049        93.9309        87.2533        88.3468         1.7749         0.3278         0.5582         0.3740        41.2320         2.2645         1.4837        82.2637     
 8636.5000        10.5312        10.1445         0.1413        95.3713        85.1858        88.4437         1.7890         0.3796         0.5489         0.3667        40.6364         2.3196         1.5414        82.0981     
 8637.0000        10.2115         9.7434         0.1586        92.5396        85.8391        88.0594         1.8628         0.4543         0.6117         0.3740        37.7811         2.3744         1.5881        81.9328     
 8637.5000         9.0952         9.3827         0.1522        89.7078        86.7859        84.6110         1.9788         0.5743         0.9717         0.4681        33.5760         2.4399         1.7045        81.7675     
 8638.0000         9.0108         9.3463         0.1564        86.8761        82.8378        79.1489         2.0947         0.7537         1.2133         0.6154        31.5804         2.4779         1.8283        81.6022     
 8638.5000         9.0514         9.4019         0.1138        84.9729        79.3906        73.2753         2.2107         0.9415         1.0990         0.9225        29.9940         2.4846         1.9086        81.4370     
 8639.0000         9.1082         9.4260         0.1037        84.5663        74.5115        67.3060         2.4608         0.8263         1.1371         0.7686        28.8098         2.4965         1.9582        81.2714     
 8639.5000         9.1682         9.4023         0.1056        83.9656        71.0606        62.1000         2.7202         0.5926         1.0669         0.7184        27.5414         2.5048         2.1906        81.1061     
 8640.0000         9.2233         9.3393         0.0796        83.0395        66.1976        58.6029         2.9796         0.9517         1.3427         0.8132        25.5948         2.4843         2.6777        80.9408     
 8640.5000         9.2325         9.2578         0.0535        81.8071        62.0059        53.8151         3.2390         1.5006         2.6528         1.2206        22.7692         2.4584         3.1647        80.7755     
 8641.0000         9.1827         9.1824         0.0309        79.4067        59.0726        49.8481         3.4989         2.0976         4.4733         1.6861        19.6294         2.4893         3.6525        80.6099     
 8641.5000         9.0704         9.1673         0.0391        75.2050        54.9296        48.9260         3.7124         3.4709         6.0839         2.1734        16.5827         2.5408         4.1396        80.4446     
 8642.0000         9.0132         9.1487         0.0453        69.4377        52.0031        49.7307         3.9151         4.7805         7.6519         3.5406        13.9744         2.5867         4.1423        80.2793     
 8642.5000         8.9958         9.1445         0.0590        67.5218        47.9053        51.0179         4.1178         4.9502         4.3511         4.7036        14.1443         2.5991         3.8960        80.1140     
 8643.0000         8.9855         9.1434         0.0524        69.1581        49.2384        50.6606         4.1607         3.6116         1.9159         3.5164        16.0904         2.5798         3.6492        79.9484     
 8643.5000         8.9723         9.1423         0.0433        70.7974        48.9679        46.4494         4.1178         1.6001         4.6296         1.5991        17.6954         2.5524         3.6133        79.7831     
 8644.0000         8.9568         9.1412         0.0189        71.6145        46.6933        41.3369         4.0749         2.9752         7.0512         2.9838        16.4632         2.5405         3.8198        79.6178     
 8644.5000         8.9522         9.1401        -0.0013        70.9111        45.0304        40.7542         4.0320         4.0695         6.1904         4.7414        14.7604         2.5695         3.8323        79.4525     
