~Version Information Section
VERS.          2.0                                     : CWLS LOG ASCII Standard
WRAP.          NO                                      : One line per depth step
CREA.          03/06/17                                : LAS Creation Date
~Well Information Section
STRT.ft        491.0000                                : Start Depth
STOP.ft        9197.0000                               : Stop Depth
STEP.ft        0.5000                                  : Step
NULL.          -999.2500                               : Null Value
COMP.          TEXACO PRODUCTION SERVICES LTD.         : Company
WELL.          14/20-2                                 : Well
FLD .          MORAY FIRTH                             : Field
LOC .          NORTH SEA                               : Location
LOC1.          -                                       : Location (UTM)
CTRY.          UK                                      : Country
PROV.          UKCS                                    : Province
UWI .          859                                     : UWI Number
API .          -                                       : API Number
SECT.          -                                       : Section
TOWN.          -                                       : Township
RNGE.          -                                       : Range
PDAT.          MSL                                     : Perm Datum
EPD .ft        0.0                                       : Elevation
LMF .          KB                                      : Log Measured From
DMF .          KB                                      : Drill Measured From
APD .ft        82.0                                    : Above Perm Datum
EKB .ft        82.0                                    : Elev-Kelly Bushing
EDF .ft        81.0                                    : Elev-Drill Floor
EGL .ft        -426.0                                  : Elev-Ground Level (Water Depth)
TDD .ft        9200.0                                  : Total Depth (Driller)
TDL .ft        9197.0                                  : Total Depth (Logger)
SRVC.          SCHLUMBERGER                            : Service Company
LATI.          58 20 30.98" N                          : Latitude
LONG.          00 08 39.66" W                          : Longitude
DATE.          MAY-JUN-1975                            : Logging Date
PROJ.          UKCS                                    : Project
SET .          COMP_WIRE                               : Set
~Curve Information Section
DEPTH.ft                                               : Depth Curve
CALD.in                                                : Caliper (from FDC/CNL/GR)
MCAL.in                                                : Caliper (from MLL/ML)
DRHO.g/cc                                              : Delta Rho
DT.us/ft                                               : Delta-T
GR.gAPI                                                : Gamma Ray (from ISF/BHC/GR)
GRD.gAPI                                               : Gamma Ray (from FDC/CNL/GR)
ILD.Ohmm                                               : Deep Induction Standard Processed Resistivity
MINV.Ohmm                                              : Micro-Inverse Resistivity
MLL.Ohmm                                               : Mll Resistivity
MNOR.Ohmm                                              : Micro-Normal Resistivity
NPHI.LPU                                               : Neutron Porosity
RHOB.g/cc                                              : Bulk Density
SFLU.Ohmm                                              : SFL Resistivity (Unaveraged)
SP.mV                                                  : Spontaneous Potential
~ASCII Log Data Section
# ...
 8177.0000         8.4351         8.2930         0.0458        83.6010        55.9295        56.4155         0.4757         0.4965         0.9465         0.5694        24.9149         2.2465         0.8129        76.1848     
 8177.5000         8.4362         8.2933         0.0525        83.4544        56.2416        52.2434         0.4734         0.5002         0.9362         0.5491        25.3279         2.2611         0.8123        76.3719     
 8178.0000         8.4373         8.2936         0.0472        83.5165        55.0339        49.4307         0.4700         0.5136         0.9655         0.5408        25.8948         2.2579         0.8198        76.5589     
 8178.5000         8.4384         8.2940         0.0327        83.6828        53.7203        49.7320         0.4667         0.5268         1.0089         0.5479        26.4339         2.2424         0.8164        76.7462     
 8179.0000         8.4395         8.2943         0.0355        83.8491        53.7563        50.4603         0.4656         0.5361         0.9851         0.5683        26.6742         2.2398         0.8087        76.9332     
 8179.5000         8.4406         8.2946         0.0381        84.0141        53.8067        51.2355         0.4646         0.5392         0.9477         0.5888        26.3459         2.2449         0.8016        77.1202     
 8180.0000         8.4417         8.2949         0.0450        84.0968        53.8426        54.5354         0.4637         0.5360         0.9393         0.6077        26.4494         2.2502         0.8011        77.3073     
 8180.5000         8.4427         8.2952         0.0490        84.1796        53.9247        56.1688         0.4627         0.5285         0.9342         0.6233        27.0297         2.2519         0.8084        77.4943     
 8181.0000         8.4438         8.2956         0.0479        84.2625        54.6170        57.3641         0.4652         0.5230         0.9343         0.6274        26.8171         2.2608         0.8083        77.6117     
 8181.5000         8.4449         8.2959         0.0410        84.3452        55.9377        57.2737         0.4949         0.5316         0.9319         0.6174        26.2561         2.2514         0.8157        77.6090     
 8182.0000         8.4460         8.2962         0.0349        84.4254        57.1538        56.7103         0.5246         0.5570         0.9187         0.6101        25.9154         2.2478         0.8153        77.6063     
 8182.5000         8.4471         8.2965         0.0411        84.4284        57.1072        57.0253         0.5881         0.5733         0.9094         0.6176        26.1224         2.2580         0.8501        77.6117     
 8183.0000         8.4482         8.2908         0.0457        84.3781        55.9273        58.0516         0.6601         0.5740         0.9365         0.6170        26.3167         2.2652         0.8600        77.6468     
 8183.5000         8.4493         8.2713         0.0433        84.1249        55.4594        60.9216         0.7321         0.5579         0.9558         0.6012        25.8813         2.2672         0.9454        77.6819     
 8184.0000         8.4503         8.2572         0.0361        83.8714        56.8711        62.4834         0.8040         0.5375         0.9736         0.5871        24.9580         2.2633         0.9452        77.7170     
 8184.5000         8.4514         8.2575         0.0281        81.4310        58.0130        63.5043         0.8759         0.5121         1.1545         0.5813        24.0357         2.2669         1.1244        77.7521     
 8185.0000         8.4525         8.2578         0.0293        78.6931        59.6189        64.0481         0.9479         0.5012         1.7485         0.5907        23.2447         2.2730         1.5207        77.7873     
 8185.5000         8.4536         8.2537         0.0338        75.9590        61.0600        65.7890         1.0199         0.5448         2.7733         0.6563        19.8888         2.3146         1.9564        77.8224     
 8186.0000         8.4547         8.2383         0.0207        73.2250        61.1895        64.1381         1.0449         0.6472         4.6808         0.8247        16.3883         2.3631         2.3812        77.8575     
 8186.5000         8.4558         8.2386         0.0142        70.4909        57.1890        60.5178         1.0343         0.6526         7.2624         0.9581        14.7143         2.4228         2.3504        77.8926     
 8187.0000         8.4569         8.2389         0.0147        68.2833        56.5263        57.4993         1.0237         0.6132         4.0124         0.9491        15.0124         2.4494         1.8438        77.9277     
 8187.5000         8.4580         8.2393         0.0204        72.6985        55.9576        55.7857         1.0131         0.5409         1.4592         0.7747        16.8680         2.4126         1.2960        77.9628     
 8188.0000         8.4590         8.2424         0.0306        77.1173        55.8505        56.9199         0.9907         0.5138         1.0560         0.6086        19.3033         2.3724         1.2498        78.0529     
 8188.5000         8.4601         8.2601         0.0325        81.5361        56.2085        59.1689         0.9671         0.4996         1.0656         0.5723        21.8866         2.2930         1.2247        78.1826     
 8189.0000         8.4612         8.2604         0.0256        85.9548        56.9098        59.3507         1.0310         0.4986         1.0630         0.5715        23.3580         2.2591         1.3347        78.3122     
 8189.5000         8.4623         8.2607         0.0320        85.5081        57.7727        58.5318         1.2733         0.4979         1.1099         0.5794        23.4945         2.2591         1.4621        78.4421     
 8190.0000         8.4634         8.2610         0.0260        81.4704        58.9119        56.1068         1.5245         0.4931         1.1019         0.5990        21.7636         2.2769         1.6402        78.5717     
 8190.5000         8.4645         8.2613         0.0276        76.0592        59.1716        55.5725         1.7757         0.5216         1.2964         0.7670        20.1620         2.3007         2.7080        78.7013     
 8191.0000         8.4656         8.2617         0.0335        70.6481        58.5277        54.9601         2.0281         0.7881         2.8900         0.9704        17.0880         2.3501         4.1910        78.8310     
 8191.5000         8.4667         8.2620         0.0244        65.2325        58.4054        54.1543         2.3634         0.8118        17.6929         1.1663        12.0858         2.4229         7.6651        78.9608     
 8192.0000         8.4677         8.2623         0.0210        62.4024        58.5908        54.7902         2.6983         0.8094        11.8597         1.3085         9.7832         2.4805         8.9683        79.0905     
 8192.5000         8.4688         8.2626         0.0286        60.3311        59.8649        56.9144         3.0075         0.7896         9.3971         1.2991         8.8444         2.5398         6.4712        79.2201     
 8193.0000         8.4699         8.3397         0.0286        60.1176        61.8464        59.7742         2.9602         1.6250        11.8263         2.2164         8.8409         2.5483         4.4007        79.3497     
 8193.5000         8.4710         8.4368         0.0283        64.6330        64.8471        62.8695         2.9128         2.2051        21.4647         2.6576         9.1641         2.5407         3.4241        79.4794     
 8194.0000         8.4721         8.3740         0.0351        69.1556        66.9799        67.3049         2.7220         1.2970        27.9623         1.5864        10.3829         2.5269         2.3989        79.6092     
 8194.5000         8.4732         8.1767         0.0463        73.6709        69.8093        70.0826         2.4810         1.0998         3.7601         1.0640        13.3615         2.4846         2.0086        79.7389     
