~Version Information Section
VERS.          2.0                                     : CWLS LOG ASCII Standard
WRAP.          NO                                      : One line per depth step
CREA.          03/06/17                                : LAS Creation Date
~Well Information Section
STRT.ft        491.0000                                : Start Depth
STOP.ft        9197.0000                               : Stop Depth
STEP.ft        0.5000                                  : Step
NULL.          -999.2500                               : Null Value
COMP.          TEXACO PRODUCTION SERVICES LTD.         : Company
WELL.          14/20-2                                 : Well
FLD .          MORAY FIRTH                             : Field
LOC .          NORTH SEA                               : Location
LOC1.          -                                       : Location (UTM)
CTRY.          UK                                      : Country
PROV.          UKCS                                    : Province
UWI .          859                                     : UWI Number
API .          -                                       : API Number
SECT.          -                                       : Section
TOWN.          -                                       : Township
RNGE.          -                                       : Range
PDAT.          MSL                                     : Perm Datum
EPD .ft        0.0                                       : Elevation
LMF .          KB                                      : Log Measured From
DMF .          KB                                      : Drill Measured From
APD .ft        82.0                                    : Above Perm Datum
EKB .ft        82.0                                    : Elev-Kelly Bushing
EDF .ft        81.0                                    : Elev-Drill Floor
EGL .ft        -426.0                                  : Elev-Ground Level (Water Depth)
TDD .ft        9200.0                                  : Total Depth (Driller)
TDL .ft        9197.0                                  : Total Depth (Logger)
SRVC.          SCHLUMBERGER                            : Service Company
LATI.          58 20 30.98" N                          : Latitude
LONG.          00 08 39.66" W                          : Longitude
DATE.          MAY-JUN-1975                            : Logging Date
PROJ.          UKCS                                    : Project
SET .          COMP_WIRE                               : Set
~Curve Information Section
DEPTH.ft                                               : Depth Curve
CALD.in                                                : Caliper (from FDC/CNL/GR)
MCAL.in                                                : Caliper (from MLL/ML)
DRHO.g/cc                                              : Delta Rho
DT.us/ft                                               : Delta-T
GR.gAPI                                                : Gamma Ray (from ISF/BHC/GR)
GRD.gAPI                                               : Gamma Ray (from FDC/CNL/GR)
ILD.Ohmm                                               : Deep Induction Standard Processed Resistivity
MINV.Ohmm                                              : Micro-Inverse Resistivity
MLL.Ohmm                                               : Mll Resistivity
MNOR.Ohmm                                              : Micro-Normal Resistivity
NPHI.LPU                                               : Neutron Porosity
RHOB.g/cc                                              : Bulk Density
SFLU.Ohmm                                              : SFL Resistivity (Unaveraged)
SP.mV                                                  : Spontaneous Potential
~ASCII Log Data Section
# ...
 8951.0000         8.5449         8.8416         0.0022        54.8693        75.7644        78.0042        28.2713         5.0056       128.3242         4.9742         7.4115         2.6933        49.5995        49.5688     
 8951.5000         8.5504         8.8463         0.0021        56.9468        83.8190        86.4008        24.9433         5.0049        69.9452         4.9730         9.3526         2.6588        37.7387        52.0134     
 8952.0000         8.5621         8.8929         0.0051        59.3101        89.5225        93.8148        21.6207         5.0042        17.6448         4.9748        11.0035         2.6419        26.8884        54.4541     
 8952.5000         8.5878         8.9039         0.0099        61.7293        94.6720        98.1105        18.3836         5.0035        18.1278         4.9829        12.8694         2.6366        26.7193        56.8949     
 8953.0000         8.6209         8.9240         0.0095        64.1484        96.4036        98.5497        17.3837         5.0028        15.5647         4.9824        14.4196         2.6497        26.5502        59.3356     
 8953.5000         8.6540         8.9426         0.0113        66.4461        97.0025        96.3295        16.3821         5.0021        26.6062         4.9811        15.2455         2.6744        25.1874        61.7802     
 8954.0000         8.6797         8.9427         0.0206        68.0749        95.9819        94.3929        15.3821         5.0013        38.0977         4.9798        16.4651         2.6935        20.3345        64.2209     
 8954.5000         8.6951         8.9428         0.0258        68.2014        94.0603        94.7818        14.3821         5.0006        12.9616         4.9785        18.2721         2.6986        17.7446        66.6617     
 8955.0000         8.6692         8.9414         0.0210        68.0029        92.8198        94.9172        13.3822         4.9999        12.1092         4.9773        20.1157         2.6901        17.0944        69.1024     
 8955.5000         8.6168         8.9201         0.0125        67.8040        93.3540        93.7621        12.3806         4.9992        15.2434         4.9760        21.4004         2.6826        16.4431        70.3218     
 8956.0000         8.5899         8.9231         0.0086        67.6055        95.7711        95.2765        11.3806         4.9984        13.9253         4.9749        22.0253         2.6736        15.0149        71.4924     
 8956.5000         8.5971         8.9232         0.0158        69.2145        99.3818        99.0521        10.3806         4.9978        10.9348         4.9737        22.9844         2.6581        13.4624        72.6631     
 8957.0000         8.6099         8.9255         0.0292        71.1850       101.8655       108.6065         9.3807         4.9970        10.5429         4.9724        24.5609         2.6514        11.9099        73.8338     
 8957.5000         8.5979         8.9693         0.0350        73.1556       111.4446       121.6034         8.4678         4.9916        10.0638         4.9707        26.1903         2.6430        11.1674        75.0044     
 8958.0000         8.5816         9.0265         0.0289        75.1293       111.7062       128.4938         8.2557         4.8749         7.0923         4.9224        27.3898         2.6141        11.3068        75.7572     
 8958.5000         8.5971         9.0824         0.0239        77.0998       111.6235       130.7328         8.0451         4.3536         6.4964         4.0527        28.1987         2.5764        11.1248        76.0604     
 8959.0000         8.7663         9.1039         0.0321        79.0704       111.5121       132.3520         8.4103         4.5030         8.3946         4.2562        28.7822         2.5576        10.9376        76.3636     
 8959.5000         8.8775         9.0847         0.0460        80.7585       111.3293       133.6222         9.1554         4.5214         6.7649         4.3892        29.2463         2.5690        11.9275        76.2537     
 8960.0000         8.8697         9.0808         0.0573        80.2984       111.0087       132.9733         9.9017         4.9105         7.4326         4.7622        28.6867         2.5942        14.5063        76.0554     
 8960.5000         8.8173         8.9371         0.0410        77.5355       110.4790       130.1881        11.0285         4.3591         9.9712         4.1074        26.7891         2.6122        17.0834        75.8573     
 8961.0000         8.7222         8.9243         0.0225        74.7690       109.8340       124.7193        13.0014         4.9746        11.8994         4.9763        24.5924         2.6313        19.3069        75.7102     
 8961.5000         8.6532         8.9244         0.0199        72.0024       109.2484       117.6476        14.9743         4.9744        10.6992         4.9840        23.1511         2.6496        20.9834        75.5737     
 8962.0000         8.6244         8.9243         0.0171        69.0933       104.9650       110.1090        16.9504         4.9743        13.3175         4.9835        22.0099         2.6484        22.6625        75.4370     
 8962.5000         8.6052         8.9044         0.0220        65.5836       100.8873        98.3277        20.8788         4.9742        11.7931         4.9830        20.4654         2.6622        24.9056        75.3006     
 8963.0000         8.5976         8.8845         0.0204        62.0738        90.5690        86.5808        27.8320         4.9741        18.9812         4.9825        18.4297         2.6860        32.2842        75.2755     
 8963.5000         8.5815         8.8646         0.0147        58.5641        77.0448        74.0361        34.7853         4.9739        23.2453         4.9820        16.2114         2.7098        39.6629        75.3611     
 8964.0000         8.5693         8.8647         0.0121        55.3034        67.0669        62.7249        41.7385         4.9738        50.2593         4.9814        13.8029         2.7232        47.0416        75.4466     
 8964.5000         8.5761         8.8648         0.0108        55.1007        61.3039        56.9339        48.7029         4.9738        41.2462         4.9809        12.3018         2.7304        54.9353        75.5324     
 8965.0000         8.5781         8.8649         0.0095        54.9031        58.3401        54.1451        55.6562         4.9739        38.6433         4.9804        11.7581         2.7526        72.4439        75.6180     
 8965.5000         8.5688         8.8650         0.0087        54.7056        56.2125        52.0596        62.5819         4.9743       153.8568         4.9799        11.0434         2.7885        89.9524        75.7035     
 8966.0000         8.5659         8.8651         0.0194        54.4663        53.2205        49.8844        69.1363         4.9748        74.7591         4.9794        10.2714         2.8005       107.4610        75.7891     
 8966.5000         8.5655         8.8652         0.0255        53.7859        51.2667        49.3667        75.7012         4.9752       133.6662         4.9789         9.5410         2.8162       124.9976        75.8748     
 8967.0000         8.5651         8.8654         0.0192        53.1057        48.7484        49.2405        82.2556         4.9756       169.5165         4.9784         9.0911         2.8293       138.2399        75.9604     
 8967.5000         8.5646         8.8655         0.0120        52.4256        46.5123        48.6198        88.8100         4.9761       181.6399         4.9778         9.0200         2.8180       143.5367        76.0460     
 8968.0000         8.5642         8.8656         0.0175        51.7455        45.8724        49.1919        91.6890         4.9765       358.0114         4.9773         8.9006         2.8033       141.5445        76.1316     
 8968.5000         8.5638         8.8657         0.0257        51.3672        45.7407        47.2031        86.0292         4.9769       302.2974         4.9768         9.0596         2.8162       126.7692        76.2173     
