~Version Information Section
VERS.          2.0                                     : CWLS LOG ASCII Standard
WRAP.          NO                                      : One line per depth step
CREA.          03/06/17                                : LAS Creation Date
~Well Information Section
STRT.ft        491.0000                                : Start Depth
STOP.ft        9197.0000                               : Stop Depth
STEP.ft        0.5000                                  : Step
NULL.          -999.2500                               : Null Value
COMP.          TEXACO PRODUCTION SERVICES LTD.         : Company
WELL.          14/20-2                                 : Well
FLD .          MORAY FIRTH                             : Field
LOC .          NORTH SEA                               : Location
LOC1.          -                                       : Location (UTM)
CTRY.          UK                                      : Country
PROV.          UKCS                                    : Province
UWI .          859                                     : UWI Number
API .          -                                       : API Number
SECT.          -                                       : Section
TOWN.          -                                       : Township
RNGE.          -                                       : Range
PDAT.          MSL                                     : Perm Datum
EPD .ft        0.0                                       : Elevation
LMF .          KB                                      : Log Measured From
DMF .          KB                                      : Drill Measured From
APD .ft        82.0                                    : Above Perm Datum
EKB .ft        82.0                                    : Elev-Kelly Bushing
EDF .ft        81.0                                    : Elev-Drill Floor
EGL .ft        -426.0                                  : Elev-Ground Level (Water Depth)
TDD .ft        9200.0                                  : Total Depth (Driller)
TDL .ft        9197.0                                  : Total Depth (Logger)
SRVC.          SCHLUMBERGER                            : Service Company
LATI.          58 20 30.98" N                          : Latitude
LONG.          00 08 39.66" W                          : Longitude
DATE.          MAY-JUN-1975                            : Logging Date
PROJ.          UKCS                                    : Project
SET .          COMP_WIRE                               : Set
~Curve Information Section
DEPTH.ft                                               : Depth Curve
CALD.in                                                : Caliper (from FDC/CNL/GR)
MCAL.in                                                : Caliper (from MLL/ML)
DRHO.g/cc                                              : Delta Rho
DT.us/ft                                               : Delta-T
GR.gAPI                                                : Gamma Ray (from ISF/BHC/GR)
GRD.gAPI                                               : Gamma Ray (from FDC/CNL/GR)
ILD.Ohmm                                               : Deep Induction Standard Processed Resistivity
MINV.Ohmm                                              : Micro-Inverse Resistivity
MLL.Ohmm                                               : Mll Resistivity
MNOR.Ohmm                                              : Micro-Normal Resistivity
NPHI.LPU                                               : Neutron Porosity
RHOB.g/cc                                              : Bulk Density
SFLU.Ohmm                                              : SFL Resistivity (Unaveraged)
SP.mV                                                  : Spontaneous Potential
~ASCII Log Data Section
# ...
 8393.0000         8.3641         8.4675         0.0280        80.0385        43.7956        41.3213         0.6214         0.8397         1.4350         0.8735        21.4125         2.2974         1.1354        76.5261     
 8393.5000         8.3634         8.4682         0.0186        79.5735        43.5645        40.2961         0.6256         0.8176         1.3602         0.8920        20.8567         2.2919         1.1458        76.5990     
 8394.0000         8.3721         8.4689         0.0266        79.1804        42.4007        39.9637         0.6299         0.7824         1.2149         0.8517        20.8774         2.3012         1.1563        76.6718     
 8394.5000         8.3794         8.4696         0.0287        79.1728        40.7645        40.1018         0.6610         0.7587         1.2575         0.8201        20.7370         2.3059         1.1667        76.7446     
 8395.0000         8.3896         8.4703         0.0293        79.3228        39.6926        40.3500         0.6948         0.7691         1.4314         0.8265        20.5248         2.3029         1.1582        76.8174     
 8395.5000         8.3961         8.4710         0.0338        79.4754        41.2726        40.6855         0.7287         0.7760         1.3944         0.8443        20.6223         2.3068         1.1369        76.8903     
 8396.0000         8.3942         8.4717         0.0338        79.6926        42.6198        41.1975         0.7624         0.7644         1.2854         0.8404        20.6864         2.3108         1.1491        76.9632     
 8396.5000         8.3829         8.4723         0.0289        79.7164        44.5170        41.8407         0.8000         0.7449         1.1880         0.8136        20.4916         2.3057         1.1877        77.0375     
 8397.0000         8.3669         8.4730         0.0247        78.9277        46.7054        43.2721         0.8861         0.7253         1.2228         0.8067        20.1122         2.2994         1.2591        77.1118     
 8397.5000         8.3638         8.4737         0.0240        78.1390        48.2553        46.3617         0.9721         0.7563         1.5367         0.8316        19.8085         2.3078         1.3305        77.1862     
 8398.0000         8.3724         8.4744         0.0204        77.3490        50.4394        50.2695         1.0735         0.7656         1.4727         0.8603        20.0079         2.3258         1.4020        77.2606     
 8398.5000         8.3828         8.4751         0.0187        76.9570        51.9827        53.5799         1.2223         0.7621         1.4322         0.8676        20.4713         2.3350         1.4901        77.3349     
 8399.0000         8.3946         8.4758         0.0342        78.3985        54.0057        56.1821         1.3712         0.8217         1.4264         0.9303        20.3030         2.3372         1.5797        77.4092     
 8399.5000         8.4007         8.4765         0.0431        79.8399        55.3212        58.8736         1.5200         0.9285         1.6140         1.1781        19.3253         2.3398         1.7958        77.4836     
 8400.0000         8.4011         8.4781         0.0323        77.8074        57.1777        61.8240         1.5938         0.9454         1.8990         1.2575        18.2572         2.3417         2.0243        77.5580     
 8400.5000         8.3987         8.5000         0.0246        75.0957        61.0528        64.4095         1.6416         1.0535         2.7923         1.2145        17.4768         2.3607         2.2524        77.6323     
 8401.0000         8.3920         8.5889         0.0183        72.3828        64.3816        67.2541         1.6656         1.5533        20.2664         1.6536        17.8314         2.3946         2.4805        77.7067     
 8401.5000         8.3893         8.5560         0.0124        69.6700        68.9910        70.7307         1.6161         1.7341         8.0919         1.9832        19.3202         2.4106         2.2948        77.7810     
 8402.0000         8.4030         8.4761         0.0152        72.2008        71.5197        73.3854         1.5477         1.2767         1.9461         1.6581        20.8694         2.4000         2.0767        77.8554     
 8402.5000         8.4296         8.5001         0.0295        77.3222        74.0474        74.0047         1.4527         0.9838         2.0382         1.1769        22.5031         2.3710         1.8590        77.9298     
 8403.0000         8.4528         8.5007         0.0416        82.4436        75.8479        74.0712         1.3577         1.0186         1.7466         1.0554        23.7704         2.3515         1.6412        78.3606     
 8403.5000         8.4720         8.5400         0.0477        83.9720        78.5635        75.7166         1.2627         0.9911         1.5231         1.0326        24.6182         2.3456         1.5954        78.9621     
 8404.0000         8.4886         8.6006         0.0518        84.8229        81.2062        78.2269         1.1676         0.9537         1.5255         0.9722        25.1181         2.3442         1.6173        79.5636     
 8404.5000         8.5029         8.6012         0.0484        85.4848        82.4966        81.4256         1.1701         1.0342         1.6905         0.9802        25.0361         2.3459         1.6539        80.1661     
 8405.0000         8.5219         8.6223         0.0464        86.0740        84.1414        85.2625         1.1823         1.2459         2.0938         1.0983        24.7847         2.3458         1.6905        80.7676     
 8405.5000         8.5452         8.6737         0.0512        86.7160        85.5690        86.7549         1.2087         1.2566         1.7797         1.1589        24.1515         2.3502         1.7068        81.3691     
 8406.0000         8.5652         8.7622         0.0588        86.6990        87.5400        86.1846         1.2782         0.9784         1.7125         1.0041        23.3920         2.3634         1.7216        81.9699     
 8406.5000         8.5791         8.7411         0.0680        86.0577        88.1218        88.0616         1.3495         0.7987         2.2342         0.8552        23.3097         2.3839         1.7363        82.5415     
 8407.0000         8.6313         8.8453         0.0705        85.9115        88.7561        91.2669         1.4219         0.6664         2.1919         0.8121        23.8874         2.4023         1.7510        83.1121     
 8407.5000         8.7452         8.9934         0.0700        86.6871        89.1163        92.7315         1.4943         0.6144         2.2270         0.7818        24.7654         2.4044         1.7667        83.6827     
 8408.0000         8.9173         9.2718         0.0843        87.4627        88.0642        91.7920         1.5667         0.6869         1.7804         0.7653        25.7441         2.4017         1.7832        84.2533     
 8408.5000         9.1931         9.7478         0.1106        88.2304        86.5871        91.8908         1.6400         0.8764         1.1452         0.8476        26.9325         2.4090         1.8174        84.8248     
 8409.0000         9.5191         9.9516         0.1441        88.5782        85.9066        94.0921         1.7202         1.1606         1.2279         0.9728        28.2299         2.4136         1.8633        85.3954     
 8409.5000         9.8456        10.3954         0.1619        86.8603        85.9495        95.2139         1.8004         0.9784         0.8879         0.7644        30.2903         2.4135         1.9092        85.9660     
 8410.0000        10.1718        10.5536         0.1601        86.9954        86.3757        94.8182         1.8805         0.5302         1.2949         0.5039        32.9038         2.4163         1.9737        86.5366     
 8410.5000        10.3675        10.6559         0.1708        88.8245        86.9880        94.7679         1.9607         0.5655         1.0255         0.4809        34.6775         2.4285         2.0502        87.1072     
