~Version Information Section
VERS.          2.0                                     : CWLS LOG ASCII Standard
WRAP.          NO                                      : One line per depth step
CREA.          03/06/17                                : LAS Creation Date
~Well Information Section
STRT.ft        491.0000                                : Start Depth
STOP.ft        9197.0000                               : Stop Depth
STEP.ft        0.5000                                  : Step
NULL.          -999.2500                               : Null Value
COMP.          TEXACO PRODUCTION SERVICES LTD.         : Company
WELL.          14/20-2                                 : Well
FLD .          MORAY FIRTH                             : Field
LOC .          NORTH SEA                               : Location
LOC1.          -                                       : Location (UTM)
CTRY.          UK                                      : Country
PROV.          UKCS                                    : Province
UWI .          859                                     : UWI Number
API .          -                                       : API Number
SECT.          -                                       : Section
TOWN.          -                                       : Township
RNGE.          -                                       : Range
PDAT.          MSL                                     : Perm Datum
EPD .ft        0.0                                       : Elevation
LMF .          KB                                      : Log Measured From
DMF .          KB                                      : Drill Measured From
APD .ft        82.0                                    : Above Perm Datum
EKB .ft        82.0                                    : Elev-Kelly Bushing
EDF .ft        81.0                                    : Elev-Drill Floor
EGL .ft        -426.0                                  : Elev-Ground Level (Water Depth)
TDD .ft        9200.0                                  : Total Depth (Driller)
TDL .ft        9197.0                                  : Total Depth (Logger)
SRVC.          SCHLUMBERGER                            : Service Company
LATI.          58 20 30.98" N                          : Latitude
LONG.          00 08 39.66" W                          : Longitude
DATE.          MAY-JUN-1975                            : Logging Date
PROJ.          UKCS                                    : Project
SET .          COMP_WIRE                               : Set
~Curve Information Section
DEPTH.ft                                               : Depth Curve
CALD.in                                                : Caliper (from FDC/CNL/GR)
MCAL.in                                                : Caliper (from MLL/ML)
DRHO.g/cc                                              : Delta Rho
DT.us/ft                                               : Delta-T
GR.gAPI                                                : Gamma Ray (from ISF/BHC/GR)
GRD.gAPI                                               : Gamma Ray (from FDC/CNL/GR)
ILD.Ohmm                                               : Deep Induction Standard Processed Resistivity
MINV.Ohmm                                              : Micro-Inverse Resistivity
MLL.Ohmm                                               : Mll Resistivity
MNOR.Ohmm                                              : Micro-Normal Resistivity
NPHI.LPU                                               : Neutron Porosity
RHOB.g/cc                                              : Bulk Density
SFLU.Ohmm                                              : SFL Resistivity (Unaveraged)
SP.mV                                                  : Spontaneous Potential
~ASCII Log Data Section
# ...
 9185.0000         9.3148         8.6994         0.0784      -999.2500        49.4870        40.4422        10.0275         2.6618        11.4427         2.4735        35.3299         2.1968        11.5715        90.5166     
 9185.5000         9.8776         8.7113         0.0409      -999.2500        49.7173         4.3789         9.4357         3.6372         5.6485         2.9818        35.9762         2.3063        12.5082        90.3884     
 9186.0000         9.7179         8.7251         0.0112      -999.2500        49.7060        -0.6794         8.8897         3.4014         3.4227         2.9693        37.1800         2.4963        13.4433        90.1379     
 9186.5000         9.0710         8.7603         0.0198      -999.2500        49.3053      -999.2500         8.7619         2.3987         5.3441         2.7024        37.8126         2.5905        14.1596        89.8874     
 9187.0000         8.6538         8.8363         0.0465      -999.2500        49.0203      -999.2500         9.4182         1.9336         5.6150         2.7695        37.8916         2.6019        13.9172        89.6369     
 9187.5000         8.6948         8.8904         0.0689      -999.2500        47.1864      -999.2500        10.0745         1.6882         5.1735         3.0108        38.2478         2.5971        13.6748        89.3864     
 9188.0000         8.8516         8.8971         0.0738      -999.2500        46.5654      -999.2500         9.5856         1.1646         7.5097         2.3120        38.2589         2.5806        13.4321        89.1355     
 9188.5000         9.0583         8.7617         0.0728      -999.2500        47.2713      -999.2500         8.8897         1.0963        10.0307         1.8944        38.4186         2.5570        13.1897        88.8851     
 9189.0000         9.3654         8.6596         0.0928      -999.2500        47.5538      -999.2500         8.1939         0.9307        10.8907         1.7137        38.3711         2.5593      -999.2500        88.6346     
 9189.5000         9.1128         8.4958         0.0901      -999.2500        46.0283      -999.2500         7.4980         0.7031         9.2021         1.2408        38.9157         2.5504      -999.2500        88.3033     
 9190.0000         8.8290         8.2918         0.0649      -999.2500        47.2042      -999.2500      -999.2500         0.5009         8.0407         0.7353        39.9336         2.5289      -999.2500        87.7287     
 9190.5000         8.7546         7.9241         0.0419      -999.2500        48.9180      -999.2500      -999.2500         0.2905         3.9797         0.4990        39.6197         2.5232      -999.2500        87.1547     
 9191.0000         8.6359         7.7208         0.0425      -999.2500        51.3336      -999.2500      -999.2500         0.2280         2.7501         0.4709        38.2202         2.5354      -999.2500        86.5806     
 9191.5000         8.6870         7.6734         0.0621      -999.2500        53.0502      -999.2500      -999.2500         0.2481         2.6494         0.4747        35.9849         2.5545      -999.2500        86.0065     
 9192.0000         8.6602         7.5199         0.0815      -999.2500        52.6774      -999.2500      -999.2500         0.3491         1.8268         0.4890        33.6580         2.5534      -999.2500        85.4316     
 9192.5000         8.3280         7.2770         0.0709      -999.2500        51.3445      -999.2500      -999.2500         0.4202         1.0746         0.5229        30.3711         2.5289      -999.2500        84.8575     
 9193.0000         7.9975         7.0266         0.0453      -999.2500        49.4555      -999.2500      -999.2500         0.4846         0.7117         0.5783        24.4621         2.5069      -999.2500        84.2834     
 9193.5000         7.8484         6.7751         0.0531      -999.2500        47.5708      -999.2500      -999.2500         0.5151         0.5438         0.6378        15.4923         2.5252      -999.2500        83.7094     
 9194.0000         7.8033         6.5249         0.0883      -999.2500        46.2353      -999.2500      -999.2500         0.4390         0.4549         0.6641      -999.2500         2.5198      -999.2500        83.1353     
 9194.5000         7.9363         6.4001         0.1085      -999.2500        44.6008      -999.2500      -999.2500         0.4067         0.4025         0.6694      -999.2500         2.4657      -999.2500        82.5603     
 9195.0000         7.9612         6.4059         0.1038      -999.2500        45.7068      -999.2500      -999.2500         0.4264         0.3969         0.6581      -999.2500         2.4082      -999.2500        81.9863     
 9195.5000         7.8815      -999.2500      -999.2500      -999.2500        47.2648      -999.2500      -999.2500         0.4583      -999.2500         0.6445      -999.2500      -999.2500      -999.2500        81.4122     
 9196.0000         7.8080      -999.2500      -999.2500      -999.2500        48.3712      -999.2500      -999.2500         0.4687      -999.2500      -999.2500      -999.2500      -999.2500      -999.2500        80.8382     
 9196.5000         7.6894      -999.2500      -999.2500      -999.2500        49.4929      -999.2500      -999.2500         0.4463      -999.2500      -999.2500      -999.2500      -999.2500      -999.2500        80.2632     
 9197.0000         7.6289      -999.2500      -999.2500      -999.2500        48.1260      -999.2500      -999.2500         0.4221      -999.2500      -999.2500      -999.2500      -999.2500      -999.2500      -999.2500   
