~Version Information Section
VERS.          2.0                                     : CWLS LOG ASCII Standard
WRAP.          NO                                      : One line per depth step
CREA.          03/06/17                                : LAS Creation Date
~Well Information Section
STRT.ft        491.0000                                : Start Depth
STOP.ft        9197.0000                               : Stop Depth
STEP.ft        0.5000                                  : Step
NULL.          -999.2500                               : Null Value
COMP.          TEXACO PRODUCTION SERVICES LTD.         : Company
WELL.          14/20-2                                 : Well
FLD .          MORAY FIRTH                             : Field
LOC .          NORTH SEA                               : Location
LOC1.          -                                       : Location (UTM)
CTRY.          UK                                      : Country
PROV.          UKCS                                    : Province
UWI .          859                                     : UWI Number
API .          -                                       : API Number
SECT.          -                                       : Section
TOWN.          -                                       : Township
RNGE.          -                                       : Range
PDAT.          MSL                                     : Perm Datum
EPD .ft        0.0                                       : Elevation
LMF .          KB                                      : Log Measured From
DMF .          KB                                      : Drill Measured From
APD .ft        82.0                                    : Above Perm Datum
EKB .ft        82.0                                    : Elev-Kelly Bushing
EDF .ft        81.0                                    : Elev-Drill Floor
EGL .ft        -426.0                                  : Elev-Ground Level (Water Depth)
TDD .ft        9200.0                                  : Total Depth (Driller)
TDL .ft        9197.0                                  : Total Depth (Logger)
SRVC.          SCHLUMBERGER                            : Service Company
LATI.          58 20 30.98" N                          : Latitude
LONG.          00 08 39.66" W                          : Longitude
DATE.          MAY-JUN-1975                            : Logging Date
PROJ.          UKCS                                    : Project
SET .          COMP_WIRE                               : Set
~Curve Information Section
DEPTH.ft                                               : Depth Curve
CALD.in                                                : Caliper (from FDC/CNL/GR)
MCAL.in                                                : Caliper (from MLL/ML)
DRHO.g/cc                                              : Delta Rho
DT.us/ft                                               : Delta-T
GR.gAPI                                                : Gamma Ray (from ISF/BHC/GR)
GRD.gAPI                                               : Gamma Ray (from FDC/CNL/GR)
ILD.Ohmm                                               : Deep Induction Standard Processed Resistivity
MINV.Ohmm                                              : Micro-Inverse Resistivity
MLL.Ohmm                                               : Mll Resistivity
MNOR.Ohmm                                              : Micro-Normal Resistivity
NPHI.LPU                                               : Neutron Porosity
RHOB.g/cc                                              : Bulk Density
SFLU.Ohmm                                              : SFL Resistivity (Unaveraged)
SP.mV                                                  : Spontaneous Potential
~ASCII Log Data Section
# ...
 8843.0000         8.9986         9.1271         0.0045        49.6528        15.1511        20.0719      1839.4241        24.6762       462.3806        27.5264         0.7139         2.9428       105.0817       -54.0598     
 8843.5000         9.0009         9.1270         0.0083        49.5265        16.5773        21.4215      1839.8047        26.6881       413.4248        25.9731         0.7628         2.9475       103.7053       -54.5857     
 8844.0000         9.0032         9.1269         0.0155        49.4178        17.6599        22.0035      1844.8491        28.7655       313.5265        32.4970         0.8020         2.9498       102.3290       -55.1248     
 8844.5000         9.0055         9.1269         0.0290        49.3092        19.1324        20.7956      1860.6274        23.8692       833.3262        37.8233         0.8244         2.9639       103.3765       -55.7106     
 8845.0000         9.0078         9.1268         0.0438        49.2004        19.3018        19.2084      1876.4309        24.4282       780.7657        43.3612         0.8439         2.9630       104.5099       -56.2974     
 8845.5000         9.0100         9.1268         0.0258        49.0917        18.8772        17.7788      1892.2092        32.3063       629.8439        47.3190         0.6675         2.9460       105.6416       -56.8832     
 8846.0000         9.0123         9.1267         0.0074        48.9830        17.3698        17.1737      1907.9875        33.3576       633.0762        46.1610         0.4575         2.9504       106.7733       -57.4690     
 8846.5000         9.0146         9.1266         0.0025        48.8744        16.1606        17.1004      1923.7656        36.0293       607.4225        45.4196         0.3464         2.9501       107.9051       -58.0548     
 8847.0000         9.0169         9.1347         0.0034        48.7657        14.4388        17.0149      1939.5693        42.2917       646.4666        49.3807         0.4160         2.9499       109.0386       -58.6416     
 8847.5000         9.0191         9.1453         0.0061        48.7626        14.1712        16.7072      1947.4199        45.4434       594.5565        49.8106         0.5241         2.9590       110.1704       -59.2274     
 8848.0000         9.0214         9.1465         0.0063        48.7636        14.4145        16.1102      1946.9788        49.5404       852.1631        48.2700         0.6139         2.9499       111.3021       -59.8133     
 8848.5000         9.0237         9.1464         0.0043        48.7646        14.7761        15.6879      1946.5378        50.0540       823.7015        45.9968         0.6984         2.9326       110.7888       -60.3991     
 8849.0000         9.0260         9.1511         0.0026        48.7656        15.4381        15.2711      1946.0967        50.0545       774.6415        48.3441         0.7576         2.9309       110.2542       -60.9849     
 8849.5000         9.0282         9.1622         0.0015        48.7666        16.0274        14.8985      1945.6550        50.0549       887.6538        45.9128         0.7882         2.9317       109.7188       -61.5717     
 8850.0000         9.0305         9.1933         0.0048        48.7675        15.8209        14.8113      1945.2139        50.0554       717.1587        42.3757         0.8037         2.9261       108.5664       -62.1575     
 8850.5000         9.0328         9.2461         0.0052        48.7685        15.3767        14.9929      1944.7729        50.0558       961.7377        42.9262         0.8045         2.9245       106.1235       -62.7434     
 8851.0000         9.0351         9.2738         0.0029        48.7695        15.0717        15.3546      1944.3318        50.0563      1355.3701        49.0312         0.6695         2.9186       105.1832       -63.3292     
 8851.5000         9.0374         9.2599         0.0013        48.7705        14.6731        15.9314      1943.8901        50.0537      1158.9395        50.0092         0.4014         2.9119       107.4111       -63.9160     
 8852.0000         9.0396         9.2441         0.0024        48.7714        14.2689        17.0349      1943.4490        50.0350       856.1909        49.6531         0.2295         2.9195       109.1987       -64.5018     
 8852.5000         9.0419         9.2339         0.0044        48.7724        13.9185        17.7640      1943.0081        50.0091       792.3397        46.4289         0.1548         2.9378       110.9835       -65.0876     
 8853.0000         9.0442         9.2270         0.0064        48.7734        13.7940        16.4462      1942.5669        49.9826      1259.3970        40.1691         0.1258         2.9587       112.7682       -65.6734     
 8853.5000         9.0465         9.2259         0.0084        48.7744        14.4080        14.7314      1942.1252        49.9562      1085.8877        38.3143         0.1182         2.9672       114.5558       -66.2602     
 8854.0000         9.0487         9.2177         0.0108        48.7753        13.5944        13.8414      1941.6841        49.9297      1193.1011        38.5178         0.1140         2.9632       116.3406       -66.8460     
 8854.5000         9.0510         9.2128         0.0138        48.7960        12.7567        13.2140      1941.2429        49.9032      1347.9270        41.5954         0.1099         2.9652       118.1254       -67.4319     
 8855.0000         9.0533         9.2234         0.0151        48.8263        12.1816        12.8502      1940.8022        49.8767      1093.0696        44.5909         0.1101         2.9824       119.9101       -67.9686     
 8855.5000         9.0556         9.2257         0.0130        48.8566        12.8243        13.0238      1940.3606        49.8502      1236.0940        46.3948         0.1304         2.9907       119.9814       -67.8573     
 8856.0000         9.0578         9.2536         0.0083        48.8870        13.2840        13.6391      1939.9192        49.8238      1173.1777        47.4839         0.1651         2.9798       119.7495       -67.7448     
 8856.5000         9.0601         9.2581         0.0078        48.9174        13.9306        14.5225      1939.4780        49.7972      1151.3821        48.0738         0.2112         2.9722       119.5174       -67.6324     
 8857.0000         9.0624         9.2396         0.0135        48.9477        14.3898        15.4702      1939.0371        48.3542       779.3010        48.8590         0.2873         2.9727       119.2854       -67.4464     
 8857.5000         9.0645         9.2294         0.0166        48.9780        15.0370        15.7946      1938.5959        38.1145      1130.8718        47.1827         0.3794         2.9722       120.0483       -67.1546     
 8858.0000         9.0656         9.2319         0.0132        49.0084        15.4973        15.3361      1938.1543        24.8049      1433.8547        38.2868         0.4673         2.9632       121.7250       -66.8622     
 8858.5000         9.0660         9.2348         0.0078        49.0387        16.1027        14.7341      1937.7131        19.4785      1471.0376        27.9402         0.5530         2.9545       123.4004       -66.5703     
 8859.0000         9.0665         9.2353         0.0046        49.0691        14.7780        14.6730      1937.2722        27.4382      1443.1965        22.8283         0.6507         2.9382       125.0759       -66.1229     
 8859.5000         9.0669         9.2352         0.0055        49.0994        13.6820        14.9832      1936.8311        45.4483      1415.2039        26.5099         0.7304         2.9206       126.7513       -65.5471     
 8860.0000         9.0673         9.2351         0.0090        49.1298        12.6605        15.2259      1936.3894        49.6451      1414.9060        24.5659         0.6988         2.9376       126.8182       -65.2315     
 8860.5000         9.0677         9.2351         0.0123        49.1601        12.4391        15.3437      1935.9482        49.7293      1420.9363        29.0985         0.5873         2.9640       126.2035       -64.4814     
