~Version Information Section
VERS.          2.0                                     : CWLS LOG ASCII Standard
WRAP.          NO                                      : One line per depth step
CREA.          03/06/17                                : LAS Creation Date
~Well Information Section
STRT.ft        491.0000                                : Start Depth
STOP.ft        9197.0000                               : Stop Depth
STEP.ft        0.5000                                  : Step
NULL.          -999.2500                               : Null Value
COMP.          TEXACO PRODUCTION SERVICES LTD.         : Company
WELL.          14/20-2                                 : Well
FLD .          MORAY FIRTH                             : Field
LOC .          NORTH SEA                               : Location
LOC1.          -                                       : Location (UTM)
CTRY.          UK                                      : Country
PROV.          UKCS                                    : Province
UWI .          859                                     : UWI Number
API .          -                                       : API Number
SECT.          -                                       : Section
TOWN.          -                                       : Township
RNGE.          -                                       : Range
PDAT.          MSL                                     : Perm Datum
EPD .ft        0.0                                       : Elevation
LMF .          KB                                      : Log Measured From
DMF .          KB                                      : Drill Measured From
APD .ft        82.0                                    : Above Perm Datum
EKB .ft        82.0                                    : Elev-Kelly Bushing
EDF .ft        81.0                                    : Elev-Drill Floor
EGL .ft        -426.0                                  : Elev-Ground Level (Water Depth)
TDD .ft        9200.0                                  : Total Depth (Driller)
TDL .ft        9197.0                                  : Total Depth (Logger)
SRVC.          SCHLUMBERGER                            : Service Company
LATI.          58 20 30.98" N                          : Latitude
LONG.          00 08 39.66" W                          : Longitude
DATE.          MAY-JUN-1975                            : Logging Date
PROJ.          UKCS                                    : Project
SET .          COMP_WIRE                               : Set
~Curve Information Section
DEPTH.ft                                               : Depth Curve
CALD.in                                                : Caliper (from FDC/CNL/GR)
MCAL.in                                                : Caliper (from MLL/ML)
DRHO.g/cc                                              : Delta Rho
DT.us/ft                                               : Delta-T
GR.gAPI                                                : Gamma Ray (from ISF/BHC/GR)
GRD.gAPI                                               : Gamma Ray (from FDC/CNL/GR)
ILD.Ohmm                                               : Deep Induction Standard Processed Resistivity
MINV.Ohmm                                              : Micro-Inverse Resistivity
MLL.Ohmm                                               : Mll Resistivity
MNOR.Ohmm                                              : Micro-Normal Resistivity
NPHI.LPU                                               : Neutron Porosity
RHOB.g/cc                                              : Bulk Density
SFLU.Ohmm                                              : SFL Resistivity (Unaveraged)
SP.mV                                                  : Spontaneous Potential
~ASCII Log Data Section
# ...
 7493.0000      -999.2500         9.9763      -999.2500        77.3051        19.1568      -999.2500         3.6087      -999.2500      -999.2500      -999.2500      -999.2500      -999.2500         3.7071        79.1048     
 7493.5000      -999.2500         9.9760      -999.2500        78.4901        19.7480      -999.2500         3.7788      -999.2500      -999.2500      -999.2500      -999.2500      -999.2500         4.6883        79.1323     
 7494.0000      -999.2500         9.9757      -999.2500        75.8005        19.6203      -999.2500         4.0366      -999.2500      -999.2500      -999.2500      -999.2500      -999.2500         4.8155        79.1343     
 7494.5000      -999.2500         9.9754      -999.2500        71.7003        19.4742      -999.2500         4.2945      -999.2500      -999.2500      -999.2500      -999.2500      -999.2500         4.8032        79.1363     
 7495.0000      -999.2500         9.9751      -999.2500        67.5935        19.6289      -999.2500         4.5123      -999.2500      -999.2500      -999.2500      -999.2500      -999.2500         4.9575        79.1383     
 7495.5000      -999.2500         9.9748      -999.2500        68.8587        19.9301      -999.2500         4.7291      -999.2500      -999.2500      -999.2500      -999.2500      -999.2500         5.2689        79.1403     
 7496.0000      -999.2500         9.9745      -999.2500        69.4023        19.6426      -999.2500         4.8810      -999.2500      -999.2500      -999.2500      -999.2500      -999.2500         5.4324        79.1423     
 7496.5000      -999.2500         9.9742      -999.2500        68.8582        19.0142      -999.2500         4.9985      -999.2500      -999.2500      -999.2500      -999.2500      -999.2500         5.5955        79.5626     
 7497.0000      -999.2500         9.9739      -999.2500        68.2276        18.3641      -999.2500         5.1160      -999.2500      -999.2500      -999.2500      -999.2500      -999.2500         5.6674        79.7472     
 7497.5000      -999.2500         9.9736      -999.2500        67.5426        17.8999      -999.2500         5.2338      -999.2500      -999.2500      -999.2500      -999.2500      -999.2500         5.7203        79.9815     
 7498.0000      -999.2500         9.9733      -999.2500        67.2019        18.0706      -999.2500         5.3513      -999.2500      -999.2500      -999.2500      -999.2500      -999.2500         5.9992        80.4788     
 7498.5000      -999.2500         9.9725      -999.2500        67.7424        18.2664      -999.2500         5.4688      -999.2500      -999.2500      -999.2500      -999.2500      -999.2500         6.0927        79.9282     
 7499.0000      -999.2500         9.6845      -999.2500        67.7372        18.0038      -999.2500         5.4103      -999.2500      -999.2500      -999.2500      -999.2500      -999.2500         6.1356        80.0808     
 7499.5000      -999.2500         8.9911         0.0279        67.0329        17.2489      -999.2500         5.3477      -999.2500      -999.2500      -999.2500        12.1950         2.6535         6.1474        80.3587     
 7500.0000      -999.2500         8.9705         0.0195        66.3286        16.8919      -999.2500         5.2851      -999.2500         7.7712      -999.2500        12.3651         2.6186         5.9817        80.3607     
 7500.5000      -999.2500         8.9642         0.0101        66.8908        16.7671        17.7899         5.2226      -999.2500         6.5868      -999.2500        13.0019         2.5797         5.8131        80.3718     
 7501.0000      -999.2500         8.9578         0.0022        68.2940        16.5911        16.5182         5.1673      -999.2500         8.1636      -999.2500        13.6588         2.5609         5.6411        80.5648     
 7501.5000         9.1177         8.9542         0.0018        68.5696        16.4823        17.2329         5.1298      -999.2500         6.2441         3.5105        14.3775         2.5475         5.7806        80.4597     
 7502.0000         9.1169         8.9584         0.0068        68.4774        16.6993        17.4147         5.0925         4.9025         4.6279         4.2934        14.9166         2.5452         6.1074        79.9785     
 7502.5000         9.1161         8.9625         0.0118        67.9524        15.9832        15.6481         5.0551         5.0884        11.7684         4.9658        14.5930         2.5538         5.9303        80.5711     
 7503.0000         9.1153         8.9667         0.0145        67.1148        14.8365        13.9483         5.0177         5.0910         8.3287         4.9815        13.9810         2.5640         5.6219        80.5735     
 7503.5000         9.1145         8.9708         0.0116        68.2050        13.3145        14.1001         4.9803         4.9652         7.6175         4.9584        13.9186         2.5674         5.3135        80.7752     
 7504.0000         9.1137         8.9750         0.0059        69.4867        13.4263        14.8370         4.9391         4.4965         4.8700         3.4972        13.7700         2.5683         5.1441        80.6788     
 7504.5000         9.1129         8.9792         0.0050        69.0948        14.3599        15.0103         4.8601         3.0761         5.0052         4.2262        13.3130         2.5609         5.3667        80.7796     
 7505.0000         9.1121         8.9833         0.0136        68.0869        15.3802        15.4174         4.7811         4.6592         9.5950         4.8649        13.2355         2.5538         5.5893        80.8827     
 7505.5000         9.1113         8.9875         0.0164        67.0791        16.1067        15.6344         4.7022         4.9819         8.0980         4.6401        14.0500         2.5632         5.7244        80.9780     
 7506.0000         9.1105         8.9916         0.0282        67.8815        17.0850        15.4657         4.6231         4.6313         7.1983         3.7969        15.4107         2.5594         5.0353        80.9860     
 7506.5000         9.1097         8.9958         0.0176        70.1040        17.5879        15.1697         4.5441         3.3104         3.9265         4.1648        15.9888         2.5500         4.9045        81.1797     
 7507.0000         9.1089         8.9999         0.0076        72.3264        18.8036        15.4356         4.4543         3.0572         5.2409         4.8738        15.8490         2.5451         4.9678        81.1904     
 7507.5000         9.1081         9.0041         0.0290        71.6134        19.7680        16.0881         4.1923         4.0367         5.6371         4.3327        15.5614         2.5605         5.0586        81.1924     
 7508.0000         9.1073         9.0082         0.0192        70.4561        20.3623        16.7407         3.9299         4.8820         5.2269         4.9029        15.3497         2.5692         5.1704        81.1944     
 7508.5000         9.1065         9.0085         0.0064        69.2998        20.4751        17.0386         3.6679         4.9930         9.6147         4.9871        15.5048         2.5567         5.2821        81.1964     
 7509.0000         9.1057         9.0087         0.0042        68.1436        20.4769        17.2981         3.4059         4.9969         9.5357         4.9807        16.5335         2.5478         4.8565        81.1984     
 7509.5000         9.1049         9.0088         0.0250        67.1644        22.7898        18.0767         3.1441         4.9922        10.2050         4.9804        18.4955         2.5420         4.0230        81.2004     
 7510.0000         9.1041         9.0090         0.0432        71.2709        24.0681        20.3899         2.9184         4.0472         4.8255         4.8590        20.8506         2.5439         3.5045        81.2024     
 7510.5000         9.1033         9.0091         0.0534        75.3839        26.4302        23.6457         2.8136         1.8588         2.5774         3.0180        22.5896         2.5411         2.9852        81.2044     
