~Version Information Section
VERS.          2.0                                     : CWLS LOG ASCII Standard
WRAP.          NO                                      : One line per depth step
CREA.          03/06/17                                : LAS Creation Date
~Well Information Section
STRT.ft        491.0000                                : Start Depth
STOP.ft        9197.0000                               : Stop Depth
STEP.ft        0.5000                                  : Step
NULL.          -999.2500                               : Null Value
COMP.          TEXACO PRODUCTION SERVICES LTD.         : Company
WELL.          14/20-2                                 : Well
FLD .          MORAY FIRTH                             : Field
LOC .          NORTH SEA                               : Location
LOC1.          -                                       : Location (UTM)
CTRY.          UK                                      : Country
PROV.          UKCS                                    : Province
UWI .          859                                     : UWI Number
API .          -                                       : API Number
SECT.          -                                       : Section
TOWN.          -                                       : Township
RNGE.          -                                       : Range
PDAT.          MSL                                     : Perm Datum
EPD .ft        0.0                                       : Elevation
LMF .          KB                                      : Log Measured From
DMF .          KB                                      : Drill Measured From
APD .ft        82.0                                    : Above Perm Datum
EKB .ft        82.0                                    : Elev-Kelly Bushing
EDF .ft        81.0                                    : Elev-Drill Floor
EGL .ft        -426.0                                  : Elev-Ground Level (Water Depth)
TDD .ft        9200.0                                  : Total Depth (Driller)
TDL .ft        9197.0                                  : Total Depth (Logger)
SRVC.          SCHLUMBERGER                            : Service Company
LATI.          58 20 30.98" N                          : Latitude
LONG.          00 08 39.66" W                          : Longitude
DATE.          MAY-JUN-1975                            : Logging Date
PROJ.          UKCS                                    : Project
SET .          COMP_WIRE                               : Set
~Curve Information Section
DEPTH.ft                                               : Depth Curve
CALD.in                                                : Caliper (from FDC/CNL/GR)
MCAL.in                                                : Caliper (from MLL/ML)
DRHO.g/cc                                              : Delta Rho
DT.us/ft                                               : Delta-T
GR.gAPI                                                : Gamma Ray (from ISF/BHC/GR)
GRD.gAPI                                               : Gamma Ray (from FDC/CNL/GR)
ILD.Ohmm                                               : Deep Induction Standard Processed Resistivity
MINV.Ohmm                                              : Micro-Inverse Resistivity
MLL.Ohmm                                               : Mll Resistivity
MNOR.Ohmm                                              : Micro-Normal Resistivity
NPHI.LPU                                               : Neutron Porosity
RHOB.g/cc                                              : Bulk Density
SFLU.Ohmm                                              : SFL Resistivity (Unaveraged)
SP.mV                                                  : Spontaneous Potential
~ASCII Log Data Section
# ...
 8735.0000         8.7594         8.9840         0.0049        50.1643        14.1688        13.2366       879.4349        33.3506      1473.9954        49.3039         0.6445         2.9431       146.0807        11.6308     
 8735.5000         8.7594         8.9839         0.0019        50.3371        15.4203        14.4487       526.3535        40.6422      1493.3298        45.6078         0.7649         2.9360       126.1429        14.2379     
 8736.0000         8.7594         8.9837        -0.0005        50.5098        16.3378        16.0053       234.4955        42.5368      1450.9731        36.1149         1.1340         2.9356       104.4478        16.8450     
 8736.5000         8.7593         8.9835        -0.0031        50.8113        21.2944        20.0587       175.2893        34.6110       888.9419        27.6732         1.6929         2.9208        82.7180        19.4563     
 8737.0000         8.7593         8.9834        -0.0070        51.4103        26.9286        26.9142       116.5509        26.3735       350.9479        21.3961         3.1777         2.9000        64.5205        22.0635     
 8737.5000         8.7593         8.9832        -0.0087        52.0093        34.8760        35.2699        87.6700        17.8972      1298.7932        15.8850         5.8866         2.8823        51.5903        24.6706     
 8738.0000         8.7593         8.9830        -0.0019        52.7468        41.2375        44.9388        79.1500        10.2498        22.6809         8.3832         8.7359         2.8661        38.6601        27.2777     
 8738.5000         8.7592         8.9828         0.0073        53.8049        54.9545        53.2089        70.6164         6.1262        17.0237         4.5512        11.4242         2.8505        31.2386        29.8890     
 8739.0000         8.7592         8.9827         0.0145        54.8617        65.2197        59.9455        64.5461        10.3435        20.6487         7.9683        13.4850         2.8467        30.3493        31.5226     
 8739.5000         8.7592         8.9825         0.0180        55.9186        70.4481        64.8698        62.4220         7.8199        22.7117         7.0916        13.8497         2.8404        31.9650        33.1289     
 8740.0000         8.7591         8.9823         0.0131        56.9754        68.0661        67.4360        60.8382         4.6537        15.8995         3.8319        12.9863         2.8285        33.1690        34.7353     
 8740.5000         8.7591         8.9822         0.0180        58.0323        65.7398        65.9647        61.3490         8.4323        21.5495         6.8933        11.8784         2.8187        31.8309        36.3416     
 8741.0000         8.7591         8.9874         0.0326        59.0909        62.0307        62.8330        61.8639        12.3587        60.9056         9.0531        10.5521         2.8217        30.4867        37.9505     
 8741.5000         8.7692         9.0331         0.0392        59.3167        59.3927        59.5556        62.3781        14.4532       334.7770        10.7177         9.1946         2.8205        30.9369        39.5569     
 8742.0000         8.7820         9.0418         0.0191        58.6449        55.6492        55.8730        62.8922        13.0077       451.6301        11.1950         8.2329         2.8108        31.4681        41.1632     
 8742.5000         8.7948         9.0416        -0.0043        57.9731        52.2568        52.7869        57.6761        12.3127        85.3056        11.0103         7.3292         2.8416        29.2582        42.7696     
 8743.0000         8.8077         9.0415         0.0077        57.4357        50.0174        51.4761        49.9865        12.6463        39.2405        10.6761         6.4336         2.8336        26.3179        44.3785     
 8743.5000         8.8198         9.0450         0.0210        57.0517        50.2397        52.6312        42.8008        12.9952        42.1162        10.3712         6.1572         2.8082        23.3811        45.9848     
 8744.0000         8.8320         9.0796         0.0208        56.6679        52.8306        55.5530        36.1236        11.3707        38.7335         9.7886         6.4486         2.7706        20.7914        47.5911     
 8744.5000         8.8442         9.1484         0.0198        56.4415        56.4944        59.3886        30.0335         9.3976        17.3803         8.5181         6.9476         2.7232        18.7008        49.1975     
 8745.0000         8.8564         9.1850         0.0130        56.5975        59.0946        63.2507        28.6649         7.1434         9.4674         6.0080         8.0202         2.7009        16.6068        50.8064     
 8745.5000         8.8686         9.2059         0.0245        56.7540        62.6938        66.0692        27.3061         4.3475         5.8282         3.8472         9.1320         2.7073        14.5648        52.4128     
 8746.0000         8.8808         9.1602         0.0317        58.6133        63.4567        67.8055        25.9473         4.2848         6.9871         3.8382        10.3526         2.7057        14.3683        52.6218     
 8746.5000         8.8930         9.0704         0.0217        60.9340        64.5232        67.0803        24.5884         6.9672         9.7196         4.8324        12.3896         2.6792        14.1968        52.8035     
 8747.0000         8.9052         9.0684         0.0161        63.2546        65.2212        64.5468        23.3049         6.8380        10.6946         5.1557        14.2448         2.6722        15.2024        52.9852     
 8747.5000         8.9174         9.0586         0.0195        65.5717        63.5800        60.9890        23.0129         7.7498        39.8546         5.8637        15.2493         2.6789        16.2115        53.1671     
 8748.0000         8.9296         9.0561         0.0272        63.3755        56.5639        56.8553        22.7230        10.5571       146.8974         8.2000        15.7028         2.6976        17.2189        53.3488     
 8748.5000         8.9418         9.0701         0.0296        61.0833        50.6803        52.4743        23.6477        13.1054       130.9604        10.9159        14.2173         2.7178        17.8140        53.5302     
 8749.0000         8.9540         9.1015         0.0150        58.7911        47.0300        47.1583        24.7136        12.5987        50.7319        10.3611        12.8946         2.7154        16.7793        53.5257     
 8749.5000         8.9569         9.1892         0.0117        56.4953        44.2978        43.8687        25.7812        10.1748        13.9796         8.2840        11.7675         2.7201        15.7429        53.0909     
 8750.0000         8.9481         9.2213         0.0234        58.4704        42.5141        41.2925        26.8472         8.5326        22.4119         6.4544        11.6429         2.7403        16.4859        52.6561     
 8750.5000         8.9292         9.1799         0.0136        60.7301        41.3786        39.1381        27.0814         6.8768        53.4184         5.7394        12.0936         2.7730        18.0613        52.2213     
 8751.0000         8.9084         9.1472         0.0017        62.9897        40.6548        37.4096        26.6976         7.3962        41.5895         5.5819        11.8187         2.8026        19.3948        51.7864     
 8751.5000         8.8949         9.1248        -0.0027        63.9761        39.6313        36.7631        26.3132         8.9359        58.5142         7.4610        11.1708         2.8253        20.3150        51.3509     
 8752.0000         8.8771         9.1261         0.0000        61.9269        38.4972        36.6953        26.7628         9.1385       155.1510         8.2888        10.6705         2.8317        21.2331        50.9161     
 8752.5000         8.8555         9.1385        -0.0015        59.8728        37.6760        36.2363        28.5079        15.4861       195.6946        10.1943        10.2123         2.8078        22.1511        50.4813     
