~Version Information Section
VERS.          2.0                                     : CWLS LOG ASCII Standard
WRAP.          NO                                      : One line per depth step
CREA.          03/06/17                                : LAS Creation Date
~Well Information Section
STRT.ft        491.0000                                : Start Depth
STOP.ft        9197.0000                               : Stop Depth
STEP.ft        0.5000                                  : Step
NULL.          -999.2500                               : Null Value
COMP.          TEXACO PRODUCTION SERVICES LTD.         : Company
WELL.          14/20-2                                 : Well
FLD .          MORAY FIRTH                             : Field
LOC .          NORTH SEA                               : Location
LOC1.          -                                       : Location (UTM)
CTRY.          UK                                      : Country
PROV.          UKCS                                    : Province
UWI .          859                                     : UWI Number
API .          -                                       : API Number
SECT.          -                                       : Section
TOWN.          -                                       : Township
RNGE.          -                                       : Range
PDAT.          MSL                                     : Perm Datum
EPD .ft        0.0                                       : Elevation
LMF .          KB                                      : Log Measured From
DMF .          KB                                      : Drill Measured From
APD .ft        82.0                                    : Above Perm Datum
EKB .ft        82.0                                    : Elev-Kelly Bushing
EDF .ft        81.0                                    : Elev-Drill Floor
EGL .ft        -426.0                                  : Elev-Ground Level (Water Depth)
TDD .ft        9200.0                                  : Total Depth (Driller)
TDL .ft        9197.0                                  : Total Depth (Logger)
SRVC.          SCHLUMBERGER                            : Service Company
LATI.          58 20 30.98" N                          : Latitude
LONG.          00 08 39.66" W                          : Longitude
DATE.          MAY-JUN-1975                            : Logging Date
PROJ.          UKCS                                    : Project
SET .          COMP_WIRE                               : Set
~Curve Information Section
DEPTH.ft                                               : Depth Curve
CALD.in                                                : Caliper (from FDC/CNL/GR)
MCAL.in                                                : Caliper (from MLL/ML)
DRHO.g/cc                                              : Delta Rho
DT.us/ft                                               : Delta-T
GR.gAPI                                                : Gamma Ray (from ISF/BHC/GR)
GRD.gAPI                                               : Gamma Ray (from FDC/CNL/GR)
ILD.Ohmm                                               : Deep Induction Standard Processed Resistivity
MINV.Ohmm                                              : Micro-Inverse Resistivity
MLL.Ohmm                                               : Mll Resistivity
MNOR.Ohmm                                              : Micro-Normal Resistivity
NPHI.LPU                                               : Neutron Porosity
RHOB.g/cc                                              : Bulk Density
SFLU.Ohmm                                              : SFL Resistivity (Unaveraged)
SP.mV                                                  : Spontaneous Potential
~ASCII Log Data Section
# ...
 8501.0000        11.7308        11.7388         0.0471        91.4277        89.9789        87.8113         2.2788         0.3378         1.1896         0.3349        33.9529         2.4388         1.7475        85.3134     
 8501.5000        11.7113        11.7090         0.0493        89.0964        89.7186        87.9878         2.3118         0.4259         1.2522         0.4131        33.9148         2.4456         1.7654        85.4019     
 8502.0000        11.8458        11.7053         0.0602        87.7359        88.7993        86.2642         2.3062         0.4786         1.1282         0.4868        33.2029         2.4547         1.7783        85.4908     
 8502.5000        11.9519        11.6996         0.0801        86.4640        89.2060        82.8884         2.3006         0.4046         1.1935         0.4213        32.3646         2.4945         1.7911        85.5794     
 8503.0000        12.0824        11.6653         0.0970        85.8729        89.7104        82.9775         2.2949         0.4815         1.2205         0.5059        31.8896         2.4964         1.7987        85.6681     
 8503.5000        11.7247        11.6891         0.1118        87.3585        89.8533        84.5797         2.2892         0.4977         0.8194         0.6078        32.6501         2.4841         1.7499        85.6827     
 8504.0000        11.6829        11.7165         0.1231        90.0102        89.9565        86.4843         2.2835         0.3403         0.7384         0.4352        33.6871         2.4763         1.7010        85.6823     
 8504.5000        11.6793        11.6763         0.1167        92.6595        90.0855        88.8145         2.2779         0.3034         0.8940         0.4136        34.8340         2.4613         1.6522        85.6818     
 8505.0000        11.5910        11.6316         0.0858        93.9930        90.0860        89.2329         2.2722         0.3909         0.8645         0.4711        35.5082         2.4163         1.6033        85.6814     
 8505.5000        11.8871        11.6221         0.0684        94.9139        91.3099        88.5995         2.2607         0.4322         0.7626         0.5207        35.3646         2.3835         1.6397        85.6650     
 8506.0000        12.0509        11.6215         0.0926        94.0520        92.6625        91.1979         2.2454         0.3629         0.9681         0.4802        35.0834         2.3895         1.6840        85.5722     
 8506.5000        11.6976        11.6210         0.0824        91.9845        94.5839        93.9861         2.2300         0.3077         1.0907         0.4238        34.4861         2.3897         1.7283        85.4791     
 8507.0000        11.7016        11.6206         0.0550        90.3552        96.2549        93.2056         2.2147         0.3304         1.1942         0.3958        33.5830         2.3707         1.7575        85.3861     
 8507.5000        11.8281        11.6202         0.0718        88.8594        96.4585        89.3496         2.1994         0.3012         1.2704         0.3865        32.6144         2.4086         1.7669        85.2932     
 8508.0000        11.7349        11.7476         0.1096        87.5193        93.9061        86.8088         2.1841         0.2337         0.9708         0.3753        31.6058         2.4498         1.7762        85.2003     
 8508.5000        11.9364        11.8251         0.1363        87.5176        92.0613        85.9777         2.1688         0.2517         0.8658         0.3845        31.4917         2.4829         1.7855        85.1072     
 8509.0000        12.1336        11.8281         0.1555        87.5180        91.0124        85.3771         2.1535         0.2993         0.7120         0.4079        32.3192         2.4615         1.7272        85.0142     
 8509.5000        11.9490        11.8356         0.1388        88.1025        90.2839        84.9567         2.1422         0.3778         0.7649         0.4946        33.3054         2.4226         1.6644        84.9215     
 8510.0000        12.0572        11.8800         0.1488        89.4329        88.8743        84.4466         2.1335         0.3639         0.7174         0.5914        34.1066         2.4104         1.6310        84.9580     
 8510.5000        11.9465        11.8802         0.1378        91.2024        87.3026        86.1295         2.1247         0.4388         0.6116         0.5891        34.8036         2.4153         1.6360        85.1145     
 8511.0000        11.8107        11.7855         0.1315        91.4875        86.5264        88.6879         2.1159         0.3751         0.6893         0.5601        35.6199         2.4204         1.6410        85.2709     
 8511.5000        11.7716        11.6743         0.1296        90.8038        87.5768        89.4268         2.1102         0.5112         0.9100         0.5908        36.4729         2.4094         1.6416        85.4274     
 8512.0000        11.7943        11.6271         0.1389        90.5334        87.5708        87.7458         2.1256         0.5505         1.1600         0.6505        37.1860         2.4148         1.6366        85.5838     
 8512.5000        11.8477        11.6285         0.1246        91.3320        85.5874        86.7103         2.1411         0.5378         1.0023         0.6811        37.8099         2.4127         1.6315        85.7402     
 8513.0000        11.9046        11.6312         0.1055        92.1311        85.2903        86.5042         2.1565         0.6371         1.0364         0.7741        36.5865         2.4239         1.6241        85.8969     
 8513.5000        11.6705        11.6110         0.0925        92.3936        86.3436        85.8862         2.1711         0.6824         1.1171         0.8264        33.9858         2.4575         1.6137        86.0533     
 8514.0000        11.7398        11.5873         0.0929        91.4436        88.7762        84.6458         2.1836         0.4587         1.0349         0.6404        32.6334         2.4876         1.6032        86.0740     
 8514.5000        11.8364        11.6211         0.0715        90.4936        90.5038        83.8060         2.1962         0.4925         1.1345         0.5719        32.4844         2.4670         1.5928        86.0736     
 8515.0000        11.7762        11.7032         0.0551        89.5421        92.0912        83.6841         2.2088         0.4629         0.9414         0.5605        32.2087         2.4357         1.5824        86.0732     
 8515.5000        11.7514        11.7633         0.0731        88.5920        91.6063        83.3255         2.2213         0.3985         0.7284         0.5081        32.5861         2.4420         1.5720        86.0727     
 8516.0000        11.5941        11.7023         0.1001        87.6420        88.5018        82.3899         2.2346         0.3939         1.0291         0.4368        33.7919         2.4414         1.5803        85.9961     
 8516.5000        11.7239        11.6529         0.1403        88.5353        87.0435        82.5148         2.2485         0.4388         1.0979         0.4326        35.0908         2.4452         1.5937        85.8542     
 8517.0000        11.9823        11.6546         0.1428        91.6137        86.3206        84.6519         2.2625         0.4052         0.8723         0.4974        36.0758         2.4244         1.6072        85.7121     
 8517.5000        12.2539        11.6437         0.1175        94.0352        87.5891        85.5884         2.2764         0.4189         1.0126         0.5098        36.7944         2.3954         1.6207        85.5703     
 8518.0000        11.7916        11.7864         0.1203        91.9180        88.4895        84.4439         2.2903         0.4208         0.7312         0.4981        37.4733         2.3892         1.6341        85.4284     
 8518.5000        11.6078        11.8210         0.0903        89.8009        87.5002        82.7386         2.3042         0.3771         0.7758         0.4331        37.0765         2.3903         1.6414        85.2868     
