~Version Information Section
VERS.          2.0                                     : CWLS LOG ASCII Standard
WRAP.          NO                                      : One line per depth step
CREA.          03/06/17                                : LAS Creation Date
~Well Information Section
STRT.ft        491.0000                                : Start Depth
STOP.ft        9197.0000                               : Stop Depth
STEP.ft        0.5000                                  : Step
NULL.          -999.2500                               : Null Value
COMP.          TEXACO PRODUCTION SERVICES LTD.         : Company
WELL.          14/20-2                                 : Well
FLD .          MORAY FIRTH                             : Field
LOC .          NORTH SEA                               : Location
LOC1.          -                                       : Location (UTM)
CTRY.          UK                                      : Country
PROV.          UKCS                                    : Province
UWI .          859                                     : UWI Number
API .          -                                       : API Number
SECT.          -                                       : Section
TOWN.          -                                       : Township
RNGE.          -                                       : Range
PDAT.          MSL                                     : Perm Datum
EPD .ft        0.0                                       : Elevation
LMF .          KB                                      : Log Measured From
DMF .          KB                                      : Drill Measured From
APD .ft        82.0                                    : Above Perm Datum
EKB .ft        82.0                                    : Elev-Kelly Bushing
EDF .ft        81.0                                    : Elev-Drill Floor
EGL .ft        -426.0                                  : Elev-Ground Level (Water Depth)
TDD .ft        9200.0                                  : Total Depth (Driller)
TDL .ft        9197.0                                  : Total Depth (Logger)
SRVC.          SCHLUMBERGER                            : Service Company
LATI.          58 20 30.98" N                          : Latitude
LONG.          00 08 39.66" W                          : Longitude
DATE.          MAY-JUN-1975                            : Logging Date
PROJ.          UKCS                                    : Project
SET .          COMP_WIRE                               : Set
~Curve Information Section
DEPTH.ft                                               : Depth Curve
CALD.in                                                : Caliper (from FDC/CNL/GR)
MCAL.in                                                : Caliper (from MLL/ML)
DRHO.g/cc                                              : Delta Rho
DT.us/ft                                               : Delta-T
GR.gAPI                                                : Gamma Ray (from ISF/BHC/GR)
GRD.gAPI                                               : Gamma Ray (from FDC/CNL/GR)
ILD.Ohmm                                               : Deep Induction Standard Processed Resistivity
MINV.Ohmm                                              : Micro-Inverse Resistivity
MLL.Ohmm                                               : Mll Resistivity
MNOR.Ohmm                                              : Micro-Normal Resistivity
NPHI.LPU                                               : Neutron Porosity
RHOB.g/cc                                              : Bulk Density
SFLU.Ohmm                                              : SFL Resistivity (Unaveraged)
SP.mV                                                  : Spontaneous Potential
~ASCII Log Data Section
# ...
 8285.0000         8.3201         8.2986         0.0460        80.9327        56.8939        56.6420         0.6980         0.5641         1.1652         0.6540        21.2699         2.3379         1.1433        77.2359     
 8285.5000         8.3226         8.3377         0.0393        80.6971        55.8481        56.2859         0.6852         0.6068         1.0923         0.6640        21.6772         2.3187         1.1206        77.1596     
 8286.0000         8.3251         8.3428         0.0275        80.7862        51.1082        53.0246         0.6724         0.6023         1.0434         0.6633        22.0407         2.3038         1.0911        77.2538     
 8286.5000         8.3277         8.3434         0.0201        80.9292        47.3153        47.2451         0.6840         0.5867         1.0947         0.6652        22.4710         2.2961         1.0614        77.3481     
 8287.0000         8.3302         8.3441         0.0241        81.0726        43.9764        42.3391         0.7162         0.5789         1.1391         0.6627        22.9333         2.2941         1.0316        77.4425     
 8287.5000         8.3327         8.3448         0.0272        81.2157        46.1289        40.4438         0.7591         0.5791         1.1905         0.6757        23.3327         2.2926         1.0877        77.5368     
 8288.0000         8.3352         8.3455         0.0226        81.3587        51.9339        43.3043         0.8020         0.6198         1.3326         0.7211        23.2196         2.2839         1.1482        77.6310     
 8288.5000         8.3377         8.3461         0.0276        81.5018        57.2199        49.0668         0.8450         0.6906         1.5136         0.7564        22.4743         2.2769         1.3383        77.7253     
 8289.0000         8.3403         8.3469         0.0373        81.6449        64.6307        56.8819         1.4121         0.7116         2.1552         0.8031        21.9035         2.2976         1.5345        77.8195     
 8289.5000         8.3428         8.4317         0.0388        79.4624        72.1475        66.7406         2.0219         0.7941         3.5762         0.8982        21.6645         2.3110         1.7310        77.9139     
 8290.0000         8.3468         8.5665         0.0411        76.8092        77.4335        73.8396         2.6307         1.0305        14.8217         1.2281        21.1313         2.3180         1.9272        78.0082     
 8290.5000         8.3522         8.6945         0.0446        74.1560        84.8880        81.6868         3.2395         1.6448        48.3419         2.2667        19.7240         2.3461         3.9041        78.1024     
 8291.0000         8.3578         8.7457         0.0425        71.5027        90.1756        87.6999         3.8484         2.4315        55.4747         3.9410        17.9343         2.3751         5.9159        78.2865     
 8291.5000         8.3635         8.7519         0.0436        68.8453        93.1374        93.7976         4.4582         3.6235        47.8726         4.3418        15.2380         2.4189        11.0010        78.5655     
 8292.0000         8.3935         8.7525         0.0337        66.1920        94.1541        98.7714         5.0670         4.8491        60.7739         4.9069        12.3215         2.4647        25.7842        78.8443     
 8292.5000         8.4571         8.7532         0.0218        63.2029        93.8004       101.3135         8.8241         4.9933        67.8501         4.9802         8.9256         2.5180        31.2980        79.1231     
 8293.0000         8.5388         8.7353         0.0165        59.8417        89.8068       100.0866        12.7989         4.9927        74.5586         4.9764         6.5279         2.5736        35.0005        79.4019     
 8293.5000         8.6573         8.7153         0.0194        57.8266        89.6415        96.6339        14.6875         4.8898        64.2763         4.9626         5.5798         2.6044        38.7089        79.6812     
 8294.0000         8.7198         8.7150         0.0253        57.3536        91.5857        92.3517        16.5697         3.5559        43.0221         4.8128         5.2812         2.6098        42.3210        79.9600     
 8294.5000         8.7211         8.6087         0.0254        57.4602        91.4538        87.3096        17.3295         4.6583        28.8483         5.0136         5.3218         2.6042        40.8925        80.2388     
 8295.0000         8.7164         8.6349         0.0228        57.7162        86.1388        84.1821        15.2547         4.1850        69.4701         5.0503         5.4514         2.6069        38.4165        80.5175     
 8295.5000         8.7116         8.6366         0.0179        57.7946        82.7786        79.9652        13.1799         3.5063        82.2128         5.0450         5.5032         2.5974        35.4355        80.7963     
 8296.0000         8.7068         8.6195         0.0244        57.6569        78.0488        75.3118        11.1018         4.6881        79.7259         5.0358         5.5081         2.6035        31.8602        80.9763     
 8296.5000         8.7021         8.6178         0.0228        57.5192        73.9401        72.2953         9.0270         4.5762        75.9481         5.0265         5.4596         2.6027        27.6732        81.0339     
 8297.0000         8.6973         8.6021         0.0102        57.3814        72.6747        70.2422         7.1408         3.9205        80.0095         4.7610         5.3485         2.5756        23.4861        81.0915     
 8297.5000         8.6925         8.4893         0.0138        57.2437        71.8492        69.6094         5.5756         2.9406        60.7447         3.7895         5.1280         2.5863        18.1837        81.1490     
 8298.0000         8.6874         8.3055         0.0141        57.1057        72.0414        71.1052         4.0078         1.7723        41.4732         1.6138         5.0505         2.6005        12.5597        81.2067     
 8298.5000         8.6823         8.1624         0.0060        57.6082        74.4523        75.9635         2.4425         0.8475        24.4552         0.7986         5.4316         2.5903         8.2860        81.2643     
 8299.0000         8.6772         8.1075         0.0119        58.3079        76.7689        78.6915         1.7087         0.5737         7.8673         0.7231         6.4947         2.5720         6.2793        81.3219     
 8299.5000         8.6515         8.0995         0.0258        59.0076        80.0480        81.0741         1.5687         0.5951         1.5311         0.7112         8.9725         2.5587         4.2727        81.4521     
 8300.0000         8.5616         8.1002         0.0408        65.3231        83.3242        83.9735         1.4286         0.6250         1.3568         0.7348        11.7584         2.5282         2.7103        81.6330     
 8300.5000         8.4446         8.1009         0.0483        71.8976        85.6556        85.2953         1.2886         0.6261         1.3461         0.7650        15.2217         2.4664         2.3269        81.8136     
 8301.0000         8.3601         8.1015         0.0476        75.8539        87.7990        85.9744         1.1486         0.6249         1.3521         0.8655        19.5130         2.4011         2.2724        81.9943     
 8301.5000         8.3058         8.1022         0.0555        79.8101        87.4096        85.9705         1.0087         0.7275         1.6181         1.0455        21.2611         2.3546         2.2454        82.1749     
 8302.0000         8.2981         8.1029         0.0500        80.0975        88.3512        85.6553         0.8697         0.7768         2.1863         1.0808        20.4123         2.3406         2.1772        82.3406     
 8302.5000         8.3041         8.1036         0.0360        77.6133        89.8827        87.5034         0.8324         0.6448         2.2456         0.8968        18.9760         2.3547         2.0789        82.3036     
