~Version Information Section
VERS.          2.0                                     : CWLS LOG ASCII Standard
WRAP.          NO                                      : One line per depth step
CREA.          03/06/17                                : LAS Creation Date
~Well Information Section
STRT.ft        491.0000                                : Start Depth
STOP.ft        9197.0000                               : Stop Depth
STEP.ft        0.5000                                  : Step
NULL.          -999.2500                               : Null Value
COMP.          TEXACO PRODUCTION SERVICES LTD.         : Company
WELL.          14/20-2                                 : Well
FLD .          MORAY FIRTH                             : Field
LOC .          NORTH SEA                               : Location
LOC1.          -                                       : Location (UTM)
CTRY.          UK                                      : Country
PROV.          UKCS                                    : Province
UWI .          859                                     : UWI Number
API .          -                                       : API Number
SECT.          -                                       : Section
TOWN.          -                                       : Township
RNGE.          -                                       : Range
PDAT.          MSL                                     : Perm Datum
EPD .ft        0.0                                       : Elevation
LMF .          KB                                      : Log Measured From
DMF .          KB                                      : Drill Measured From
APD .ft        82.0                                    : Above Perm Datum
EKB .ft        82.0                                    : Elev-Kelly Bushing
EDF .ft        81.0                                    : Elev-Drill Floor
EGL .ft        -426.0                                  : Elev-Ground Level (Water Depth)
TDD .ft        9200.0                                  : Total Depth (Driller)
TDL .ft        9197.0                                  : Total Depth (Logger)
SRVC.          SCHLUMBERGER                            : Service Company
LATI.          58 20 30.98" N                          : Latitude
LONG.          00 08 39.66" W                          : Longitude
DATE.          MAY-JUN-1975                            : Logging Date
PROJ.          UKCS                                    : Project
SET .          COMP_WIRE                               : Set
~Curve Information Section
DEPTH.ft                                               : Depth Curve
CALD.in                                                : Caliper (from FDC/CNL/GR)
MCAL.in                                                : Caliper (from MLL/ML)
DRHO.g/cc                                              : Delta Rho
DT.us/ft                                               : Delta-T
GR.gAPI                                                : Gamma Ray (from ISF/BHC/GR)
GRD.gAPI                                               : Gamma Ray (from FDC/CNL/GR)
ILD.Ohmm                                               : Deep Induction Standard Processed Resistivity
MINV.Ohmm                                              : Micro-Inverse Resistivity
MLL.Ohmm                                               : Mll Resistivity
MNOR.Ohmm                                              : Micro-Normal Resistivity
NPHI.LPU                                               : Neutron Porosity
RHOB.g/cc                                              : Bulk Density
SFLU.Ohmm                                              : SFL Resistivity (Unaveraged)
SP.mV                                                  : Spontaneous Potential
~ASCII Log Data Section
# ...
 7727.0000         9.3073         9.4418         0.0289        69.5823        26.5944        26.6181         5.1305         4.2599         6.9501         4.1708        11.9354         2.6310         6.3691        90.2778     
 7727.5000         9.3059         9.4409         0.0234        69.1647        25.9958        25.9003         5.1715         4.3070         8.8903         2.6477        12.2269         2.6303         6.1085        90.6718     
 7728.0000         9.3048         9.4400         0.0253        68.7480        25.2789        25.0277         5.1933         3.3456         6.6268         3.4272        12.4717         2.6226         6.2885        89.4931     
 7728.5000         9.3045         9.4391         0.0142        68.3313        24.5242        26.2407         5.2152         3.9194         7.8877         4.3041        12.6388         2.5997         6.4686        90.4808     
 7729.0000         9.3042         9.4383         0.0153        67.9147        24.3501        26.0639         5.2370         4.8938         7.6936         4.8813        12.5779         2.5920         6.6487        90.2843     
 7729.5000         9.3040         9.4374         0.0193        68.0107        24.8468        25.8355         5.2589         4.6965         7.6405         4.5644        12.4018         2.5962         6.8013        90.2860     
 7730.0000         9.3037         9.4365         0.0179        68.3287        24.6854        25.8478         5.2390         4.6681         8.6764         4.2912        12.1741         2.6123         6.3853        90.2879     
 7730.5000         9.3034         9.4356         0.0154        68.6525        23.7444        26.1934         5.1815         4.8291         6.6329         3.8982        12.0106         2.6279         5.9693        90.2676     
 7731.0000         9.3032         9.4347         0.0210        68.9986        24.5222        24.9212         5.1293         4.8560         6.9594         3.2713        11.8157         2.6378         5.5807        90.0915     
 7731.5000         9.3029         9.4339         0.0280        69.3454        26.5430        23.9974         5.0764         4.8671         8.2782         3.8863        11.9197         2.6524         5.8244        90.1214     
 7732.0000         9.3026         9.4330         0.0253        69.6915        28.9692        24.6825         4.9843         4.5085         8.0992         4.5801        12.1751         2.6340         6.0687        90.6971     
 7732.5000         9.3024         9.4321         0.0187        70.0377        27.9009        25.2789         4.8923         4.4213         6.2631         4.9495        11.9775         2.6220         6.3130        90.5343     
 7733.0000         9.3021         9.4312         0.0207        70.3789        27.4907        25.8006         4.8002         4.0241         7.3418         4.9473        11.7143         2.6227         6.2112        90.6625     
 7733.5000         9.3018         9.4303         0.0343        70.6253        27.4921        27.4619         4.7081         4.6039         6.6342         4.1466        12.0360         2.6316         6.0691        90.9470     
 7734.0000         9.3016         9.4295         0.0478        70.8721        27.7828        29.1636         4.6159         4.9582         5.6252         2.6814        12.4032         2.6457         5.9268        91.3629     
 7734.5000         9.3013         9.4286         0.0430        71.1186        28.8233        29.7043         4.5238         5.0007         6.2491         3.6757        12.7703         2.6536         6.0757        90.4578     
 7735.0000         9.3010         9.4277         0.0270        71.3650        27.6909        28.6994         4.5090         4.6528         6.7318         5.0119        12.8783         2.6314         6.3293        91.1369     
 7735.5000         9.3008         9.4268         0.0110        71.4888        26.3164        27.4810         4.6178         3.6306         5.5787         4.5424        12.8353         2.6191         6.4563        91.3126     
 7736.0000         9.3005         9.4259         0.0182        71.2067        25.7012        26.9799         4.7268         3.8382         8.5139         3.8127        13.0900         2.5831         6.2126        91.3148     
 7736.5000         9.3002         9.4251         0.0219        70.9244        28.5138        26.5993         4.8212         4.1423         5.9971         3.7941        13.2637         2.6061         6.2992        91.2531     
 7737.0000         9.3000         9.4242         0.0190        70.6421        27.6728        27.5879         4.8687         4.8120         6.8201         3.2706        13.3432         2.6004         6.6172        90.6532     
 7737.5000         9.2997         9.4233         0.0178        70.3598        27.7060        28.5919         4.9161         4.8757         6.4494         3.6899        13.1807         2.5948         6.9353        90.9189     
 7738.0000         9.2994         9.4224         0.0221        70.0324        27.7075        27.4579         4.9637         4.8793         8.7210         4.3286        12.8611         2.6058         7.1881        90.9213     
 7738.5000         9.2992         9.4215         0.0262        69.5792        26.6751        26.4125         5.0111         4.7399         7.7263         4.4567        12.4510         2.6072         6.9441        90.6473     
 7739.0000         9.2989         9.4207         0.0316        69.1261        26.2009        25.9841         5.0586         4.5285         5.4289         3.6253        12.0406         2.6178         6.7001        90.2772     
 7739.5000         9.2986         9.4198         0.0491        68.6729        27.4955        26.3285         5.1246         4.8486         7.9266         3.3560        11.4739         2.6342         6.4562        90.0450     
 7740.0000         9.2984         9.4189         0.0393        68.5508        27.9889        26.2583         5.2152         4.9813         6.7447         3.9478        10.9644         2.6543         6.6310        89.6906     
 7740.5000         9.2981         9.4180         0.0189        69.2466        28.2595        23.7611         5.3060         4.9734         9.5085         3.7556        10.4435         2.6200         6.9215        90.4420     
 7741.0000         9.2978         9.4171         0.0128        69.9877        27.1894        24.5597         5.3967         4.9651        11.7849         3.8822         9.8099         2.6066         7.2117        90.0412     
 7741.5000         9.2976         9.4163         0.0236        70.8399        27.1252        25.6288         5.4829         4.9616         7.0215         3.7441         8.8829         2.6123         6.8805        90.4149     
 7742.0000         9.2973         9.4154         0.0298        71.6920        27.3675        25.0736         5.5370         4.8337         5.6252         3.0491         8.5840         2.6334         6.5319        92.0353     
 7742.5000         9.2970         9.4145         0.0231        70.0363        28.2848        24.9975         5.5911         4.7563         5.2412         3.0936         9.0543         2.6158         7.2081        91.4436     
 7743.0000         9.2968         9.4136         0.0358        68.2614        26.5265        26.7099         5.6451         5.0356        15.8141         4.4148        10.0684         2.6206         8.4632        91.8367     
 7743.5000         9.2950         9.4136         0.0318        66.5595        24.3358        25.9188         5.6992         4.9809        31.3963         4.3601        10.4542         2.6264         9.6849        91.8567     
 7744.0000         9.2927         9.4149         0.0324        64.8738        23.6819        25.9987         5.7770         4.9453         5.1541         3.4690        10.7783         2.6313         8.8620        92.1188     
 7744.5000         9.2904         9.4162         0.0452        63.1927        25.3739        27.0044         5.9076         4.9678         5.9050         3.4902        11.6862         2.6196         8.0377        91.5489     
