~Version Information Section
VERS.          2.0                                     : CWLS LOG ASCII Standard
WRAP.          NO                                      : One line per depth step
CREA.          03/06/17                                : LAS Creation Date
~Well Information Section
STRT.ft        491.0000                                : Start Depth
STOP.ft        9197.0000                               : Stop Depth
STEP.ft        0.5000                                  : Step
NULL.          -999.2500                               : Null Value
COMP.          TEXACO PRODUCTION SERVICES LTD.         : Company
WELL.          14/20-2                                 : Well
FLD .          MORAY FIRTH                             : Field
LOC .          NORTH SEA                               : Location
LOC1.          -                                       : Location (UTM)
CTRY.          UK                                      : Country
PROV.          UKCS                                    : Province
UWI .          859                                     : UWI Number
API .          -                                       : API Number
SECT.          -                                       : Section
TOWN.          -                                       : Township
RNGE.          -                                       : Range
PDAT.          MSL                                     : Perm Datum
EPD .ft        0.0                                       : Elevation
LMF .          KB                                      : Log Measured From
DMF .          KB                                      : Drill Measured From
APD .ft        82.0                                    : Above Perm Datum
EKB .ft        82.0                                    : Elev-Kelly Bushing
EDF .ft        81.0                                    : Elev-Drill Floor
EGL .ft        -426.0                                  : Elev-Ground Level (Water Depth)
TDD .ft        9200.0                                  : Total Depth (Driller)
TDL .ft        9197.0                                  : Total Depth (Logger)
SRVC.          SCHLUMBERGER                            : Service Company
LATI.          58 20 30.98" N                          : Latitude
LONG.          00 08 39.66" W                          : Longitude
DATE.          MAY-JUN-1975                            : Logging Date
PROJ.          UKCS                                    : Project
SET .          COMP_WIRE                               : Set
~Curve Information Section
DEPTH.ft                                               : Depth Curve
CALD.in                                                : Caliper (from FDC/CNL/GR)
MCAL.in                                                : Caliper (from MLL/ML)
DRHO.g/cc                                              : Delta Rho
DT.us/ft                                               : Delta-T
GR.gAPI                                                : Gamma Ray (from ISF/BHC/GR)
GRD.gAPI                                               : Gamma Ray (from FDC/CNL/GR)
ILD.Ohmm                                               : Deep Induction Standard Processed Resistivity
MINV.Ohmm                                              : Micro-Inverse Resistivity
MLL.Ohmm                                               : Mll Resistivity
MNOR.Ohmm                                              : Micro-Normal Resistivity
NPHI.LPU                                               : Neutron Porosity
RHOB.g/cc                                              : Bulk Density
SFLU.Ohmm                                              : SFL Resistivity (Unaveraged)
SP.mV                                                  : Spontaneous Potential
~ASCII Log Data Section
# ...
 7601.0000         9.2209         9.1136         0.0179        73.5016        22.7391        25.4097         3.5280         4.9799         5.7221         3.3950        16.1857         2.5845         3.7640        84.5854     
 7601.5000         9.2236         9.1262         0.0144        72.1679        22.6589        22.4017         3.7346         4.7899         5.0491         3.1705        15.4471         2.5988         3.9580        84.3531     
 7602.0000         9.2263         9.1266         0.0157        71.3155        22.7164        20.5555         3.7074         4.6858         4.5363         2.6305        15.4371         2.6078         4.0242        84.5768     
 7602.5000         9.2290         9.1270         0.0308        70.8144        23.6558        20.2828         3.6801         4.6421         5.3231         2.7213        15.6947         2.6136         4.0635        84.5788     
 7603.0000         9.2317         9.1275         0.0428        71.0865        24.2529        20.6138         3.5693         5.0133         6.3487         3.8300        15.9284         2.6219         3.9539        84.5807     
 7603.5000         9.2344         9.1279         0.0421        71.9028        23.0102        21.2837         3.4171         4.9970         6.0825         4.5687        16.1291         2.6137         3.8398        84.7830     
 7604.0000         9.2371         9.1465         0.0407        72.7185        22.2499        21.8892         3.3056         4.8293         4.4597         3.6647        16.3526         2.5911         3.4751        84.7850     
 7604.5000         9.2398         9.1488         0.0298        73.6382        23.1723        22.7536         3.2743         4.0230         3.4482         2.6707        16.5853         2.5734         3.1963        85.1877     
 7605.0000         9.2425         9.1493         0.0267        74.6975        24.2279        23.7079         3.2430         4.0500         4.2131         2.3202        16.7535         2.5703         3.3493        85.4898     
 7605.5000         9.2453         9.1497         0.0300        75.7568        24.4991        25.4835         3.2117         4.6457         4.2271         2.8261        16.9504         2.5808         3.4658        85.2037     
 7606.0000         9.2480         9.1501         0.0213        76.4992        24.9870        25.7115         3.1551         4.2532         4.5499         2.6483        17.2143         2.5787         3.4223        86.4193     
 7606.5000         9.2507         9.1505         0.0126        76.8165        24.4814        25.4361         3.0745         4.1467         4.4868         2.8209        17.4390         2.5699         3.3793        85.7091     
 7607.0000         9.2534         9.1509         0.0071        77.1338        24.5931        26.1026         2.9939         2.8834         4.5568         2.5100        17.7057         2.5549         3.3685        85.5831     
 7607.5000         9.2561         9.1513         0.0098        76.8574        25.2362        26.9030         2.9133         3.5732         3.1200         2.4904        18.2834         2.5494         3.3578        85.6905     
 7608.0000         9.2588         9.1517         0.0063        76.5399        26.1210        27.8340         2.8657         3.7159         4.7023         2.0075        18.4281         2.5634         3.3492        85.2235     
 7608.5000         9.2615         9.1501         0.0016        76.2229        27.9876        27.9649         2.8336         4.0322         4.0655         2.2351        17.9909         2.5696         3.3495        85.3784     
 7609.0000         9.2642         9.1471         0.0037        76.7398        28.0943        28.5458         2.8014         3.6551         4.1532         2.1582        17.9173         2.5603         3.3498        85.2051     
 7609.5000         9.2669         9.1440         0.0103        77.6242        28.2582        29.3773         2.7693         3.8519         4.6074         2.4419        18.0080         2.5716         3.2650        85.2070     
 7610.0000         9.2696         9.1410         0.0136        78.6773        28.4010        29.8391         2.7371         3.6323         3.7463         2.4432        18.1516         2.5745         3.0408        85.2089     
 7610.5000         9.2723         9.1380         0.0222        79.7290        30.1251        30.0204         2.6607         2.8458         2.7333         1.8060        18.5561         2.5694         2.8625        84.5913     
 7611.0000         9.2750         9.1350         0.0273        81.0158        30.9361        30.2235         2.5772         2.7064         3.3606         1.7483        18.6531         2.5797         2.8627        84.1720     
 7611.5000         9.2777         9.1381         0.0332        82.4445        30.3452        30.5889         2.5058         2.8430         3.2570         1.8634        18.4564         2.5978         2.9264        84.2125     
 7612.0000         9.2800         9.1437         0.0211        80.7799        30.1275        31.1580         2.4451         2.9767         3.2954         1.9007        18.5738         2.5999         2.9798        84.2145     
 7612.5000         9.2797         9.1492         0.0037        78.9674        30.1395        32.2628         2.3843         3.3280         4.3549         2.1872        19.2055         2.5806         3.0024        84.0920     
 7613.0000         9.2761         9.1548         0.0049        77.2861        30.8818        33.4215         2.3269         3.7435         4.3316         2.4211        20.4787         2.5659         3.0250        83.6930     
 7613.5000         9.2726         9.1456         0.0255        77.3735        32.2302        34.5721         2.2827         3.5698         3.8924         2.2777        21.6370         2.5496         2.7525        83.7655     
 7614.0000         9.2690         9.1331         0.0518        80.5556        33.6907        35.8532         2.2386         3.5019         4.0134         2.3052        22.8587         2.5581         2.4464        83.6498     
 7614.5000         9.2654         9.1205         0.0514        83.7428        35.0715        37.4152         2.1944         2.7608         2.1695         2.4942        23.9470         2.5810         2.4451        83.8233     
 7615.0000         9.2619         9.1108         0.0389        85.7865        36.3676        39.2258         2.1502         1.4536         3.1262         2.5366        24.7758         2.5671         2.5672        83.8252     
 7615.5000         9.2583         9.1024         0.0382        87.1927        36.9354        40.2038         2.1538         1.4690         2.5590         2.5438        25.2130         2.5718         2.6713        83.8271     
 7616.0000         9.2547         9.0800         0.0319        87.0368        37.1004        39.6633         2.1976         2.0990         3.1208         2.1834        24.8040         2.5765         2.7183        83.8291     
 7616.5000         9.2511         9.0526         0.0159        86.0248        35.5442        37.2900         2.2414         2.4661         2.2314         1.6501        23.6107         2.5601         2.7653        83.7574     
 7617.0000         9.2476         9.0413         0.0082        83.9710        34.0081        34.9215         2.2852         2.2438         3.7842         1.5377        23.0134         2.5600         2.8123        83.3559     
 7617.5000         9.2440         9.0299         0.0051        81.9172        32.8105        32.5501         2.3289         3.3129         4.5819         1.8213        22.9194         2.5734         2.9259        83.4945     
 7618.0000         9.2404         9.0194         0.0059        79.9235        32.7306        31.1067         2.3727         3.9757         4.0984         2.2864        23.1878         2.5852         2.8800        82.9541     
 7618.5000         9.2364         9.0375         0.0080        80.9896        33.8209        32.1631         2.4164         3.5493         2.7207         2.1552        22.9468         2.5814         2.7570        83.0943     
