~Version Information Section
VERS.          2.0                                     : CWLS LOG ASCII Standard
WRAP.          NO                                      : One line per depth step
CREA.          03/06/17                                : LAS Creation Date
~Well Information Section
STRT.ft        491.0000                                : Start Depth
STOP.ft        9197.0000                               : Stop Depth
STEP.ft        0.5000                                  : Step
NULL.          -999.2500                               : Null Value
COMP.          TEXACO PRODUCTION SERVICES LTD.         : Company
WELL.          14/20-2                                 : Well
FLD .          MORAY FIRTH                             : Field
LOC .          NORTH SEA                               : Location
LOC1.          -                                       : Location (UTM)
CTRY.          UK                                      : Country
PROV.          UKCS                                    : Province
UWI .          859                                     : UWI Number
API .          -                                       : API Number
SECT.          -                                       : Section
TOWN.          -                                       : Township
RNGE.          -                                       : Range
PDAT.          MSL                                     : Perm Datum
EPD .ft        0.0                                       : Elevation
LMF .          KB                                      : Log Measured From
DMF .          KB                                      : Drill Measured From
APD .ft        82.0                                    : Above Perm Datum
EKB .ft        82.0                                    : Elev-Kelly Bushing
EDF .ft        81.0                                    : Elev-Drill Floor
EGL .ft        -426.0                                  : Elev-Ground Level (Water Depth)
TDD .ft        9200.0                                  : Total Depth (Driller)
TDL .ft        9197.0                                  : Total Depth (Logger)
SRVC.          SCHLUMBERGER                            : Service Company
LATI.          58 20 30.98" N                          : Latitude
LONG.          00 08 39.66" W                          : Longitude
DATE.          MAY-JUN-1975                            : Logging Date
PROJ.          UKCS                                    : Project
SET .          COMP_WIRE                               : Set
~Curve Information Section
DEPTH.ft                                               : Depth Curve
CALD.in                                                : Caliper (from FDC/CNL/GR)
MCAL.in                                                : Caliper (from MLL/ML)
DRHO.g/cc                                              : Delta Rho
DT.us/ft                                               : Delta-T
GR.gAPI                                                : Gamma Ray (from ISF/BHC/GR)
GRD.gAPI                                               : Gamma Ray (from FDC/CNL/GR)
ILD.Ohmm                                               : Deep Induction Standard Processed Resistivity
MINV.Ohmm                                              : Micro-Inverse Resistivity
MLL.Ohmm                                               : Mll Resistivity
MNOR.Ohmm                                              : Micro-Normal Resistivity
NPHI.LPU                                               : Neutron Porosity
RHOB.g/cc                                              : Bulk Density
SFLU.Ohmm                                              : SFL Resistivity (Unaveraged)
SP.mV                                                  : Spontaneous Potential
~ASCII Log Data Section
# ...
 8051.0000         8.1135         8.1811         0.0515        85.7853        60.4917        64.0590         0.4123         0.4872         0.9316         0.5907        27.7372         2.2184         0.7398        75.6790     
 8051.5000         8.1139         8.1365         0.0425        85.8924        62.5104        66.3443         0.4410         0.4474         0.9949         0.5932        27.8418         2.2093         0.7770        75.8695     
 8052.0000         8.1143         8.0813         0.0233        85.9994        64.9380        68.5298         0.4698         0.4408         1.0714         0.6067        27.6950         2.1936         0.8142        76.0600     
 8052.5000         8.1147         8.0989         0.0275        86.1065        68.3645        72.9653         0.4986         0.4525         1.1920         0.6133        27.2025         2.1900         0.8514        76.2505     
 8053.0000         8.1152         8.0811         0.0421        86.2135        70.7976        74.1582         0.5274         0.4628         1.1902         0.6170        26.8069         2.2158         0.8887        76.2540     
 8053.5000         8.1156         8.1307         0.0282        86.2195        73.8490        72.5406         0.5501         0.4768         1.1652         0.6229        26.8784         2.2320         0.9259        76.2167     
 8054.0000         8.1160         8.2050         0.0191        86.1902        75.9232        70.6200         0.5727         0.4936         1.2371         0.6460        27.3041         2.2240         0.9617        76.1793     
 8054.5000         8.1164         8.2124         0.0336        86.1608        78.8266        70.0181         0.5953         0.5123         1.2873         0.7148        26.4977         2.2276         0.9916        76.1420     
 8055.0000         8.1168         8.2197         0.0482        86.1314        79.7662        69.6636         0.6050         0.5316         1.0818         0.7210        25.9399         2.2556         0.9980        76.1046     
 8055.5000         8.1172         8.2225         0.0628        86.1020        79.4858        69.9797         0.6019         0.5440         1.0814         0.6654        25.5128         2.2761         0.9657        76.0673     
 8056.0000         8.1176         8.2226         0.0548        86.0726        77.4706        69.5064         0.5899         0.5260         1.0727         0.6278        25.4394         2.2602         0.9334        76.0299     
 8056.5000         8.1180         8.2152         0.0371        86.0361        73.6856        66.6957         0.5736         0.4886         0.9825         0.6028        25.7134         2.2496         0.9011        75.9926     
 8057.0000         8.1184         8.1743         0.0284        85.9947        69.4667        64.3530         0.5573         0.4568         0.9331         0.5772        26.3961         2.2341         0.8698        75.9552     
 8057.5000         8.1189         8.1502         0.0342        85.9534        67.9583        64.2496         0.5411         0.4442         0.9286         0.5634        27.2840         2.2313         0.8572        75.9178     
 8058.0000         8.1193         8.1427         0.0389        85.9120        65.8372        64.6077         0.5248         0.4551         0.9193         0.5544        27.4045         2.2288         0.8446        75.8805     
 8058.5000         8.1197         8.1428         0.0318        85.8696        64.7655        65.9857         0.5085         0.4813         0.9740         0.5574        26.1384         2.2215         0.8320        75.8705     
 8059.0000         8.1201         8.1533         0.0277        85.8181        63.7587        66.7600         0.5064         0.4945         1.0164         0.5648        26.2606         2.2077         0.8361        75.9732     
 8059.5000         8.1205         8.1663         0.0259        85.7666        62.8206        65.5675         0.5109         0.5054         0.9861         0.5913        26.1980         2.1997         0.8422        76.0763     
 8060.0000         8.1209         8.1910         0.0243        85.7152        62.1740        63.4194         0.5153         0.5182         1.0081         0.6413        26.0858         2.1995         0.8563        76.1791     
 8060.5000         8.1213         8.2156         0.0203        85.6239        61.9203        63.9788         0.5191         0.5272         1.0515         0.6595        26.1599         2.2039         0.8823        76.2820     
 8061.0000         8.1217         8.2238         0.0394        85.4861        61.7667        64.1896         0.5225         0.5302         1.0442         0.6517        26.4624         2.2168         0.9084        76.3849     
 8061.5000         8.1221         8.2239         0.0386        85.3479        61.4263        65.1253         0.5258         0.5321         0.9442         0.6444        26.7973         2.2238         0.9092        76.4879     
 8062.0000         8.1226         8.2241         0.0276        85.1300        61.1619        64.7691         0.5291         0.5347         0.9430         0.6300        26.7908         2.2149         0.8909        76.5908     
 8062.5000         8.1230         8.2242         0.0189        84.8667        61.1960        63.3641         0.5270         0.5374         0.9315         0.6143        26.3209         2.2055         0.8583        76.5902     
 8063.0000         8.1234         8.2243         0.0262        84.6035        62.0727        63.3248         0.5052         0.5363         0.8466         0.6055        25.9782         2.2117         0.8258        76.5068     
 8063.5000         8.1238         8.2244         0.0301        84.7813        62.6456        65.1759         0.4836         0.5139         0.8242         0.5852        26.1183         2.2142         0.7932        76.4223     
 8064.0000         8.1242         8.2268         0.0116        85.1933        62.4449        67.2517         0.4661         0.4833         0.8269         0.5803        26.9660         2.1969         0.7607        76.3263     
 8064.5000         8.1246         8.2444         0.0075        85.6053        63.3231        68.8268         0.4486         0.4672         0.8272         0.5747        27.5224         2.1806         0.7345        76.2303     
 8065.0000         8.1250         8.2621         0.0031        86.0173        64.5539        69.4812         0.4311         0.4631         0.8273         0.5708        27.8556         2.1695         0.7167        76.1343     
 8065.5000         8.1254         8.2591         0.0190        86.4293        65.3158        69.1120         0.4187         0.4673         0.9471         0.5699        28.0664         2.1890         0.6989        76.0383     
 8066.0000         8.1258         8.2520         0.0336        86.8417        64.3310        69.0001         0.4240         0.4739         0.9326         0.5818        27.7075         2.2015         0.7003        75.9421     
 8066.5000         8.1263         8.2449         0.0339        87.0861        63.2763        68.9007         0.4293         0.4928         1.0452         0.6059        27.8048         2.2019         0.7273        75.8461     
 8067.0000         8.1267         8.2378         0.0253        86.9993        63.6976        69.4583         0.4346         0.4988         1.0186         0.6219        28.1593         2.1995         0.7543        75.9283     
 8067.5000         8.1271         8.2307         0.0247        86.9125        64.8680        67.5058         0.4399         0.4606         0.9803         0.6127        28.1407         2.2036         0.7813        76.1365     
 8068.0000         8.1275         8.2236         0.0209        86.8255        65.1629        65.5498         0.4453         0.4674         0.9890         0.5938        27.8853         2.2044         0.8083        76.3452     
 8068.5000         8.1279         8.2164         0.0199        86.7387        65.2644        65.0137         0.4466         0.4916         0.9847         0.5969        27.5738         2.2020         0.8353        76.5535     
