~Version Information Section
VERS.          2.0                                     : CWLS LOG ASCII Standard
WRAP.          NO                                      : One line per depth step
CREA.          03/06/17                                : LAS Creation Date
~Well Information Section
STRT.ft        491.0000                                : Start Depth
STOP.ft        9197.0000                               : Stop Depth
STEP.ft        0.5000                                  : Step
NULL.          -999.2500                               : Null Value
COMP.          TEXACO PRODUCTION SERVICES LTD.         : Company
WELL.          14/20-2                                 : Well
FLD .          MORAY FIRTH                             : Field
LOC .          NORTH SEA                               : Location
LOC1.          -                                       : Location (UTM)
CTRY.          UK                                      : Country
PROV.          UKCS                                    : Province
UWI .          859                                     : UWI Number
API .          -                                       : API Number
SECT.          -                                       : Section
TOWN.          -                                       : Township
RNGE.          -                                       : Range
PDAT.          MSL                                     : Perm Datum
EPD .ft        0.0                                       : Elevation
LMF .          KB                                      : Log Measured From
DMF .          KB                                      : Drill Measured From
APD .ft        82.0                                    : Above Perm Datum
EKB .ft        82.0                                    : Elev-Kelly Bushing
EDF .ft        81.0                                    : Elev-Drill Floor
EGL .ft        -426.0                                  : Elev-Ground Level (Water Depth)
TDD .ft        9200.0                                  : Total Depth (Driller)
TDL .ft        9197.0                                  : Total Depth (Logger)
SRVC.          SCHLUMBERGER                            : Service Company
LATI.          58 20 30.98" N                          : Latitude
LONG.          00 08 39.66" W                          : Longitude
DATE.          MAY-JUN-1975                            : Logging Date
PROJ.          UKCS                                    : Project
SET .          COMP_WIRE                               : Set
~Curve Information Section
DEPTH.ft                                               : Depth Curve
CALD.in                                                : Caliper (from FDC/CNL/GR)
MCAL.in                                                : Caliper (from MLL/ML)
DRHO.g/cc                                              : Delta Rho
DT.us/ft                                               : Delta-T
GR.gAPI                                                : Gamma Ray (from ISF/BHC/GR)
GRD.gAPI                                               : Gamma Ray (from FDC/CNL/GR)
ILD.Ohmm                                               : Deep Induction Standard Processed Resistivity
MINV.Ohmm                                              : Micro-Inverse Resistivity
MLL.Ohmm                                               : Mll Resistivity
MNOR.Ohmm                                              : Micro-Normal Resistivity
NPHI.LPU                                               : Neutron Porosity
RHOB.g/cc                                              : Bulk Density
SFLU.Ohmm                                              : SFL Resistivity (Unaveraged)
SP.mV                                                  : Spontaneous Potential
~ASCII Log Data Section
# ...
 7835.0000         9.4083         9.7252         0.0263        78.0072        69.8075        71.4095         4.0932         1.5101         2.7552         1.2285        17.2886         2.5089         4.2385        84.2610     
 7835.5000         9.4476         9.7391         0.0203        78.1188        71.0871        74.6868         4.0217         2.2575         6.5977         1.9611        17.3006         2.5082         3.9829        84.0001     
 7836.0000         9.5784         9.7394         0.0282        78.9847        72.0393        75.5332         3.9502         3.5187         3.8823         2.4878        17.3647         2.5000         3.7268        83.7387     
 7836.5000         9.6950         9.8065         0.0399        80.0522        73.5150        76.0889         3.8112         3.5145         2.3015         2.3826        17.4172         2.4851         3.4711        83.4777     
 7837.0000         9.5393         9.9886         0.0528        82.0251        74.5635        77.4414         3.6590         3.6170         2.9742         2.3099        17.3875         2.4680         3.2154        83.4375     
 7837.5000         9.6010        10.0809         0.0926        83.9981        80.1005        80.4267         3.5718         2.6624         2.2150         1.8821        17.6860         2.4499         2.9598        83.6022     
 7838.0000         9.6927        10.2120         0.1181        85.9743        85.2395        83.7784         3.4845         0.9579         1.1066         0.8926        19.5970         2.4476         2.8275        83.7675     
 7838.5000         9.8282        10.0609         0.1331        87.9473        86.1088        85.5099         3.3973         0.5701         2.7934         0.6232        21.7387         2.4632         2.9412        83.9326     
 7839.0000        10.1209        10.0528         0.0847        87.8966        85.8622        86.7442         3.3872         1.0204         2.7758         1.0856        22.6833         2.4053         3.2978        84.1638     
 7839.5000        10.5217        10.1285         0.0894        86.6888        82.7752        85.3919         3.4156         1.1718         1.9415         1.4640        21.9973         2.4033         3.5865        84.4058     
 7840.0000         9.7996        10.1894         0.1529        85.0935        80.2814        86.4002         3.4441         0.9217         1.4072         1.0734        20.7038         2.4227         3.5542        84.6483     
 7840.5000         9.9516        10.0771         0.1475        83.2983        78.5983        85.2884         3.4477         1.0007         1.5873         1.0129        20.5369         2.4397         3.5180        84.8903     
 7841.0000         9.9185         9.9735         0.1289        81.5027        79.0038        84.6975         3.4032         1.4700         1.9821         1.0167        20.6399         2.4523         3.4657        85.1324     
 7841.5000        10.0402         9.9911         0.1163        79.7072        81.4583        88.2651         3.3588         1.2291         2.7045         0.8151        20.5784         2.4567         3.4025        84.9087     
 7842.0000        10.0428        10.0142         0.0979        77.9116        84.8939        91.5607         3.3143         1.0444         3.5492         1.0282        20.1545         2.4725         3.3184        84.6167     
 7842.5000         9.9287        10.0296         0.0535        78.2177        87.3048        93.0325         3.1623         1.2793         1.6809         1.2737        19.3911         2.4702         3.1725        84.3241     
 7843.0000        10.0096        10.0787         0.0769        80.2288        86.0489        89.2927         2.9906         1.4117         1.1858         1.3203        19.3507         2.4718         2.9674        84.0320     
 7843.5000         9.9889        10.2274         0.0863        83.4293        81.4622        83.8429         2.8241         1.5682         1.0909         1.2900        20.0082         2.4803         2.5209        83.7399     
 7844.0000         9.9104        10.1931         0.0734        86.6298        79.5760        81.3074         2.6601         0.9717         0.9244         0.7640        21.6132         2.4286         2.1780        83.5568     
 7844.5000        10.0497        10.0423         0.0512        89.0892        80.9280        80.8373         2.4958         0.4245         1.3285         0.4207        23.4343         2.3888         2.1537        83.5568     
 7845.0000        10.2144         9.9613         0.0346        88.9042        82.1245        81.7354         2.4070         0.3453         1.2451         0.4473        26.4865         2.3693         2.1299        83.5570     
 7845.5000        10.0921         9.9138         0.0429        87.0123        83.8661        84.2966         2.3563         0.3333         1.2187         0.4327        27.0739         2.3827         2.0585        83.5573     
 7846.0000        10.0397         9.8836         0.0546        89.7972        86.9628        87.2359         2.3753         0.3770         1.0900         0.4525        27.8128         2.4171         1.9767        83.5575     
 7846.5000         9.9876         9.8892         0.0674        92.5867        89.1610        89.2426         2.4645         0.4265         0.9511         0.4981        28.4479         2.4288         1.9560        83.5086     
 7847.0000         9.9679         9.9116         0.0703        95.3716        92.2349        92.6564         2.5538         0.4639         0.9226         0.5227        28.5389         2.4216         2.0832        83.4398     
 7847.5000         9.9076         9.9147         0.0625        95.3573        94.0977        94.9384         2.6430         0.4742         0.9746         0.5189        28.3895         2.4010         2.2997        83.3711     
 7848.0000         9.8783         9.9031         0.0544        93.6171        96.6718        96.4030         2.7426         0.4517         1.1333         0.5089        27.7306         2.4164         2.5162        83.3023     
 7848.5000        10.0520         9.8728         0.0450        91.8768       100.1637        99.1526         2.8616         0.4489         1.0216         0.5098        25.9436         2.3936         2.7327        83.2336     
 7849.0000        10.0581         9.8550         0.0620        90.1337       101.8304       100.5484         2.9808         0.7342         1.3576         0.5274        26.5019         2.4078         2.9496        83.1647     
 7849.5000         9.9758         9.8410         0.0831        88.3935       108.0706       105.8361         3.0548         1.2497         2.5387         0.7828        26.9801         2.4230         3.1625        83.0488     
 7850.0000        10.0076         9.8653         0.0971        87.9551       110.7764       111.7299         3.1090         1.2843         1.9947         1.1163        26.9013         2.4129         3.2624        82.9267     
 7850.5000         9.8214         9.7605         0.1080        89.9585       111.0424       114.9537         3.1632         1.1338         2.4204         1.1044        26.3505         2.4156         3.2910        82.8047     
 7851.0000         9.6585         9.6928         0.0862        91.8347       110.9769       118.2657         3.2174         1.2605         2.6867         1.1246        26.7665         2.4285         3.2585        82.6825     
 7851.5000         9.6419         9.6853         0.0883        93.0242       110.9578       119.1764         3.2716         1.5431         2.6313         1.4020        26.9551         2.4085         3.2259        82.5605     
 7852.0000         9.6253         9.7056         0.0816        94.2137       110.9567       120.4213         3.2246         1.6785         3.1909         1.7353        27.3641         2.4222         3.1933        82.4384     
 7852.5000         9.6088         9.7753         0.0639        95.2853       110.9562       123.6704         3.1630         1.4622         2.4067         1.6234        26.5137         2.4071         3.1241        82.3164     
