~Version Information Section
VERS.          2.0                                     : CWLS LOG ASCII Standard
WRAP.          NO                                      : One line per depth step
CREA.          03/06/17                                : LAS Creation Date
~Well Information Section
STRT.ft        491.0000                                : Start Depth
STOP.ft        9197.0000                               : Stop Depth
STEP.ft        0.5000                                  : Step
NULL.          -999.2500                               : Null Value
COMP.          TEXACO PRODUCTION SERVICES LTD.         : Company
WELL.          14/20-2                                 : Well
FLD .          MORAY FIRTH                             : Field
LOC .          NORTH SEA                               : Location
LOC1.          -                                       : Location (UTM)
CTRY.          UK                                      : Country
PROV.          UKCS                                    : Province
UWI .          859                                     : UWI Number
API .          -                                       : API Number
SECT.          -                                       : Section
TOWN.          -                                       : Township
RNGE.          -                                       : Range
PDAT.          MSL                                     : Perm Datum
EPD .ft        0.0                                       : Elevation
LMF .          KB                                      : Log Measured From
DMF .          KB                                      : Drill Measured From
APD .ft        82.0                                    : Above Perm Datum
EKB .ft        82.0                                    : Elev-Kelly Bushing
EDF .ft        81.0                                    : Elev-Drill Floor
EGL .ft        -426.0                                  : Elev-Ground Level (Water Depth)
TDD .ft        9200.0                                  : Total Depth (Driller)
TDL .ft        9197.0                                  : Total Depth (Logger)
SRVC.          SCHLUMBERGER                            : Service Company
LATI.          58 20 30.98" N                          : Latitude
LONG.          00 08 39.66" W                          : Longitude
DATE.          MAY-JUN-1975                            : Logging Date
PROJ.          UKCS                                    : Project
SET .          COMP_WIRE                               : Set
~Curve Information Section
DEPTH.ft                                               : Depth Curve
CALD.in                                                : Caliper (from FDC/CNL/GR)
MCAL.in                                                : Caliper (from MLL/ML)
DRHO.g/cc                                              : Delta Rho
DT.us/ft                                               : Delta-T
GR.gAPI                                                : Gamma Ray (from ISF/BHC/GR)
GRD.gAPI                                               : Gamma Ray (from FDC/CNL/GR)
ILD.Ohmm                                               : Deep Induction Standard Processed Resistivity
MINV.Ohmm                                              : Micro-Inverse Resistivity
MLL.Ohmm                                               : Mll Resistivity
MNOR.Ohmm                                              : Micro-Normal Resistivity
NPHI.LPU                                               : Neutron Porosity
RHOB.g/cc                                              : Bulk Density
SFLU.Ohmm                                              : SFL Resistivity (Unaveraged)
SP.mV                                                  : Spontaneous Potential
~ASCII Log Data Section
# ...
 9077.0000         9.0722         9.0667         0.0685       124.6971        57.4782        50.5004         7.0575         1.4657         2.3631         1.9230        52.1343         1.7686         9.6518        86.5604     
 9077.5000         9.2373         9.0373         0.0457       117.1877        66.3120        60.0002         7.5386         1.4047         3.5296         1.4089        49.4431         1.9677         8.8162        86.6635     
 9078.0000         9.1042         9.0479         0.0347       108.7019        78.7700        77.3958         8.0198         1.3974         5.8341         1.5464        46.5533         1.9980         8.6845        86.7665     
 9078.5000         9.0023         9.0501         0.0472       100.2161        87.6179        90.9195         8.3322         2.9839         8.1643         2.3241        44.9855         2.3160         8.9693        86.8696     
 9079.0000         8.9513         9.0655         0.0308        91.7304        94.3119       100.9307         8.6001         2.7287        11.1318         3.0080        44.6550         2.3463         9.4430        86.9726     
 9079.5000         8.9383         9.0957         0.0056        84.0565        96.2895       102.6299         8.8721         3.8235         9.8977         3.6892        45.6591         2.3208        10.0275        87.0758     
 9080.0000         8.9254         9.1428        -0.0084        80.0749        90.9239       101.5156         9.1483         4.4988         7.5540         4.3357        45.4039         2.2907        10.6112        87.1788     
 9080.5000         8.9187         9.2184        -0.0113        86.6814        86.2015        96.5219         9.1578         3.2041         3.3899         4.3446        44.7733         2.1855        10.9762        87.2819     
 9081.0000         8.9410         9.2730         0.0093        93.2879        79.5983        90.0170         9.1762         1.4380         2.1779         1.6088        44.5806         2.0677        11.2212        87.3849     
 9081.5000         8.9771         9.2356         0.0299        99.9049        72.8235        82.2483         9.3187         1.3685         1.8170         0.8679        46.0738         1.9874        11.4666        87.4881     
 9082.0000         9.0387         9.1680         0.0646       106.5114        68.1011        75.5843         9.4611         1.1609         2.9968         1.1186        48.4188         1.7935        11.7117        87.5912     
 9082.5000         9.1355         9.1317         0.0301       113.1179        66.8064        69.6692         9.6035         1.6515         3.6580         1.4852        47.7114         1.9112        11.1700        87.7907     
 9083.0000         9.1622         9.1319        -0.0042       104.3451        74.2927        79.1771         9.3175         1.9738         3.4164         1.8697        45.0760         1.9970        10.4524        88.0267     
 9083.5000         9.1367         9.1484         0.0327        94.8907        84.9914       100.8127         8.5423         3.2889         4.8580         2.7571        44.6005         1.9985         9.7336        88.2630     
 9084.0000         9.0760         9.1695         0.0143        85.4504        92.5589       103.5452         7.7677         4.6185         5.5830         3.6789        44.7267         2.2299         9.6286        88.4989     
 9084.5000         8.9707         9.2131         0.0286        90.6728        92.3944       105.9045         6.9930         4.9243         9.8041         3.5427        43.9050         2.1491         9.6769        88.7349     
 9085.0000         8.9472         9.2946         0.0559        97.6588        82.7763       100.5703         6.7649         4.1437         9.0923         3.7431        47.5405         1.9990         8.8508        88.9709     
 9085.5000         8.9803         9.4031         0.0833       104.6449        75.8398        87.2197         6.8981         2.1675         7.2501         3.5689        49.6823         1.9683         7.9928        89.2068     
 9086.0000         9.1472         9.4567         0.1423       111.6422        66.1275        75.3233         7.0322         1.2828         2.8967         1.5655        51.1763         1.8180         7.1334        89.4431     
 9086.5000         9.3575         9.3857         0.1339       118.6283        59.9797        66.0367         7.1660         2.2753         4.3534         2.2906        52.6018         1.7891         7.3961        89.6790     
 9087.0000         9.3749         9.1926         0.0940       125.6143        62.4534        66.0842         7.2246         1.6918         3.7521         3.1879        54.0295         1.8447         7.9951        89.8471     
 9087.5000         9.4105         9.0099         0.0547       126.1510        70.1365        67.4225         7.0807         2.8254         7.4091         4.1504        55.4414         1.8427         8.5940        89.9106     
 9088.0000         9.5814         8.9457         0.0209       120.4177        75.8127        73.5150         6.7833         3.9337        10.9352         3.8780        48.3903         1.9343         8.6443        89.9740     
 9088.5000         9.5828         8.9894         0.0124       110.4784        83.7327        84.7887         6.2878         3.7573        10.7465         3.2581        45.0893         1.9979         8.3592        90.0374     
 9089.0000         9.1227         9.0220         0.0038       100.5391        88.7924       100.5911         5.7924         0.6772         9.7254         0.5997        45.0092         1.9998         7.7708        90.1007     
 9089.5000         8.8022         8.9972         0.0642        90.5998        93.7122       105.7382         5.3544         0.9357         4.6947         0.8471        38.0395         2.3560         6.8012        90.1640     
 9090.0000         8.6190         9.1818         0.1436        85.4293        93.3385       103.5295         4.9970         0.4565         1.1300         0.3515        38.3959         2.3832         5.8301        90.2135     
 9090.5000         8.6965         9.1183         0.0981        88.0424        91.8566       100.2565         4.6403         0.3557         0.7647         0.4569        41.4163         2.2735         4.8606        90.0480     
 9091.0000         8.8882         9.0268         0.0526        90.3672        91.0047        96.0000         4.2836         0.4817         0.8613         0.3371        46.1462         2.1532         3.9444        89.8825     
 9091.5000         9.2083         9.1141         0.0310        91.4029        90.0959        95.8111         4.1771         0.3711         0.7907         0.4138        48.4270         2.0595         3.9845        89.7171     
 9092.0000         9.0434         9.1988         0.0124        99.3209        88.7016        91.3062         4.1007         0.3051         0.8612         0.3752        49.5498         1.9695         4.0744        89.5516     
 9092.5000         9.1260         9.1529        -0.0057       112.7692        83.8765        83.9434         4.0242         0.5835         1.9433         0.5701        50.6708         1.8707         4.3815        89.3858     
 9093.0000         9.1557         9.1015         0.0090       117.8496        70.7403        67.4721         4.2153         1.0295         3.8930         0.8415        53.4145         1.7175         5.3232        89.2203     
 9093.5000         9.5292         9.0384        -0.0029       122.9299        62.5808        59.8756         4.4408         1.6385         1.7880         0.7836        55.1007         1.6847         6.2650        89.0548     
 9094.0000         9.4546         8.7928        -0.0032       123.8862        59.7175        59.2041         4.6662         1.3260         2.1964         1.4349        51.5701         1.8777         6.6536        88.8893     
 9094.5000         9.4616         8.6989         0.0129       110.4246        71.9623        69.4799         4.8494         2.4738         5.4906         1.6750        45.4802         1.9915         6.3012        88.7236     
