~Version Information Section
VERS.          2.0                                     : CWLS LOG ASCII Standard
WRAP.          NO                                      : One line per depth step
CREA.          03/06/17                                : LAS Creation Date
~Well Information Section
STRT.ft        491.0000                                : Start Depth
STOP.ft        9197.0000                               : Stop Depth
STEP.ft        0.5000                                  : Step
NULL.          -999.2500                               : Null Value
COMP.          TEXACO PRODUCTION SERVICES LTD.         : Company
WELL.          14/20-2                                 : Well
FLD .          MORAY FIRTH                             : Field
LOC .          NORTH SEA                               : Location
LOC1.          -                                       : Location (UTM)
CTRY.          UK                                      : Country
PROV.          UKCS                                    : Province
UWI .          859                                     : UWI Number
API .          -                                       : API Number
SECT.          -                                       : Section
TOWN.          -                                       : Township
RNGE.          -                                       : Range
PDAT.          MSL                                     : Perm Datum
EPD .ft        0.0                                       : Elevation
LMF .          KB                                      : Log Measured From
DMF .          KB                                      : Drill Measured From
APD .ft        82.0                                    : Above Perm Datum
EKB .ft        82.0                                    : Elev-Kelly Bushing
EDF .ft        81.0                                    : Elev-Drill Floor
EGL .ft        -426.0                                  : Elev-Ground Level (Water Depth)
TDD .ft        9200.0                                  : Total Depth (Driller)
TDL .ft        9197.0                                  : Total Depth (Logger)
SRVC.          SCHLUMBERGER                            : Service Company
LATI.          58 20 30.98" N                          : Latitude
LONG.          00 08 39.66" W                          : Longitude
DATE.          MAY-JUN-1975                            : Logging Date
PROJ.          UKCS                                    : Project
SET .          COMP_WIRE                               : Set
~Curve Information Section
DEPTH.ft                                               : Depth Curve
CALD.in                                                : Caliper (from FDC/CNL/GR)
MCAL.in                                                : Caliper (from MLL/ML)
DRHO.g/cc                                              : Delta Rho
DT.us/ft                                               : Delta-T
GR.gAPI                                                : Gamma Ray (from ISF/BHC/GR)
GRD.gAPI                                               : Gamma Ray (from FDC/CNL/GR)
ILD.Ohmm                                               : Deep Induction Standard Processed Resistivity
MINV.Ohmm                                              : Micro-Inverse Resistivity
MLL.Ohmm                                               : Mll Resistivity
MNOR.Ohmm                                              : Micro-Normal Resistivity
NPHI.LPU                                               : Neutron Porosity
RHOB.g/cc                                              : Bulk Density
SFLU.Ohmm                                              : SFL Resistivity (Unaveraged)
SP.mV                                                  : Spontaneous Potential
~ASCII Log Data Section
# ...
 7943.0000         8.1738         8.1567         0.0465        88.3284        58.0793        64.1803         0.3949         0.4446         0.8265         0.5632        24.8528         2.2313         0.6426        75.7419     
 7943.5000         8.1692         8.1735         0.0606        88.5272        60.1180        63.1804         0.4083         0.4444         1.0024         0.5520        24.9694         2.2490         0.6539        75.7420     
 7944.0000         8.1700         8.1739         0.0725        88.7260        61.3794        62.3172         0.4193         0.4442         0.9480         0.5384        25.2702         2.2633         0.6686        75.7422     
 7944.5000         8.1794         8.1743         0.0643        88.5257        61.2995        60.8840         0.4297         0.4440         0.9681         0.5388        25.5659         2.2634         0.6815        75.7423     
 7945.0000         8.1920         8.1747         0.0516        88.2381        61.0992        58.6551         0.4301         0.4575         0.8876         0.5476        25.7241         2.2625         0.6692        75.6126     
 7945.5000         8.2046         8.1751         0.0515        87.9504        60.8312        56.3733         0.4211         0.4814         0.9624         0.5663        25.7534         2.2680         0.6569        75.4782     
 7946.0000         8.2172         8.1755         0.0500        87.6626        59.7132        55.3235         0.4120         0.5034         0.9018         0.5806        25.4170         2.2747         0.6431        75.3437     
 7946.5000         8.2298         8.1759         0.0438        87.7773        58.2134        54.1189         0.4045         0.5053         0.7979         0.5800        24.9553         2.2772         0.6103        75.2091     
 7947.0000         8.2423         8.1763         0.0325        88.0952        55.8912        52.5789         0.3997         0.4960         0.7540         0.5737        24.5863         2.2706         0.5775        75.0746     
 7947.5000         8.2549         8.1767         0.0173        88.4131        55.8771        52.5878         0.3949         0.4866         0.7033         0.5670        24.4918         2.2411         0.5447        74.9402     
 7948.0000         8.2675         8.1771         0.0155        88.7311        56.5300        53.8153         0.3900         0.4773         0.6520         0.5601        24.6684         2.2113         0.5178        74.8058     
 7948.5000         8.2801         8.1775         0.0241        89.0488        57.3776        55.4286         0.3869         0.4703         0.6009         0.5532        25.0279         2.2058         0.4915        74.6711     
 7949.0000         8.2849         8.1779         0.0326        88.9123        58.4231        57.4047         0.3851         0.4652         0.5500         0.5463        25.5373         2.2102         0.4687        74.5367     
 7949.5000         8.2811         8.1783         0.0418        88.5475        60.7821        60.7201         0.3858         0.4625         0.4991         0.5394        26.1041         2.2121         0.4580        74.4025     
 7950.0000         8.2768         8.1787         0.0489        88.1827        62.4940        64.5276         0.3886         0.4619         0.4951         0.5336        26.6569         2.2208         0.4567        74.4370     
 7950.5000         8.2726         8.1791         0.0540        87.8179        64.9239        66.9249         0.3914         0.4662         0.6616         0.5319        27.0795         2.2337         0.4876        74.6573     
 7951.0000         8.2683         8.1795         0.0556        87.0195        67.3278        71.4843         0.3942         0.4704         1.2567         0.5286        27.3980         2.2323         0.5185        74.8783     
 7951.5000         8.2640         8.1799         0.0433        86.1420        69.0376        77.5231         0.4000         0.4671         1.0250         0.5209        27.7532         2.2198         0.5494        75.0988     
 7952.0000         8.2598         8.1803         0.0314        85.2645        68.2237        75.6433         0.4069         0.4381         0.6735         0.5081        28.1759         2.2099         0.5803        75.3194     
 7952.5000         8.2555         8.1807         0.0410        84.3869        66.3837        67.3653         0.4138         0.4164         0.6245         0.5056        27.9771         2.2115         0.5569        75.5400     
 7953.0000         8.2503         8.1811         0.0517        84.5289        63.8987        62.3760         0.4207         0.4372         0.6095         0.5142        27.0237         2.2190         0.5287        75.7609     
 7953.5000         8.2280         8.1815         0.0611        85.5545        62.9213        61.3513         0.4338         0.4502         0.6009         0.5248        26.5737         2.2343         0.5004        75.8385     
 7954.0000         8.1768         8.1819         0.0624        86.5816        67.3457        64.1157         0.4476         0.4512         0.6441         0.5418        26.3343         2.2462         0.5162        75.1582     
 7954.5000         8.1455         8.1824         0.0519        87.6087        71.7500        69.0742         0.4606         0.4539         0.9175         0.5299        25.5635         2.2392         0.5404        74.4779     
 7955.0000         8.1680         8.2028         0.0458        88.1285        74.2790        74.3118         0.4713         0.4531         0.9185         0.5148        25.3408         2.2346         0.5767        74.1697     
 7955.5000         8.2117         8.2032         0.0519        88.5620        77.8353        79.2354         0.4820         0.4567         0.7290         0.5146        26.0550         2.2474         0.6130        74.2480     
 7956.0000         8.2392         8.2036         0.0604        88.9954        80.3571        84.2014         0.4927         0.4673         0.8236         0.5445        26.7434         2.2668         0.6368        74.3263     
 7956.5000         8.2494         8.2040         0.0546        89.4801        82.1278        89.2688         0.5036         0.5614         0.9572         0.6589        26.9464         2.2612         0.6444        74.4046     
 7957.0000         8.2500         8.2044         0.0491        90.1841        83.1788        95.2867         0.5162         0.7579         1.4145         0.8389        26.7463         2.2572         0.6589        74.4829     
 7957.5000         8.2497         8.2145         0.0515        90.8893        86.5216       100.8705         0.5289         0.7696         1.4652         0.8510        27.3476         2.2714         0.7294        74.6333     
 7958.0000         8.2454         8.1904         0.0580        91.5933        89.7974        98.6802         0.5386         0.6122         0.9909         0.6939        27.8089         2.2950         0.7863        74.9274     
 7958.5000         8.2322         8.1169         0.0570        92.2617        86.4616        89.3508         0.5444         0.4986         0.7356         0.5509        27.6536         2.3005         0.7474        75.2216     
 7959.0000         8.2195         8.1741         0.0367        92.8970        80.5378        80.5045         0.5502         0.4741         0.7277         0.4984        26.9374         2.2654         0.7086        75.5157     
 7959.5000         8.2108         8.1863         0.0234        93.5101        76.2734        75.8078         0.5559         0.4824         0.8872         0.5131        26.3864         2.2342         0.6697        75.8103     
 7960.0000         8.2097         8.1867         0.0384        92.8246        72.6008        74.9059         0.5609         0.5126         1.1980         0.5859        26.1967         2.2275         0.6309        76.1044     
 7960.5000         8.2006         8.1871         0.0412        92.1391        76.3433        76.9482         0.5715         0.5552         1.0385         0.6908        26.4879         2.2370         0.6537        76.0744     
