~Version Information Section
VERS.          2.0                                     : CWLS LOG ASCII Standard
WRAP.          NO                                      : One line per depth step
CREA.          03/06/17                                : LAS Creation Date
~Well Information Section
STRT.ft        1441.0000                               : Start Depth
STOP.ft        10644.0000                              : Stop Depth
STEP.ft        0.5000                                  : Step
NULL.          -999.2500                               : Null Value
COMP.          TEXACO PRODUCTION SERVICES LTD.         : Company
WELL.          14/20-5                                 : Well
FLD .          MORAY FIRTH                             : Field
LOC .          NORTH SEA                               : Location
LOC1.          -                                       : Location (UTM)
CTRY.          UK                                      : Country
PROV.          UKCS                                    : Province
UWI .          862                                     : UWI Number
API .          -                                       : API Number
SECT.          -                                       : Section
TOWN.          -                                       : Township
RNGE.          -                                       : Range
PDAT.          MSL                                     : Perm Datum
EPD .ft        0.0                                     : Elevation
LMF .          RKB                                     : Log Measured From
DMF .          RKB                                     : Drill Measured From
APD .ft        88.0                                    : Above Perm Datum
EKB .ft        88.0                                    : Elev-Kelly Bushing
EDF .ft        87.0                                    : Elev-Drill Floor
EGL .ft        -438.0                                  : Elev-Ground Level (Water Depth)
TDD .ft        10629.0                                 : Total Depth (Driller)
TDL .ft        10645.0                                 : Total Depth (Logger)
SRVC.          SCHLUMBERGER                            : Service Company
LATI.          58 23 39.75" N                          : Latitude
LONG.          00 07 23.05" W                          : Longitude
DATE.          MAR-APR-1976                            : Logging Date
PROJ.          UKCS                                    : Project
SET .          COMP_WIRE                               : Set
~Curve Information Section
DEPTH.ft                                               : Depth Curve
CALD.in                                                : Caliper (from FDC/CNL/GR)
DRHO.g/cc                                              : Delta Rho
DT.us/ft                                               : Delta-T
GR.gAPI                                                : Gamma Ray (from ISF/BHC/GR)
GRD.gAPI                                               : Gamma Ray (from FDC/CNL/GR)
ILD.Ohmm                                               : Deep Induction Standard Processed Resistivity
NPHI.LPU                                               : Neutron Porosity
RHOB.g/cc                                              : Bulk Density
SFLU.Ohmm                                              : SFL Resistivity (Unaveraged)
SP.mV                                                  : Spontaneous Potential
~ASCII Log Data Section
# ...
 6390.0000      -999.2500      -999.2500        80.3086        53.0547      -999.2500         3.4696      -999.2500      -999.2500         2.9435       -36.6665     
 6390.5000      -999.2500      -999.2500        84.0703        54.5859      -999.2500         3.3162      -999.2500      -999.2500         2.7944       -36.4956     
 6391.0000      -999.2500      -999.2500        82.1543        55.9697      -999.2500         3.1801      -999.2500      -999.2500         2.1606       -36.5808     
 6391.5000      -999.2500      -999.2500        83.1048        56.0996      -999.2500         3.0734      -999.2500      -999.2500         2.0364       -36.8170     
 6392.0000      -999.2500      -999.2500        81.4238        54.3301      -999.2500         2.9917      -999.2500      -999.2500         2.0463       -37.1558     
 6392.5000      -999.2500      -999.2500        79.6908        50.3899      -999.2500         2.9275      -999.2500      -999.2500         1.9797       -37.5475     
 6393.0000      -999.2500      -999.2500        78.5586        45.3008      -999.2500         2.8844      -999.2500      -999.2500         1.9644       -37.8948     
 6393.5000      -999.2500      -999.2500        79.0527        41.1328      -999.2500         2.9600      -999.2500      -999.2500         2.1775       -38.1356     
 6394.0000      -999.2500      -999.2500        77.2480        37.8438      -999.2500         3.1736      -999.2500      -999.2500         2.4162       -38.1460     
 6394.5000      -999.2500      -999.2500        75.2988        37.1133      -999.2500         3.4790      -999.2500      -999.2500         2.3975       -37.9932     
 6395.0000      -999.2500      -999.2500        73.8340        38.3477      -999.2500         3.7693      -999.2500      -999.2500         2.3516       -37.8936     
 6395.5000      -999.2500      -999.2500        71.1992        38.3955      -999.2500         3.9481      -999.2500      -999.2500         2.4147       -37.8405     
 6396.0000      -999.2500      -999.2500        68.4570        37.9998      -999.2500         3.9779      -999.2500      -999.2500         2.5348       -37.8035     
 6396.5000      -999.2500      -999.2500        65.7773        40.3086      -999.2500         3.6494      -999.2500      -999.2500         2.7021       -37.7480     
 6397.0000      -999.2500      -999.2500        64.3486        43.5273      -999.2500         3.0605      -999.2500      -999.2500         3.0132       -37.6592     
 6397.5000      -999.2500      -999.2500        65.6484        49.1094      -999.2500         2.4170      -999.2500      -999.2500         3.3923       -37.4971     
 6398.0000      -999.2500      -999.2500        80.5953        56.3125      -999.2500         1.9420      -999.2500      -999.2500         3.3939       -37.1376     
 6398.5000      -999.2500      -999.2500        97.5156        63.2500      -999.2500         1.8417      -999.2500      -999.2500         1.4443       -36.6904     
 6399.0000      -999.2500      -999.2500       119.8571        69.6277      -999.2500         1.7320      -999.2500      -999.2500         1.2038       -36.2796     
 6399.5000      -999.2500      -999.2500       126.4688        75.8047      -999.2500         1.5747      -999.2500      -999.2500         0.9725       -35.9167     
 6400.0000      -999.2500      -999.2500       131.1953        79.0352      -999.2500         1.3938      -999.2500      -999.2500         0.9222       -35.8655     
 6400.5000      -999.2500      -999.2500       131.2246        80.1860      -999.2500         1.2225      -999.2500      -999.2500         0.8110       -35.8231     
 6401.0000      -999.2500      -999.2500       130.0781        80.3901      -999.2500         1.1639      -999.2500      -999.2500         0.7036       -35.7950     
 6401.5000      -999.2500      -999.2500       129.2505        79.7461      -999.2500         1.1267      -999.2500      -999.2500         0.6902       -35.8136     
 6402.0000      -999.2500      -999.2500       128.8831        78.0977      -999.2500         1.1105      -999.2500      -999.2500         0.6908       -35.8751     
 6402.5000      -999.2500      -999.2500       129.1792        76.7334      -999.2500         1.1049      -999.2500      -999.2500         0.6908       -35.9945     
 6403.0000      -999.2500      -999.2500       131.9912        77.2109      -999.2500         1.1129      -999.2500      -999.2500         0.6823       -36.1012     
 6403.5000      -999.2500      -999.2500       134.5313        78.5781      -999.2500         1.1217      -999.2500      -999.2500         0.6631       -36.1339     
 6404.0000      -999.2500      -999.2500       138.3945        80.0850      -999.2500         1.1119      -999.2500      -999.2500         0.6413       -36.1716     
 6404.5000      -999.2500      -999.2500       140.7630        81.3525      -999.2500         1.0667      -999.2500      -999.2500         0.6317       -35.8864     
 6405.0000      -999.2500      -999.2500       142.3662        82.7695      -999.2500         1.0319      -999.2500      -999.2500         0.6241       -35.1514     
 6405.5000      -999.2500      -999.2500       143.2620        84.4245      -999.2500         1.0173      -999.2500      -999.2500         0.6119       -34.9841     
 6406.0000      -999.2500      -999.2500       144.0889        86.3145      -999.2500         1.0138      -999.2500      -999.2500         0.5980       -35.1250     
 6406.5000      -999.2500      -999.2500       144.8635        88.1152      -999.2500         1.0236      -999.2500      -999.2500         0.5923       -35.2643     
 6407.0000      -999.2500      -999.2500       144.3867        87.8164      -999.2500         1.0423      -999.2500      -999.2500         0.5952       -35.3894     
 6407.5000      -999.2500      -999.2500       141.5195        86.3750      -999.2500         1.0686      -999.2500      -999.2500         0.6151       -35.5214     
 6408.0000      -999.2500      -999.2500       136.9766        84.3594      -999.2500         1.1049      -999.2500      -999.2500         0.6591       -35.6593     
 6408.5000      -999.2500      -999.2500       129.2969        82.1523      -999.2500         1.1528      -999.2500      -999.2500         0.7145       -35.8065     
 6409.0000      -999.2500      -999.2500       120.8008        83.6172      -999.2500         1.2084      -999.2500      -999.2500         0.7915       -35.9463     
 6409.5000      -999.2500      -999.2500       120.2229        84.2286      -999.2500         1.2554      -999.2500      -999.2500         0.8884       -36.0769     
 6410.0000      -999.2500      -999.2500       122.5586        83.5254      -999.2500         1.3068      -999.2500      -999.2500         0.9304       -36.1871     
 6410.5000      -999.2500      -999.2500       125.7266        83.1479      -999.2500         1.3657      -999.2500      -999.2500         0.9234       -36.2859     
 6411.0000      -999.2500      -999.2500       126.8926        85.6406      -999.2500         1.3923      -999.2500      -999.2500         0.9078       -36.3735     
 6411.5000      -999.2500      -999.2500       123.1797        89.3477      -999.2500         1.3825      -999.2500      -999.2500         0.8974       -36.2639     
 6412.0000      -999.2500      -999.2500       118.8672        91.4561      -999.2500         1.3534      -999.2500      -999.2500         0.9153       -36.0920     
 6412.5000      -999.2500      -999.2500       116.7168        90.9971      -999.2500         1.3229      -999.2500      -999.2500         0.9364       -35.9202     
 6413.0000      -999.2500      -999.2500       115.2803        88.9375      -999.2500         1.2957      -999.2500      -999.2500         0.9306       -35.6987     
 6413.5000      -999.2500      -999.2500       118.9414        87.5332      -999.2500         1.2665      -999.2500      -999.2500         0.8986       -35.5625     
 6414.0000      -999.2500      -999.2500       125.3594        87.5117      -999.2500         1.2390      -999.2500      -999.2500         0.8665       -35.5306     
