~Version Information Section
VERS.          2.0                                     : CWLS LOG ASCII Standard
WRAP.          NO                                      : One line per depth step
CREA.          03/06/17                                : LAS Creation Date
~Well Information Section
STRT.ft        1441.0000                               : Start Depth
STOP.ft        10644.0000                              : Stop Depth
STEP.ft        0.5000                                  : Step
NULL.          -999.2500                               : Null Value
COMP.          TEXACO PRODUCTION SERVICES LTD.         : Company
WELL.          14/20-5                                 : Well
FLD .          MORAY FIRTH                             : Field
LOC .          NORTH SEA                               : Location
LOC1.          -                                       : Location (UTM)
CTRY.          UK                                      : Country
PROV.          UKCS                                    : Province
UWI .          862                                     : UWI Number
API .          -                                       : API Number
SECT.          -                                       : Section
TOWN.          -                                       : Township
RNGE.          -                                       : Range
PDAT.          MSL                                     : Perm Datum
EPD .ft        0.0                                     : Elevation
LMF .          RKB                                     : Log Measured From
DMF .          RKB                                     : Drill Measured From
APD .ft        88.0                                    : Above Perm Datum
EKB .ft        88.0                                    : Elev-Kelly Bushing
EDF .ft        87.0                                    : Elev-Drill Floor
EGL .ft        -438.0                                  : Elev-Ground Level (Water Depth)
TDD .ft        10629.0                                 : Total Depth (Driller)
TDL .ft        10645.0                                 : Total Depth (Logger)
SRVC.          SCHLUMBERGER                            : Service Company
LATI.          58 23 39.75" N                          : Latitude
LONG.          00 07 23.05" W                          : Longitude
DATE.          MAR-APR-1976                            : Logging Date
PROJ.          UKCS                                    : Project
SET .          COMP_WIRE                               : Set
~Curve Information Section
DEPTH.ft                                               : Depth Curve
CALD.in                                                : Caliper (from FDC/CNL/GR)
DRHO.g/cc                                              : Delta Rho
DT.us/ft                                               : Delta-T
GR.gAPI                                                : Gamma Ray (from ISF/BHC/GR)
GRD.gAPI                                               : Gamma Ray (from FDC/CNL/GR)
ILD.Ohmm                                               : Deep Induction Standard Processed Resistivity
NPHI.LPU                                               : Neutron Porosity
RHOB.g/cc                                              : Bulk Density
SFLU.Ohmm                                              : SFL Resistivity (Unaveraged)
SP.mV                                                  : Spontaneous Potential
~ASCII Log Data Section
# ...
10040.5000         8.2115         0.0188        78.3901       118.2422        96.2027         0.6918        18.4186         2.3273         1.4859       -47.7615     
10041.0000         8.2477         0.0175        78.4834       116.4414        95.5747         0.6617        18.7691         2.3284         1.5165       -47.5430     
10041.5000         8.2889         0.0147        78.5573       116.8047        95.3036         0.6455        18.9701         2.3260         1.5094       -47.3286     
10042.0000         8.3302         0.0136        78.6292       119.7453        96.9972         0.6609        19.1296         2.3239         1.4115       -47.0761     
10042.5000         8.3715         0.0155        78.5303       123.2656       101.7311         0.7006        19.2693         2.3301         1.2687       -46.7451     
10043.0000         8.4064         0.0207        77.6875       132.3125       108.7795         0.7173        19.4669         2.3403         1.1697       -46.3926     
10043.5000         8.4011         0.0234        77.2823       147.7656       116.6053         0.6936        19.8943         2.3471         1.1565       -46.3179     
10044.0000         8.3649         0.0147        77.5195       157.7031       124.6429         0.6226        20.5970         2.3512         1.3901       -46.7334     
10044.5000         8.3246         0.0027        78.5122       156.8906       128.5818         0.5855        21.5737         2.3541         1.7281       -47.1847     
10045.0000         8.2845        -0.0030        79.8184       142.4063       126.8770         0.5774        22.4240         2.3570         1.1914       -47.4326     
10045.5000         8.2638        -0.0036        80.7197       130.2813       114.8367         0.5919        22.1823         2.3552         1.1388       -47.5835     
10046.0000         8.2210        -0.0019        81.2010       109.8438        98.9469         0.6104        21.4152         2.3296         0.9564       -47.7067     
10046.5000         8.1601         0.0010        81.5952       107.9727        91.8060         0.6220        21.0092         2.3003         0.6953       -47.6785     
10047.0000         8.1341         0.0037        81.3906       111.1563        91.5420         0.6171        20.8396         2.2905         0.7683       -47.6259     
10047.5000         8.1173         0.0051        80.8223       117.2188        93.8556         0.6036        20.6248         2.2935         1.1091       -47.6523     
10048.0000         8.1113         0.0078        79.9277       120.8672        97.8990         0.5925        20.2295         2.3022         1.4746       -47.4932     
10048.5000         8.1196         0.0129        79.3886       121.9514       102.6339         0.5791        19.3426         2.3187         1.8022       -46.7200     
10049.0000         8.1336         0.0135        80.1295       123.1875       106.2517         0.5578        18.8012         2.3314         2.0789       -45.8419     
10049.5000         8.1650         0.0111        81.2148       120.9688       109.1005         0.5313        19.2798         2.3354         1.9473       -45.0273     
10050.0000         8.2061         0.0100        82.2832       118.3398       110.5103         0.5081        20.4889         2.3312         1.1519       -44.5859     
10050.5000         8.2475         0.0108        82.4072       115.6797       107.9875         0.4978        21.1448         2.3190         0.8046       -43.9935     
10051.0000         8.2888         0.0133        81.8789       117.5781       105.2444         0.4917        21.1745         2.3053         0.7075       -43.0059     
10051.5000         8.3301         0.0170        81.1406       125.4375       106.1026         0.5056        21.3597         2.3006         0.6378       -40.8984     
10052.0000         8.3714         0.0218        80.1270       136.0625       114.6323         0.5482        21.6816         2.3050         0.5632       -38.4805     
10052.5000         8.4007         0.0265        78.8535       154.3750       128.1365         0.6240        21.6751         2.3243         0.8438       -35.7070     
10053.0000         8.4096         0.0266        77.1976       172.9375       142.9793         0.8300        20.9488         2.3395         1.4819       -33.8635     
10053.5000         8.4102         0.0210        74.5547       174.7988       151.6133         1.4463        19.9943         2.3596         2.3945       -32.1523     
10054.0000         8.3952         0.0137        70.7109       172.0703       150.9641         2.1152        18.5607         2.3952         5.3125       -30.1660     
10054.5000         8.3286         0.0115        67.6836       168.0625       147.8032         2.6904        17.1146         2.4298         8.3008       -28.5742     
10055.0000         8.2808         0.0134        66.6206       166.7813       152.7078         3.4237        15.9046         2.4685         7.8155       -27.2463     
10055.5000         8.2605         0.0120        68.3242       174.7031       162.0053         4.0977        15.0017         2.5074         4.3438       -26.0605     
10056.0000         8.2613         0.0043        72.3438       186.6875       176.9323         4.5703        15.9602         2.5379         3.8984       -24.7852     
10056.5000         8.3835        -0.0004        73.4196       190.1819       184.1470         4.7603        17.7713         2.5525         4.7422       -23.7305     
10057.0000         8.4962         0.0014        73.7959       188.8125       180.9304         4.8263        18.7129         2.5475         6.0967       -22.8008     
10057.5000         8.5288         0.0059        74.7008       185.3438       178.3763         4.9236        18.3969         2.5319         6.4170       -21.9687     
10058.0000         8.5281         0.0128        75.3662       189.5625       181.1837         5.1606        18.0408         2.5237         6.7593       -21.1133     
10058.5000         8.5316         0.0164        75.6846       198.1484       184.8263         5.4990        18.2592         2.5259         7.4033       -20.2900     
10059.0000         8.5368         0.0154        75.5532       200.7578       183.8391         5.8070        18.7575         2.5308         7.6726       -19.6026     
10059.5000         8.5348         0.0102        75.1191       196.9688       179.8451         6.0273        19.0340         2.5333         7.6096       -18.9629     
10060.0000         8.5171         0.0098        74.3633       192.3594       176.0667         6.1237        18.4150         2.5364         7.7090       -18.6281     
10060.5000         8.5017         0.0140        73.2422       188.0469       173.3857         6.1902        17.6946         2.5433         7.7526       -18.5464     
10061.0000         8.4987         0.0160        71.8633       189.7813       172.6102         6.1933        17.4752         2.5476         8.9688       -18.5170     
10061.5000         8.4993         0.0143        71.8701       199.1016       177.3431         6.1490        17.6683         2.5458        11.0977       -18.5780     
10062.0000         8.4998         0.0080        77.4601       200.1627       185.2574         6.1007        18.8798         2.5428         8.9720       -18.6800     
10062.5000         8.5004         0.0042        82.5313       200.1631       198.6866         5.7998        21.3624         2.5396        10.2480       -18.9585     
10063.0000         8.5009         0.0107        84.6025       200.1636       211.8951         4.9902        26.1498         2.5362         8.5078       -19.3535     
10063.5000         8.5061         0.0162        82.9151       200.1642       222.4986         3.7659        29.6612         2.5345         7.6079       -19.7496     
10064.0000         8.5284         0.0107        79.4375       200.1646       227.3545         3.3311        29.2785         2.5386        10.6484       -20.1797     
10064.5000         8.5311         0.0088        78.5234       200.1652       230.0477         3.2136        27.4512         2.5451        13.8359       -20.8496     
