~Version Information Section
VERS.          2.0                                     : CWLS LOG ASCII Standard
WRAP.          NO                                      : One line per depth step
CREA.          03/06/17                                : LAS Creation Date
~Well Information Section
STRT.ft        1441.0000                               : Start Depth
STOP.ft        10644.0000                              : Stop Depth
STEP.ft        0.5000                                  : Step
NULL.          -999.2500                               : Null Value
COMP.          TEXACO PRODUCTION SERVICES LTD.         : Company
WELL.          14/20-5                                 : Well
FLD .          MORAY FIRTH                             : Field
LOC .          NORTH SEA                               : Location
LOC1.          -                                       : Location (UTM)
CTRY.          UK                                      : Country
PROV.          UKCS                                    : Province
UWI .          862                                     : UWI Number
API .          -                                       : API Number
SECT.          -                                       : Section
TOWN.          -                                       : Township
RNGE.          -                                       : Range
PDAT.          MSL                                     : Perm Datum
EPD .ft        0.0                                     : Elevation
LMF .          RKB                                     : Log Measured From
DMF .          RKB                                     : Drill Measured From
APD .ft        88.0                                    : Above Perm Datum
EKB .ft        88.0                                    : Elev-Kelly Bushing
EDF .ft        87.0                                    : Elev-Drill Floor
EGL .ft        -438.0                                  : Elev-Ground Level (Water Depth)
TDD .ft        10629.0                                 : Total Depth (Driller)
TDL .ft        10645.0                                 : Total Depth (Logger)
SRVC.          SCHLUMBERGER                            : Service Company
LATI.          58 23 39.75" N                          : Latitude
LONG.          00 07 23.05" W                          : Longitude
DATE.          MAR-APR-1976                            : Logging Date
PROJ.          UKCS                                    : Project
SET .          COMP_WIRE                               : Set
~Curve Information Section
DEPTH.ft                                               : Depth Curve
CALD.in                                                : Caliper (from FDC/CNL/GR)
DRHO.g/cc                                              : Delta Rho
DT.us/ft                                               : Delta-T
GR.gAPI                                                : Gamma Ray (from ISF/BHC/GR)
GRD.gAPI                                               : Gamma Ray (from FDC/CNL/GR)
ILD.Ohmm                                               : Deep Induction Standard Processed Resistivity
NPHI.LPU                                               : Neutron Porosity
RHOB.g/cc                                              : Bulk Density
SFLU.Ohmm                                              : SFL Resistivity (Unaveraged)
SP.mV                                                  : Spontaneous Potential
~ASCII Log Data Section
# ...
 7517.0000      -999.2500      -999.2500        68.6260        36.5010      -999.2500         7.1727      -999.2500      -999.2500         6.4648       -34.5985     
 7517.5000      -999.2500      -999.2500        68.0957        36.6063      -999.2500         7.1599      -999.2500      -999.2500         5.8965       -34.5459     
 7518.0000      -999.2500      -999.2500        66.3828        36.5558      -999.2500         7.0137      -999.2500      -999.2500         7.5576       -34.4528     
 7518.5000      -999.2500      -999.2500        65.7695        36.9369      -999.2500         6.7280      -999.2500      -999.2500         8.3054       -34.3426     
 7519.0000      -999.2500      -999.2500        66.5303        38.0234      -999.2500         6.4983      -999.2500      -999.2500         8.8086       -34.2151     
 7519.5000      -999.2500      -999.2500        67.5371        39.9258      -999.2500         6.3966      -999.2500      -999.2500         7.5000       -34.1439     
 7520.0000      -999.2500      -999.2500        69.2540        42.3318      -999.2500         6.3505      -999.2500      -999.2500         6.7698       -34.1325     
 7520.5000      -999.2500      -999.2500        70.5339        44.6161      -999.2500         6.2047      -999.2500      -999.2500         6.3251       -34.1394     
 7521.0000      -999.2500      -999.2500        70.9541        46.3945      -999.2500         5.9575      -999.2500      -999.2500         5.6456       -34.1484     
 7521.5000      -999.2500      -999.2500        71.1177        46.3477      -999.2500         5.8213      -999.2500      -999.2500         5.8828       -34.0859     
 7522.0000      -999.2500      -999.2500        71.1039        42.7891      -999.2500         5.7873      -999.2500      -999.2500         6.3536       -33.9358     
 7522.5000      -999.2500      -999.2500        71.0024        40.9365      -999.2500         5.7594      -999.2500      -999.2500         6.0552       -33.7485     
 7523.0000      -999.2500      -999.2500        70.8741        41.2281      -999.2500         5.7518      -999.2500      -999.2500         5.4443       -33.4629     
 7523.5000      -999.2500      -999.2500        70.8514        42.2627      -999.2500         5.7441      -999.2500      -999.2500         5.2825       -33.2834     
 7524.0000      -999.2500      -999.2500        70.2109        42.8350      -999.2500         5.8007      -999.2500      -999.2500         5.7109       -33.1913     
 7524.5000      -999.2500      -999.2500        69.3042        42.1820      -999.2500         5.8730      -999.2500      -999.2500         6.3819       -33.3555     
 7525.0000      -999.2500      -999.2500        69.0176        41.1846      -999.2500         5.9802      -999.2500      -999.2500         7.0430       -33.3875     
 7525.5000      -999.2500      -999.2500        70.3584        40.8384      -999.2500         6.1262      -999.2500      -999.2500         6.8320       -33.6729     
 7526.0000      -999.2500      -999.2500        70.0352        40.4409      -999.2500         6.2893      -999.2500      -999.2500         5.8135       -34.1138     
 7526.5000      -999.2500      -999.2500        67.8242        40.0449      -999.2500         6.3915      -999.2500      -999.2500         5.1855       -34.4268     
 7527.0000      -999.2500      -999.2500        65.8105        39.1523      -999.2500         6.3743      -999.2500      -999.2500         6.0469       -34.3490     
 7527.5000      -999.2500      -999.2500        65.6992        37.8340      -999.2500         6.4077      -999.2500      -999.2500         7.9004       -34.2764     
 7528.0000      -999.2500      -999.2500        67.4707        36.6133      -999.2500         6.4865      -999.2500      -999.2500         9.8945       -34.2386     
 7528.5000      -999.2500      -999.2500        69.0742        37.2559      -999.2500         6.5845      -999.2500      -999.2500         7.8457       -34.2498     
 7529.0000      -999.2500      -999.2500        69.8887        39.0619      -999.2500         6.6593      -999.2500      -999.2500         5.9266       -34.1987     
 7529.5000      -999.2500      -999.2500        68.6602        39.9009      -999.2500         6.5266      -999.2500      -999.2500         6.4658       -34.1708     
 7530.0000      -999.2500      -999.2500        67.1680        40.1771      -999.2500         6.2017      -999.2500      -999.2500         6.1843       -34.1824     
 7530.5000      -999.2500      -999.2500        66.9590        39.9240      -999.2500         5.9185      -999.2500      -999.2500         8.7090       -34.2014     
 7531.0000      -999.2500      -999.2500        68.4805        40.4893      -999.2500         6.0122      -999.2500      -999.2500         8.7656       -34.1047     
 7531.5000      -999.2500      -999.2500        69.1288        41.6193      -999.2500         6.2172      -999.2500      -999.2500         6.0200       -33.9888     
 7532.0000      -999.2500      -999.2500        70.2832        42.0878      -999.2500         6.3640      -999.2500      -999.2500         4.9353       -33.7778     
 7532.5000      -999.2500      -999.2500        71.5928        42.1526      -999.2500         6.2540      -999.2500      -999.2500         4.9749       -33.5186     
 7533.0000      -999.2500      -999.2500        68.8477        42.0334      -999.2500         6.1523      -999.2500      -999.2500         5.7101       -33.2708     
 7533.5000      -999.2500      -999.2500        66.4448        39.7048      -999.2500         6.1176      -999.2500      -999.2500         6.9886       -32.9717     
 7534.0000      -999.2500      -999.2500        66.1338        38.2813      -999.2500         6.1328      -999.2500      -999.2500         9.6172       -32.6914     
 7534.5000      -999.2500      -999.2500        67.0859        37.9528      -999.2500         6.2590      -999.2500      -999.2500         9.4316       -32.4795     
 7535.0000      -999.2500      -999.2500        68.5176        37.5557      -999.2500         6.3483      -999.2500      -999.2500         6.2500       -32.4410     
 7535.5000      -999.2500      -999.2500        69.6699        36.6758      -999.2500         6.2461      -999.2500      -999.2500         5.4434       -32.5542     
 7536.0000      -999.2500      -999.2500        68.9270        35.6530      -999.2500         6.1184      -999.2500      -999.2500         6.5100       -32.8252     
 7536.5000      -999.2500      -999.2500        67.9775        35.5942      -999.2500         5.9562      -999.2500      -999.2500         6.8676       -33.1406     
 7537.0000      -999.2500      -999.2500        68.9736        36.4707      -999.2500         5.8491      -999.2500      -999.2500         6.9067       -33.4312     
 7537.5000      -999.2500      -999.2500        69.9894        37.8299      -999.2500         5.7646      -999.2500      -999.2500         6.6891       -33.7425     
 7538.0000      -999.2500      -999.2500        70.7070        38.9512      -999.2500         5.6508      -999.2500      -999.2500         6.1709       -33.9441     
 7538.5000      -999.2500      -999.2500        71.2637        39.2557      -999.2500         5.5162      -999.2500      -999.2500         5.6689       -33.8032     
 7539.0000      -999.2500      -999.2500        71.5964        39.3634      -999.2500         5.3501      -999.2500      -999.2500         5.4302       -33.4941     
 7539.5000      -999.2500      -999.2500        71.7561        39.6880      -999.2500         5.2832      -999.2500      -999.2500         5.4021       -33.1938     
 7540.0000      -999.2500      -999.2500        71.7437        40.0293      -999.2500         5.3134      -999.2500      -999.2500         5.5374       -32.9918     
 7540.5000      -999.2500      -999.2500        71.9918        39.9255      -999.2500         5.2910      -999.2500      -999.2500         5.5946       -32.9232     
 7541.0000      -999.2500      -999.2500        72.6250        40.0059      -999.2500         5.2544      -999.2500      -999.2500         5.2349       -32.9003     
