~Version Information Section
VERS.          2.0                                     : CWLS LOG ASCII Standard
WRAP.          NO                                      : One line per depth step
CREA.          03/06/17                                : LAS Creation Date
~Well Information Section
STRT.ft        1441.0000                               : Start Depth
STOP.ft        10644.0000                              : Stop Depth
STEP.ft        0.5000                                  : Step
NULL.          -999.2500                               : Null Value
COMP.          TEXACO PRODUCTION SERVICES LTD.         : Company
WELL.          14/20-5                                 : Well
FLD .          MORAY FIRTH                             : Field
LOC .          NORTH SEA                               : Location
LOC1.          -                                       : Location (UTM)
CTRY.          UK                                      : Country
PROV.          UKCS                                    : Province
UWI .          862                                     : UWI Number
API .          -                                       : API Number
SECT.          -                                       : Section
TOWN.          -                                       : Township
RNGE.          -                                       : Range
PDAT.          MSL                                     : Perm Datum
EPD .ft        0.0                                     : Elevation
LMF .          RKB                                     : Log Measured From
DMF .          RKB                                     : Drill Measured From
APD .ft        88.0                                    : Above Perm Datum
EKB .ft        88.0                                    : Elev-Kelly Bushing
EDF .ft        87.0                                    : Elev-Drill Floor
EGL .ft        -438.0                                  : Elev-Ground Level (Water Depth)
TDD .ft        10629.0                                 : Total Depth (Driller)
TDL .ft        10645.0                                 : Total Depth (Logger)
SRVC.          SCHLUMBERGER                            : Service Company
LATI.          58 23 39.75" N                          : Latitude
LONG.          00 07 23.05" W                          : Longitude
DATE.          MAR-APR-1976                            : Logging Date
PROJ.          UKCS                                    : Project
SET .          COMP_WIRE                               : Set
~Curve Information Section
DEPTH.ft                                               : Depth Curve
CALD.in                                                : Caliper (from FDC/CNL/GR)
DRHO.g/cc                                              : Delta Rho
DT.us/ft                                               : Delta-T
GR.gAPI                                                : Gamma Ray (from ISF/BHC/GR)
GRD.gAPI                                               : Gamma Ray (from FDC/CNL/GR)
ILD.Ohmm                                               : Deep Induction Standard Processed Resistivity
NPHI.LPU                                               : Neutron Porosity
RHOB.g/cc                                              : Bulk Density
SFLU.Ohmm                                              : SFL Resistivity (Unaveraged)
SP.mV                                                  : Spontaneous Potential
~ASCII Log Data Section
# ...
 9771.0000         8.7143         0.0195       100.2194       246.8252       227.2448         6.6980        36.6838         2.3399        10.0804       -21.7322     
 9771.5000         8.6618         0.0138       100.1042       247.3008       234.8604         6.7451        35.5914         2.3294        10.4902       -21.7617     
 9772.0000         8.6479         0.0010       100.9189       251.3047       240.9789         6.9153        34.6261         2.3184        10.1523       -21.7234     
 9772.5000         8.5640         0.0039       100.3137       260.2969       244.7271         7.0825        34.4342         2.3197         9.7217       -21.3716     
 9773.0000         8.5296         0.0040        99.8184       270.0938       246.3913         7.2119        33.9878         2.3256         9.7311       -21.0088     
 9773.5000         8.6286         0.0038        99.6479       276.3359       248.8634         7.2484        33.0552         2.3336         9.8140       -20.7644     
 9774.0000         8.8123         0.0015        99.9384       280.7188       252.1194         7.2499        33.0176         2.3412         9.9031       -20.6223     
 9774.5000         8.9137        -0.0015        99.8403       283.8789       256.7716         7.1326        33.5052         2.3513         9.8913       -20.4761     
 9775.0000         8.9673        -0.0042        99.3096       285.9531       259.4780         7.0295        34.1769         2.3621         9.7102       -20.3802     
 9775.5000         8.9982        -0.0050        98.3342       287.8359       262.6164         6.9711        34.5529         2.3681         9.6794       -20.3494     
 9776.0000         8.9979        -0.0112        97.4707       285.3281       261.4176         6.8635        34.8725         2.3725         9.5000       -20.2899     
 9776.5000         8.9975        -0.0113        97.0605       279.3047       259.1107         6.7151        34.4337         2.3802         8.8066       -20.2501     
 9777.0000         8.9938        -0.0126        96.8705       277.7773       257.9641         6.5843        33.7609         2.3864         8.7830       -20.2229     
 9777.5000         8.9837        -0.0146        96.8872       279.9688       257.7490         6.3716        33.3130         2.3874         9.2715       -20.1677     
 9778.0000         9.0114        -0.0111        97.3066       278.1406       256.4959         6.1978        33.5197         2.3833         9.3081       -20.1907     
 9778.5000         9.0371        -0.0042        97.9072       279.8242       254.6541         6.0676        33.8982         2.3796         8.7988       -20.3000     
 9779.0000         9.0494        -0.0005        98.4287       282.8184       252.8622         5.9985        34.4951         2.3794         7.7715       -20.4329     
 9779.5000         9.0564         0.0044        98.6432       281.4023       248.9875         5.9095        34.8752         2.3856         8.0360       -20.4633     
 9780.0000         9.0562         0.0085        98.6318       278.2500       244.9831         5.8753        35.0925         2.3953         7.6283       -20.5042     
 9780.5000         9.0560         0.0090        97.9922       272.6641       244.2951         5.9376        34.8302         2.4009         6.8379       -20.1172     
 9781.0000         9.0558         0.0113        96.9707       257.8125       243.5306         5.9913        33.3737         2.4141         7.0723       -19.6147     
 9781.5000         9.0555         0.0149        96.6792       255.1328       241.0360         6.0496        32.8910         2.4236         8.1944       -19.4285     
 9782.0000         9.0553         0.0117        96.6947       259.8125       239.4468         6.1514        32.9681         2.4155         8.7432       -19.3996     
 9782.5000         9.0551         0.0049        96.5867       261.8398       239.5228         6.2510        33.1302         2.4026         8.8062       -19.2832     
 9783.0000         9.0548         0.0026        96.3934       261.7148       236.5454         6.5029        32.7020         2.3953         8.8696       -18.7500     
 9783.5000         9.0493         0.0029        96.3899       259.5820       232.2474         6.6440        32.3385         2.3985         9.0684       -18.3179     
 9784.0000         9.0119         0.0035        96.4342       257.4453       228.3137         6.6100        32.5735         2.3983         9.5059       -18.4774     
 9784.5000         8.9668         0.0026        96.3145       250.9063       225.8038         6.6147        33.0427         2.3975         9.3848       -18.8521     
 9785.0000         8.9052         0.0022        95.8271       248.0195       225.9296         6.6008        32.7892         2.3981         8.6172       -19.1719     
 9785.5000         8.9167         0.0046        95.2472       245.3789       226.8075         6.5088        32.9692         2.4007         7.4656       -19.3686     
 9786.0000         9.0493         0.0091        95.6543       244.6895       227.2541         6.2910        33.3290         2.4053         7.9824       -19.2085     
 9786.5000         9.0642         0.0125        95.8711       245.5898       227.8345         6.0437        32.5629         2.4027         9.0005       -18.9556     
 9787.0000         9.0645         0.0135        95.5581       242.1328       228.7487         5.9521        32.4431         2.4014         8.7085       -18.6777     
 9787.5000         9.0727         0.0092        96.6484       239.7344       228.3916         5.9806        32.5585         2.3980         8.2061       -18.4077     
 9788.0000         9.0726         0.0083        96.9434       238.8018       227.8165         6.0354        32.4669         2.4048         7.6104       -18.1777     
 9788.5000         9.0693         0.0236        97.0960       242.0313       227.4295         6.0562        31.8572         2.4216         7.6038       -17.8950     
 9789.0000         9.0524         0.0255        98.0391       244.9492       226.7167         6.0925        32.4657         2.4057         7.4004       -17.5850     
 9789.5000         9.0605         0.0197        98.9189       245.9502       225.0186         6.1545        33.5713         2.3959         6.7119       -17.2959     
 9790.0000         9.1158         0.0091        99.6350       243.0078       224.3054         6.2426        34.6859         2.3824         6.9096       -17.0177     
 9790.5000         9.2131         0.0085        99.9065       239.6680       226.3795         6.3455        34.7645         2.3632         7.9707       -16.7869     
 9791.0000         9.2241         0.0060        99.4980       240.0508       228.3618         6.5361        34.3073         2.3548         9.2578       -16.6227     
 9791.5000         9.2273         0.0118        98.8613       243.5234       231.2347         6.8794        33.7677         2.3620         9.5991       -16.5453     
 9792.0000         9.2194         0.0144        98.2705       247.4375       233.1159         7.1665        33.2510         2.3606         9.2383       -16.4901     
 9792.5000         9.2442         0.0126        98.8148       247.2344       231.9922         7.2814        32.9072         2.3630         9.1205       -16.5252     
 9793.0000         9.2511         0.0050        99.5737       244.2227       230.5791         7.2652        32.8858         2.3532         9.9932       -16.5664     
 9793.5000         9.2559         0.0025        99.3730       239.0938       226.5761         6.9668        33.0756         2.3518        10.3086       -16.6603     
 9794.0000         9.2782        -0.0051        98.9463       232.8537       222.5303         6.4014        33.1238         2.3547         9.6035       -16.5298     
 9794.5000         9.3248        -0.0041        98.4103       225.7066       220.3110         6.0065        33.0343         2.3681         8.4268       -16.3903     
 9795.0000         9.3542         0.0033        97.9648       220.5421       213.5120         5.8767        33.2135         2.3869         7.8525       -16.2256     
