~Version Information Section
VERS.          2.0                                     : CWLS LOG ASCII Standard
WRAP.          NO                                      : One line per depth step
CREA.          03/06/17                                : LAS Creation Date
~Well Information Section
STRT.ft        1441.0000                               : Start Depth
STOP.ft        10644.0000                              : Stop Depth
STEP.ft        0.5000                                  : Step
NULL.          -999.2500                               : Null Value
COMP.          TEXACO PRODUCTION SERVICES LTD.         : Company
WELL.          14/20-5                                 : Well
FLD .          MORAY FIRTH                             : Field
LOC .          NORTH SEA                               : Location
LOC1.          -                                       : Location (UTM)
CTRY.          UK                                      : Country
PROV.          UKCS                                    : Province
UWI .          862                                     : UWI Number
API .          -                                       : API Number
SECT.          -                                       : Section
TOWN.          -                                       : Township
RNGE.          -                                       : Range
PDAT.          MSL                                     : Perm Datum
EPD .ft        0.0                                     : Elevation
LMF .          RKB                                     : Log Measured From
DMF .          RKB                                     : Drill Measured From
APD .ft        88.0                                    : Above Perm Datum
EKB .ft        88.0                                    : Elev-Kelly Bushing
EDF .ft        87.0                                    : Elev-Drill Floor
EGL .ft        -438.0                                  : Elev-Ground Level (Water Depth)
TDD .ft        10629.0                                 : Total Depth (Driller)
TDL .ft        10645.0                                 : Total Depth (Logger)
SRVC.          SCHLUMBERGER                            : Service Company
LATI.          58 23 39.75" N                          : Latitude
LONG.          00 07 23.05" W                          : Longitude
DATE.          MAR-APR-1976                            : Logging Date
PROJ.          UKCS                                    : Project
SET .          COMP_WIRE                               : Set
~Curve Information Section
DEPTH.ft                                               : Depth Curve
CALD.in                                                : Caliper (from FDC/CNL/GR)
DRHO.g/cc                                              : Delta Rho
DT.us/ft                                               : Delta-T
GR.gAPI                                                : Gamma Ray (from ISF/BHC/GR)
GRD.gAPI                                               : Gamma Ray (from FDC/CNL/GR)
ILD.Ohmm                                               : Deep Induction Standard Processed Resistivity
NPHI.LPU                                               : Neutron Porosity
RHOB.g/cc                                              : Bulk Density
SFLU.Ohmm                                              : SFL Resistivity (Unaveraged)
SP.mV                                                  : Spontaneous Potential
~ASCII Log Data Section
# ...
10604.0000        11.2546         0.1286        74.7562       147.9023       114.9682      -999.2500        27.8089         2.3530      -999.2500       -10.3208     
10604.5000        11.6597         0.1275      -999.2500       144.1680       117.8991      -999.2500        28.9377         2.3024      -999.2500       -10.1938     
10605.0000        12.0423         0.0978      -999.2500       143.2129       119.3854      -999.2500        30.2178         2.1374      -999.2500       -10.0669     
10605.5000        12.7074         0.0831      -999.2500       138.7500       124.3419      -999.2500        31.5827         2.0205      -999.2500        -9.9475     
10606.0000        13.0194         0.0620      -999.2500       136.6484       126.9959      -999.2500        33.6939         1.9072      -999.2500        -9.8378     
10606.5000        12.8417         0.0149      -999.2500       141.1875       128.8630      -999.2500        34.0657         1.8286      -999.2500        -9.6738     
10607.0000        12.3915        -0.0035      -999.2500       143.2617       127.2900      -999.2500        33.6523         1.7500      -999.2500        -9.5228     
10607.5000        11.7822        -0.0123      -999.2500       140.1172       124.3917      -999.2500        35.4219         1.6712      -999.2500        -9.4462     
10608.0000        11.5499        -0.0134      -999.2500       133.9805       120.7892      -999.2500        37.2800         1.5925      -999.2500        -9.3696     
10608.5000        12.1023        -0.0128      -999.2500       135.6680       110.2929      -999.2500        37.6258         1.6011      -999.2500      -999.2500     
10609.0000        13.4986        -0.0153      -999.2500       137.5977       102.6249      -999.2500        37.9589         1.6027      -999.2500      -999.2500     
10609.5000        13.6903        -0.0207      -999.2500       135.1445       102.2948      -999.2500        39.4884         1.5979      -999.2500      -999.2500     
10610.0000        13.7516        -0.0213      -999.2500       127.7500       104.0032      -999.2500        40.2313         1.5852      -999.2500      -999.2500     
10610.5000        13.7892        -0.0211      -999.2500      -999.2500       106.7254      -999.2500        40.6070         1.5733      -999.2500      -999.2500     
10611.0000        13.7934        -0.0257      -999.2500      -999.2500       107.2170      -999.2500        40.1719         1.5688      -999.2500      -999.2500     
10611.5000        13.8487        -0.0295      -999.2500      -999.2500       107.7057      -999.2500        38.4858         1.5706      -999.2500      -999.2500     
10612.0000        13.8927        -0.0280      -999.2500      -999.2500       109.8593      -999.2500        35.0227         1.5825      -999.2500      -999.2500     
10612.5000        13.9049        -0.0084      -999.2500      -999.2500       117.7238      -999.2500        32.2708         1.6228      -999.2500      -999.2500     
10613.0000        13.8830         0.0075      -999.2500      -999.2500       122.3130      -999.2500        30.9633         1.7083      -999.2500      -999.2500     
10613.5000        13.6612         0.0454      -999.2500      -999.2500       126.2745      -999.2500        29.5576         1.8705      -999.2500      -999.2500     
10614.0000        13.2656         0.0886      -999.2500      -999.2500       128.7032      -999.2500        28.5921         2.1193      -999.2500      -999.2500     
10614.5000        11.2316         0.0808      -999.2500      -999.2500       131.2715      -999.2500        27.4440         2.2994      -999.2500      -999.2500     
10615.0000        10.4428         0.0538      -999.2500      -999.2500       133.8625      -999.2500        27.3499         2.3261      -999.2500      -999.2500     
10615.5000         9.9619         0.0579      -999.2500      -999.2500       135.6652      -999.2500        27.4640         2.2610      -999.2500      -999.2500     
10616.0000        10.0132         0.0697      -999.2500      -999.2500       136.6298      -999.2500        26.6171         2.2503      -999.2500      -999.2500     
10616.5000         9.9996         0.0809      -999.2500      -999.2500       137.5946      -999.2500        26.2682         2.2706      -999.2500      -999.2500     
10617.0000         9.9936         0.0913      -999.2500      -999.2500       139.1577      -999.2500        26.5300         2.2991      -999.2500      -999.2500     
10617.5000         9.9605         0.0974      -999.2500      -999.2500       141.4366      -999.2500        27.9716         2.3034      -999.2500      -999.2500     
10618.0000         9.9533         0.0897      -999.2500      -999.2500       141.3028      -999.2500        29.1813         2.3071      -999.2500      -999.2500     
10618.5000         9.9532         0.0807      -999.2500      -999.2500       137.3070      -999.2500        28.9775         2.3132      -999.2500      -999.2500     
10619.0000         9.9532         0.0841      -999.2500      -999.2500       136.9949      -999.2500        28.7181         2.3243      -999.2500      -999.2500     
10619.5000         9.9531         0.0948      -999.2500      -999.2500       137.2974      -999.2500        28.3334         2.3664      -999.2500      -999.2500     
10620.0000         9.9409         0.0942      -999.2500      -999.2500       139.5459      -999.2500        27.3848         2.4305      -999.2500      -999.2500     
10620.5000         9.9329         0.0829      -999.2500      -999.2500       142.2963      -999.2500        26.3205         2.4581      -999.2500      -999.2500     
10621.0000         9.9601         0.0976      -999.2500      -999.2500       143.5150      -999.2500        26.1624         2.4707      -999.2500      -999.2500     
10621.5000         9.9133         0.1218      -999.2500      -999.2500       144.3587      -999.2500        26.5145         2.4692      -999.2500      -999.2500     
10622.0000         9.5233         0.1466      -999.2500      -999.2500       145.0267      -999.2500        26.9646         2.4680      -999.2500      -999.2500     
10622.5000         9.8980         0.1511      -999.2500      -999.2500       144.4384      -999.2500        27.0879         2.4748      -999.2500      -999.2500     
10623.0000        10.0078         0.1416      -999.2500      -999.2500       143.1118      -999.2500        26.5318         2.4984      -999.2500      -999.2500     
10623.5000         9.6602         0.1189      -999.2500      -999.2500       142.4393      -999.2500        25.3502         2.4728      -999.2500      -999.2500     
10624.0000         9.6948         0.0822      -999.2500      -999.2500       142.3988      -999.2500        25.6753         2.4220      -999.2500      -999.2500     
10624.5000         9.7606         0.0550      -999.2500      -999.2500       142.1582      -999.2500        26.1594         2.3890      -999.2500      -999.2500     
10625.0000         9.8274         0.0401      -999.2500      -999.2500       141.1894      -999.2500        25.7787         2.3857      -999.2500      -999.2500     
10625.5000         9.9758         0.0783      -999.2500      -999.2500       139.3503      -999.2500        24.2619         2.4158      -999.2500      -999.2500     
10626.0000        10.1550         0.1288      -999.2500      -999.2500      -999.2500      -999.2500        24.1252         2.4318      -999.2500      -999.2500     
10626.5000         9.8390         0.1244      -999.2500      -999.2500      -999.2500      -999.2500        24.5528         2.4451      -999.2500      -999.2500     
10627.0000         9.4324         0.1346      -999.2500      -999.2500      -999.2500      -999.2500        24.9164         2.4734      -999.2500      -999.2500     
10627.5000         9.5190         0.1440      -999.2500      -999.2500      -999.2500      -999.2500        25.1925         2.5193      -999.2500      -999.2500     
10628.0000         9.6604         0.1235      -999.2500      -999.2500      -999.2500      -999.2500        25.9064         2.4646      -999.2500      -999.2500     
