~Version Information Section
VERS.          2.0                                     : CWLS LOG ASCII Standard
WRAP.          NO                                      : One line per depth step
CREA.          03/06/17                                : LAS Creation Date
~Well Information Section
STRT.ft        1441.0000                               : Start Depth
STOP.ft        10644.0000                              : Stop Depth
STEP.ft        0.5000                                  : Step
NULL.          -999.2500                               : Null Value
COMP.          TEXACO PRODUCTION SERVICES LTD.         : Company
WELL.          14/20-5                                 : Well
FLD .          MORAY FIRTH                             : Field
LOC .          NORTH SEA                               : Location
LOC1.          -                                       : Location (UTM)
CTRY.          UK                                      : Country
PROV.          UKCS                                    : Province
UWI .          862                                     : UWI Number
API .          -                                       : API Number
SECT.          -                                       : Section
TOWN.          -                                       : Township
RNGE.          -                                       : Range
PDAT.          MSL                                     : Perm Datum
EPD .ft        0.0                                     : Elevation
LMF .          RKB                                     : Log Measured From
DMF .          RKB                                     : Drill Measured From
APD .ft        88.0                                    : Above Perm Datum
EKB .ft        88.0                                    : Elev-Kelly Bushing
EDF .ft        87.0                                    : Elev-Drill Floor
EGL .ft        -438.0                                  : Elev-Ground Level (Water Depth)
TDD .ft        10629.0                                 : Total Depth (Driller)
TDL .ft        10645.0                                 : Total Depth (Logger)
SRVC.          SCHLUMBERGER                            : Service Company
LATI.          58 23 39.75" N                          : Latitude
LONG.          00 07 23.05" W                          : Longitude
DATE.          MAR-APR-1976                            : Logging Date
PROJ.          UKCS                                    : Project
SET .          COMP_WIRE                               : Set
~Curve Information Section
DEPTH.ft                                               : Depth Curve
CALD.in                                                : Caliper (from FDC/CNL/GR)
DRHO.g/cc                                              : Delta Rho
DT.us/ft                                               : Delta-T
GR.gAPI                                                : Gamma Ray (from ISF/BHC/GR)
GRD.gAPI                                               : Gamma Ray (from FDC/CNL/GR)
ILD.Ohmm                                               : Deep Induction Standard Processed Resistivity
NPHI.LPU                                               : Neutron Porosity
RHOB.g/cc                                              : Bulk Density
SFLU.Ohmm                                              : SFL Resistivity (Unaveraged)
SP.mV                                                  : Spontaneous Potential
~ASCII Log Data Section
# ...
 6659.5000      -999.2500      -999.2500        62.5234        29.6797      -999.2500        10.0526      -999.2500      -999.2500        12.3711       -40.6011     
 6660.0000      -999.2500      -999.2500        62.0940        31.8535      -999.2500        10.1006      -999.2500      -999.2500        12.5557       -40.9136     
 6660.5000      -999.2500      -999.2500        62.9856        33.3582      -999.2500        10.4436      -999.2500      -999.2500        11.7262       -41.0151     
 6661.0000      -999.2500      -999.2500        63.8257        34.4238      -999.2500        10.7284      -999.2500      -999.2500        10.5488       -41.0134     
 6661.5000      -999.2500      -999.2500        63.9087        34.8896      -999.2500        10.6089      -999.2500      -999.2500        10.5229       -40.9935     
 6662.0000      -999.2500      -999.2500        63.1006        35.1118      -999.2500        10.2393      -999.2500      -999.2500        10.7024       -40.9153     
 6662.5000      -999.2500      -999.2500        62.5396        35.6240      -999.2500         9.8965      -999.2500      -999.2500        11.3965       -40.8228     
 6663.0000      -999.2500      -999.2500        62.3218        36.5986      -999.2500         9.5693      -999.2500      -999.2500        12.7275       -40.7681     
 6663.5000      -999.2500      -999.2500        63.1582        37.8418      -999.2500         9.3481      -999.2500      -999.2500        14.0215       -40.7664     
 6664.0000      -999.2500      -999.2500        63.7109        36.8730      -999.2500         9.2267      -999.2500      -999.2500         9.0898       -40.7578     
 6664.5000      -999.2500      -999.2500        65.8301        34.9707      -999.2500         9.1161      -999.2500      -999.2500         8.0889       -40.7071     
 6665.0000      -999.2500      -999.2500        66.8867        33.6719      -999.2500         9.0055      -999.2500      -999.2500         7.7583       -40.7312     
 6665.5000      -999.2500      -999.2500        66.3203        32.8069      -999.2500         8.8734      -999.2500      -999.2500         7.6732       -40.7736     
 6666.0000      -999.2500      -999.2500        65.4297        33.1729      -999.2500         8.7252      -999.2500      -999.2500         8.4453       -40.7928     
 6666.5000      -999.2500      -999.2500        64.9180        33.9443      -999.2500         8.6110      -999.2500      -999.2500         9.3818       -40.7953     
 6667.0000      -999.2500      -999.2500        64.9560        33.3813      -999.2500         8.5202      -999.2500      -999.2500         9.9302       -40.8126     
 6667.5000      -999.2500      -999.2500        65.4746        32.8197      -999.2500         8.7642      -999.2500      -999.2500        10.9499       -40.8665     
 6668.0000      -999.2500      -999.2500        65.6643        33.0850      -999.2500         9.2134      -999.2500      -999.2500        10.1465       -40.9304     
 6668.5000      -999.2500      -999.2500        65.8594        33.9297      -999.2500         9.6641      -999.2500      -999.2500         9.0781       -41.0554     
 6669.0000      -999.2500      -999.2500        66.3130        33.7949      -999.2500         9.9675      -999.2500      -999.2500        10.3452       -41.1957     
 6669.5000      -999.2500      -999.2500        65.0273        32.4980      -999.2500        10.0717      -999.2500      -999.2500        10.1211       -41.3206     
 6670.0000      -999.2500      -999.2500        64.2363        31.3945      -999.2500        10.1685      -999.2500      -999.2500        10.4487       -41.4131     
 6670.5000      -999.2500      -999.2500        63.7612        30.7570      -999.2500        10.2811      -999.2500      -999.2500        11.8848       -41.4160     
 6671.0000      -999.2500      -999.2500        63.8564        31.3311      -999.2500        10.4604      -999.2500      -999.2500        13.7266       -41.4412     
 6671.5000      -999.2500      -999.2500        64.4121        32.2935      -999.2500        10.7808      -999.2500      -999.2500        13.6484       -41.5828     
 6672.0000      -999.2500      -999.2500        64.7598        32.5156      -999.2500        11.1577      -999.2500      -999.2500         9.8984       -41.7886     
 6672.5000      -999.2500      -999.2500        65.1074        31.9668      -999.2500        11.4434      -999.2500      -999.2500         8.6377       -42.0122     
 6673.0000      -999.2500      -999.2500        64.1152        31.0957      -999.2500        11.4766      -999.2500      -999.2500         9.6777       -42.2813     
 6673.5000      -999.2500      -999.2500        63.2292        30.2263      -999.2500        11.2836      -999.2500      -999.2500        11.4849       -42.3777     
 6674.0000      -999.2500      -999.2500        62.7932        29.5039      -999.2500        11.0107      -999.2500      -999.2500        12.1211       -42.4955     
 6674.5000      -999.2500      -999.2500        63.0068        29.2415      -999.2500        10.9158      -999.2500      -999.2500        12.7568       -42.5626     
 6675.0000      -999.2500      -999.2500        63.4038        29.4604      -999.2500        10.9431      -999.2500      -999.2500        12.6387       -42.5815     
 6675.5000      -999.2500      -999.2500        63.8008        30.6680      -999.2500        10.9418      -999.2500      -999.2500        11.4473       -42.5377     
 6676.0000      -999.2500      -999.2500        63.9148        31.0059      -999.2500        10.8301      -999.2500      -999.2500        10.3584       -42.4729     
 6676.5000      -999.2500      -999.2500        63.5503        30.4766      -999.2500        10.6475      -999.2500      -999.2500         9.7661       -42.3210     
 6677.0000      -999.2500      -999.2500        63.0747        30.9082      -999.2500        10.4297      -999.2500      -999.2500        10.7217       -42.0894     
 6677.5000      -999.2500      -999.2500        62.6964        31.4604      -999.2500        10.1714      -999.2500      -999.2500        10.5540       -41.8208     
 6678.0000      -999.2500      -999.2500        62.8130        31.6285      -999.2500         9.8398      -999.2500      -999.2500        11.3223       -41.5537     
 6678.5000      -999.2500      -999.2500        63.3584        31.5671      -999.2500         9.6815      -999.2500      -999.2500         9.8086       -41.2859     
 6679.0000      -999.2500      -999.2500        63.4016        30.6719      -999.2500         9.7983      -999.2500      -999.2500         9.7021       -41.1078     
 6679.5000      -999.2500      -999.2500        63.1575        29.1699      -999.2500         9.9758      -999.2500      -999.2500        10.4453       -41.1060     
 6680.0000      -999.2500      -999.2500        63.7266        28.2170      -999.2500        10.1271      -999.2500      -999.2500        12.0039       -41.1304     
 6680.5000      -999.2500      -999.2500        64.9766        28.2271      -999.2500        10.3896      -999.2500      -999.2500         9.8555       -41.2286     
 6681.0000      -999.2500      -999.2500        64.6372        28.9141      -999.2500        10.7322      -999.2500      -999.2500         8.5195       -41.3677     
 6681.5000      -999.2500      -999.2500        64.3530        29.5586      -999.2500        10.8036      -999.2500      -999.2500         8.5332       -41.5347     
 6682.0000      -999.2500      -999.2500        62.1230        29.5564      -999.2500        10.7717      -999.2500      -999.2500        11.7012       -41.7505     
 6682.5000      -999.2500      -999.2500        61.2053        29.3130      -999.2500        10.6928      -999.2500      -999.2500        10.8906       -41.9385     
 6683.0000      -999.2500      -999.2500        61.3378        29.2950      -999.2500        10.7891      -999.2500      -999.2500        11.8594       -42.0057     
 6683.5000      -999.2500      -999.2500        61.9390        30.4346      -999.2500        11.1596      -999.2500      -999.2500        14.8414       -41.9297     
