~Version Information Section
VERS.          2.0                                     : CWLS LOG ASCII Standard
WRAP.          NO                                      : One line per depth step
CREA.          03/06/17                                : LAS Creation Date
~Well Information Section
STRT.ft        1441.0000                               : Start Depth
STOP.ft        10644.0000                              : Stop Depth
STEP.ft        0.5000                                  : Step
NULL.          -999.2500                               : Null Value
COMP.          TEXACO PRODUCTION SERVICES LTD.         : Company
WELL.          14/20-5                                 : Well
FLD .          MORAY FIRTH                             : Field
LOC .          NORTH SEA                               : Location
LOC1.          -                                       : Location (UTM)
CTRY.          UK                                      : Country
PROV.          UKCS                                    : Province
UWI .          862                                     : UWI Number
API .          -                                       : API Number
SECT.          -                                       : Section
TOWN.          -                                       : Township
RNGE.          -                                       : Range
PDAT.          MSL                                     : Perm Datum
EPD .ft        0.0                                     : Elevation
LMF .          RKB                                     : Log Measured From
DMF .          RKB                                     : Drill Measured From
APD .ft        88.0                                    : Above Perm Datum
EKB .ft        88.0                                    : Elev-Kelly Bushing
EDF .ft        87.0                                    : Elev-Drill Floor
EGL .ft        -438.0                                  : Elev-Ground Level (Water Depth)
TDD .ft        10629.0                                 : Total Depth (Driller)
TDL .ft        10645.0                                 : Total Depth (Logger)
SRVC.          SCHLUMBERGER                            : Service Company
LATI.          58 23 39.75" N                          : Latitude
LONG.          00 07 23.05" W                          : Longitude
DATE.          MAR-APR-1976                            : Logging Date
PROJ.          UKCS                                    : Project
SET .          COMP_WIRE                               : Set
~Curve Information Section
DEPTH.ft                                               : Depth Curve
CALD.in                                                : Caliper (from FDC/CNL/GR)
DRHO.g/cc                                              : Delta Rho
DT.us/ft                                               : Delta-T
GR.gAPI                                                : Gamma Ray (from ISF/BHC/GR)
GRD.gAPI                                               : Gamma Ray (from FDC/CNL/GR)
ILD.Ohmm                                               : Deep Induction Standard Processed Resistivity
NPHI.LPU                                               : Neutron Porosity
RHOB.g/cc                                              : Bulk Density
SFLU.Ohmm                                              : SFL Resistivity (Unaveraged)
SP.mV                                                  : Spontaneous Potential
~ASCII Log Data Section
# ...
 8080.5000      -999.2500      -999.2500        78.2053        45.2995      -999.2500         2.9793      -999.2500      -999.2500         3.7120       -26.9545     
 8081.0000      -999.2500      -999.2500        78.5015        46.9238      -999.2500         2.9817      -999.2500      -999.2500         3.6517       -27.2324     
 8081.5000      -999.2500      -999.2500        78.8940        46.5859      -999.2500         3.0008      -999.2500      -999.2500         3.5649       -27.2975     
 8082.0000      -999.2500      -999.2500        79.2153        46.2148      -999.2500         3.0046      -999.2500      -999.2500         3.3899       -27.2112     
 8082.5000      -999.2500      -999.2500        79.5278        47.1973      -999.2500         2.9883      -999.2500      -999.2500         3.2301       -27.0388     
 8083.0000      -999.2500      -999.2500        79.7874        47.5263      -999.2500         2.9828      -999.2500      -999.2500         3.3083       -26.9065     
 8083.5000      -999.2500      -999.2500        79.9053        47.7095      -999.2500         2.9937      -999.2500      -999.2500         3.3467       -26.7429     
 8084.0000      -999.2500      -999.2500        79.5859        47.6859      -999.2500         3.0024      -999.2500      -999.2500         3.2925       -26.5756     
 8084.5000      -999.2500      -999.2500        78.9293        47.6213      -999.2500         3.0050      -999.2500      -999.2500         3.2644       -26.5244     
 8085.0000      -999.2500      -999.2500        78.0820        47.1152      -999.2500         3.0075      -999.2500      -999.2500         3.4121       -26.5233     
 8085.5000      -999.2500      -999.2500        77.5288        45.3125      -999.2500         3.0273      -999.2500      -999.2500         3.6284       -26.5547     
 8086.0000      -999.2500      -999.2500        77.7734        43.1992      -999.2500         3.0655      -999.2500      -999.2500         3.8589       -26.6283     
 8086.5000      -999.2500      -999.2500        78.0977        42.9043      -999.2500         3.0743      -999.2500      -999.2500         3.9252       -26.7452     
 8087.0000      -999.2500      -999.2500        78.2711        44.6680      -999.2500         3.0461      -999.2500      -999.2500         3.6792       -26.8505     
 8087.5000      -999.2500      -999.2500        78.3239        46.7188      -999.2500         3.0087      -999.2500      -999.2500         3.3660       -26.9448     
 8088.0000      -999.2500      -999.2500        78.3955        48.8105      -999.2500         2.9331      -999.2500      -999.2500         3.2775       -27.0708     
 8088.5000      -999.2500      -999.2500        78.8120        50.1853      -999.2500         2.8107      -999.2500      -999.2500         3.4923       -27.2072     
 8089.0000      -999.2500      -999.2500        79.1289        51.2371      -999.2500         2.7496      -999.2500      -999.2500         3.5815       -27.3253     
 8089.5000      -999.2500      -999.2500        80.2109        51.6900      -999.2500         2.6470      -999.2500      -999.2500         3.3013       -27.4200     
 8090.0000      -999.2500      -999.2500        81.3799        51.5454      -999.2500         2.5870      -999.2500      -999.2500         3.1448       -27.4821     
 8090.5000      -999.2500      -999.2500        82.3770        51.0879      -999.2500         2.5447      -999.2500      -999.2500         2.9485       -27.4919     
 8091.0000      -999.2500      -999.2500        82.5059        50.2402      -999.2500         2.5824      -999.2500      -999.2500         2.6421       -27.5057     
 8091.5000      -999.2500      -999.2500        81.5406        49.3130      -999.2500         2.6634      -999.2500      -999.2500         2.7084       -27.5037     
 8092.0000      -999.2500      -999.2500        80.2637        49.0000      -999.2500         2.7385      -999.2500      -999.2500         3.0645       -27.3738     
 8092.5000      -999.2500      -999.2500        78.9609        49.1519      -999.2500         2.7936      -999.2500      -999.2500         3.1671       -27.3031     
 8093.0000      -999.2500      -999.2500        77.5775        49.6415      -999.2500         2.8161      -999.2500      -999.2500         3.3727       -27.2375     
 8093.5000      -999.2500      -999.2500        77.1820        49.9089      -999.2500         2.7883      -999.2500      -999.2500         4.0667       -27.2344     
 8094.0000      -999.2500      -999.2500        77.8594        49.5726      -999.2500         2.7551      -999.2500      -999.2500         4.2593       -27.2975     
 8094.5000      -999.2500      -999.2500        80.3281        50.2354      -999.2500         2.7288      -999.2500      -999.2500         3.4775       -27.3095     
 8095.0000      -999.2500      -999.2500        83.3789        50.9033      -999.2500         2.6997      -999.2500      -999.2500         2.9658       -27.2349     
 8095.5000      -999.2500      -999.2500        83.8345        50.3496      -999.2500         2.6647      -999.2500      -999.2500         2.7603       -27.0640     
 8096.0000      -999.2500      -999.2500        83.3718        50.0386      -999.2500         2.6271      -999.2500      -999.2500         2.6357       -26.7086     
 8096.5000      -999.2500      -999.2500        82.4551        50.4814      -999.2500         2.5920      -999.2500      -999.2500         2.6987       -26.3767     
 8097.0000      -999.2500      -999.2500        81.0957        50.8433      -999.2500         2.5812      -999.2500      -999.2500         2.9785       -26.3077     
 8097.5000      -999.2500      -999.2500        79.6882        49.9879      -999.2500         2.5779      -999.2500      -999.2500         3.1741       -26.3665     
 8098.0000      -999.2500      -999.2500        79.5010        48.5098      -999.2500         2.5767      -999.2500      -999.2500         3.3193       -26.4673     
 8098.5000      -999.2500      -999.2500        80.1270        47.6904      -999.2500         2.5987      -999.2500      -999.2500         3.3771       -26.8105     
 8099.0000      -999.2500      -999.2500        80.8955        46.7734      -999.2500         2.6252      -999.2500      -999.2500         3.3358       -27.1543     
 8099.5000      -999.2500      -999.2500        81.5352        45.6885      -999.2500         2.6510      -999.2500      -999.2500         3.2214       -27.3022     
 8100.0000      -999.2500      -999.2500        81.7813        45.6396      -999.2500         2.6772      -999.2500      -999.2500         3.0208       -27.4098     
 8100.5000      -999.2500      -999.2500        81.4238        45.9771      -999.2500         2.7086      -999.2500      -999.2500         2.8674       -27.4619     
 8101.0000      -999.2500      -999.2500        79.8125        45.3848      -999.2500         2.7537      -999.2500      -999.2500         2.8359       -27.4751     
 8101.5000      -999.2500      -999.2500        77.8234        44.8665      -999.2500         2.8274      -999.2500      -999.2500         3.1470       -27.4365     
 8102.0000      -999.2500      -999.2500        77.3325        46.0685      -999.2500         2.8987      -999.2500      -999.2500         3.3294       -27.3885     
 8102.5000      -999.2500      -999.2500        77.6187        47.3848      -999.2500         2.9606      -999.2500      -999.2500         3.7998       -27.3463     
 8103.0000      -999.2500      -999.2500        77.9863        48.5254      -999.2500         3.0496      -999.2500      -999.2500         3.7476       -27.3216     
 8103.5000      -999.2500      -999.2500        78.3633        49.3455      -999.2500         3.1465      -999.2500      -999.2500         3.4707       -27.2786     
 8104.0000      -999.2500      -999.2500        78.1924        47.5469      -999.2500         3.1451      -999.2500      -999.2500         3.4198       -27.2020     
 8104.5000      -999.2500      -999.2500        76.4306        46.7683      -999.2500         3.0964      -999.2500      -999.2500         3.4654       -27.0693     
