~Version Information Section
VERS.          2.0                                     : CWLS LOG ASCII Standard
WRAP.          NO                                      : One line per depth step
CREA.          03/06/17                                : LAS Creation Date
~Well Information Section
STRT.ft        1441.0000                               : Start Depth
STOP.ft        10644.0000                              : Stop Depth
STEP.ft        0.5000                                  : Step
NULL.          -999.2500                               : Null Value
COMP.          TEXACO PRODUCTION SERVICES LTD.         : Company
WELL.          14/20-5                                 : Well
FLD .          MORAY FIRTH                             : Field
LOC .          NORTH SEA                               : Location
LOC1.          -                                       : Location (UTM)
CTRY.          UK                                      : Country
PROV.          UKCS                                    : Province
UWI .          862                                     : UWI Number
API .          -                                       : API Number
SECT.          -                                       : Section
TOWN.          -                                       : Township
RNGE.          -                                       : Range
PDAT.          MSL                                     : Perm Datum
EPD .ft        0.0                                     : Elevation
LMF .          RKB                                     : Log Measured From
DMF .          RKB                                     : Drill Measured From
APD .ft        88.0                                    : Above Perm Datum
EKB .ft        88.0                                    : Elev-Kelly Bushing
EDF .ft        87.0                                    : Elev-Drill Floor
EGL .ft        -438.0                                  : Elev-Ground Level (Water Depth)
TDD .ft        10629.0                                 : Total Depth (Driller)
TDL .ft        10645.0                                 : Total Depth (Logger)
SRVC.          SCHLUMBERGER                            : Service Company
LATI.          58 23 39.75" N                          : Latitude
LONG.          00 07 23.05" W                          : Longitude
DATE.          MAR-APR-1976                            : Logging Date
PROJ.          UKCS                                    : Project
SET .          COMP_WIRE                               : Set
~Curve Information Section
DEPTH.ft                                               : Depth Curve
CALD.in                                                : Caliper (from FDC/CNL/GR)
DRHO.g/cc                                              : Delta Rho
DT.us/ft                                               : Delta-T
GR.gAPI                                                : Gamma Ray (from ISF/BHC/GR)
GRD.gAPI                                               : Gamma Ray (from FDC/CNL/GR)
ILD.Ohmm                                               : Deep Induction Standard Processed Resistivity
NPHI.LPU                                               : Neutron Porosity
RHOB.g/cc                                              : Bulk Density
SFLU.Ohmm                                              : SFL Resistivity (Unaveraged)
SP.mV                                                  : Spontaneous Potential
~ASCII Log Data Section
# ...
 8913.5000      -999.2500      -999.2500       114.5147        95.2383      -999.2500         0.8168      -999.2500      -999.2500         0.9038       -20.1590     
 8914.0000      -999.2500      -999.2500       116.9805        98.3633      -999.2500         0.8102      -999.2500      -999.2500         0.8245       -19.8740     
 8914.5000      -999.2500      -999.2500       116.8828        99.5566      -999.2500         0.7921      -999.2500      -999.2500         0.8244       -19.6982     
 8915.0000      -999.2500      -999.2500       114.5859        98.5273      -999.2500         0.7718      -999.2500      -999.2500         0.8522       -19.5310     
 8915.5000      -999.2500      -999.2500       112.7119        97.3369      -999.2500         0.7643      -999.2500      -999.2500         0.8845       -19.4729     
 8916.0000      -999.2500      -999.2500       113.9031        98.0117      -999.2500         0.7647      -999.2500      -999.2500         0.8925       -19.4580     
 8916.5000      -999.2500      -999.2500       116.7578       100.2861      -999.2500         0.7686      -999.2500      -999.2500         0.8501       -19.5203     
 8917.0000      -999.2500      -999.2500       118.4727       101.7617      -999.2500         0.7724      -999.2500      -999.2500         0.8312       -19.6235     
 8917.5000      -999.2500      -999.2500       119.1631       100.4727      -999.2500         0.7784      -999.2500      -999.2500         0.8319       -19.7454     
 8918.0000      -999.2500      -999.2500       118.2188       100.7930      -999.2500         0.7880      -999.2500      -999.2500         0.8344       -19.8926     
 8918.5000      -999.2500      -999.2500       115.8223       103.1484      -999.2500         0.7963      -999.2500      -999.2500         0.8421       -19.9927     
 8919.0000      -999.2500      -999.2500       114.5029       104.5547      -999.2500         0.8029      -999.2500      -999.2500         0.9021       -20.0593     
 8919.5000      -999.2500      -999.2500       113.7354       102.8340      -999.2500         0.8093      -999.2500      -999.2500         0.9603       -20.1207     
 8920.0000      -999.2500      -999.2500       113.4004       102.6909      -999.2500         0.8202      -999.2500      -999.2500         0.9218       -20.1964     
 8920.5000      -999.2500      -999.2500       115.2188       103.8770      -999.2500         0.8297      -999.2500      -999.2500         0.8838       -20.1712     
 8921.0000      -999.2500      -999.2500       116.1818       104.8877      -999.2500         0.8385      -999.2500      -999.2500         0.8793       -20.0393     
 8921.5000      -999.2500      -999.2500       116.2222       105.6270      -999.2500         0.8462      -999.2500      -999.2500         0.8792       -19.7666     
 8922.0000      -999.2500      -999.2500       115.6973       106.2832      -999.2500         0.8510      -999.2500      -999.2500         0.8753       -19.5686     
 8922.5000      -999.2500      -999.2500       114.7373       107.6523      -999.2500         0.8462      -999.2500      -999.2500         0.8696       -19.5170     
 8923.0000      -999.2500      -999.2500       115.8379       109.6484      -999.2500         0.8307      -999.2500      -999.2500         0.8790       -19.4509     
 8923.5000      -999.2500      -999.2500       116.1307       111.6484      -999.2500         0.8171      -999.2500      -999.2500         0.8995       -19.2983     
 8924.0000      -999.2500      -999.2500       115.7813       114.3516      -999.2500         0.8061      -999.2500      -999.2500         0.9080       -19.1674     
 8924.5000      -999.2500      -999.2500       117.2971       112.8535      -999.2500         0.7927      -999.2500      -999.2500         0.8992       -19.1617     
 8925.0000      -999.2500      -999.2500       118.9570       111.3672      -999.2500         0.7749      -999.2500      -999.2500         0.8788       -19.1813     
 8925.5000      -999.2500      -999.2500       119.8271       111.2090      -999.2500         0.7514      -999.2500      -999.2500         0.8581       -19.2190     
 8926.0000      -999.2500      -999.2500       120.6123       112.0977      -999.2500         0.7273      -999.2500      -999.2500         0.8395       -19.2885     
 8926.5000      -999.2500      -999.2500       119.3793       110.7383      -999.2500         0.7050      -999.2500      -999.2500         0.8148       -19.2974     
 8927.0000      -999.2500      -999.2500       115.9746       112.3789      -999.2500         0.6789      -999.2500      -999.2500         0.8002       -19.3113     
 8927.5000      -999.2500      -999.2500       116.7656       113.7852      -999.2500         0.6452      -999.2500      -999.2500         0.7798       -19.3598     
 8928.0000      -999.2500      -999.2500       118.6992       112.3652      -999.2500         0.6103      -999.2500      -999.2500         0.7597       -19.5247     
 8928.5000      -999.2500      -999.2500       121.4219       113.1875      -999.2500         0.5780      -999.2500      -999.2500         0.7885       -19.7886     
 8929.0000      -999.2500      -999.2500       123.9997       115.1055      -999.2500         0.5561      -999.2500      -999.2500         0.7730       -20.0514     
 8929.5000      -999.2500      -999.2500       126.4141       116.8281      -999.2500         0.5467      -999.2500      -999.2500         0.7286       -20.1449     
 8930.0000      -999.2500      -999.2500       127.1748       114.7344      -999.2500         0.5421      -999.2500      -999.2500         0.6789       -20.1922     
 8930.5000      -999.2500      -999.2500       127.8330       111.3242      -999.2500         0.5497      -999.2500      -999.2500         0.6866       -20.3696     
 8931.0000      -999.2500      -999.2500       128.2051       107.9141      -999.2500         0.5645      -999.2500      -999.2500         0.6782       -20.4924     
 8931.5000      -999.2500      -999.2500       125.2188       105.0508      -999.2500         0.5927      -999.2500      -999.2500         0.6717       -20.5326     
 8932.0000      -999.2500      -999.2500       120.8594       102.2578      -999.2500         0.6456      -999.2500      -999.2500         0.7527       -20.4471     
 8932.5000      -999.2500      -999.2500       115.8711        99.2969      -999.2500         0.7078      -999.2500      -999.2500         0.9333       -20.3169     
 8933.0000      -999.2500      -999.2500       113.0391        96.5977      -999.2500         0.7596      -999.2500      -999.2500         0.9153       -20.1704     
 8933.5000      -999.2500      -999.2500       110.2754        96.5742      -999.2500         0.8224      -999.2500      -999.2500         0.8877       -20.0244     
 8934.0000      -999.2500      -999.2500       109.7783        98.4844      -999.2500         0.8884      -999.2500      -999.2500         0.9688       -19.9650     
 8934.5000      -999.2500      -999.2500       109.5195       100.4570      -999.2500         0.9120      -999.2500      -999.2500         1.0090       -19.8062     
 8935.0000      -999.2500      -999.2500       114.9609       102.9258      -999.2500         0.9248      -999.2500      -999.2500         0.9932       -19.6971     
 8935.5000      -999.2500      -999.2500       115.4648       103.2109      -999.2500         0.9286      -999.2500      -999.2500         0.9691       -19.6700     
 8936.0000      -999.2500      -999.2500       118.0508       103.5703      -999.2500         0.9252      -999.2500      -999.2500         0.9372       -19.7051     
 8936.5000      -999.2500      -999.2500       118.8408       104.8379      -999.2500         0.9107      -999.2500      -999.2500         0.9016       -19.8186     
 8937.0000      -999.2500      -999.2500       118.3945       102.6719      -999.2500         0.8991      -999.2500      -999.2500         0.8723       -19.9298     
 8937.5000      -999.2500      -999.2500       116.7062        99.9609      -999.2500         0.8857      -999.2500      -999.2500         0.8531       -20.0611     
