~Version Information Section
VERS.          2.0                                     : CWLS LOG ASCII Standard
WRAP.          NO                                      : One line per depth step
CREA.          03/06/17                                : LAS Creation Date
~Well Information Section
STRT.ft        1441.0000                               : Start Depth
STOP.ft        10644.0000                              : Stop Depth
STEP.ft        0.5000                                  : Step
NULL.          -999.2500                               : Null Value
COMP.          TEXACO PRODUCTION SERVICES LTD.         : Company
WELL.          14/20-5                                 : Well
FLD .          MORAY FIRTH                             : Field
LOC .          NORTH SEA                               : Location
LOC1.          -                                       : Location (UTM)
CTRY.          UK                                      : Country
PROV.          UKCS                                    : Province
UWI .          862                                     : UWI Number
API .          -                                       : API Number
SECT.          -                                       : Section
TOWN.          -                                       : Township
RNGE.          -                                       : Range
PDAT.          MSL                                     : Perm Datum
EPD .ft        0.0                                     : Elevation
LMF .          RKB                                     : Log Measured From
DMF .          RKB                                     : Drill Measured From
APD .ft        88.0                                    : Above Perm Datum
EKB .ft        88.0                                    : Elev-Kelly Bushing
EDF .ft        87.0                                    : Elev-Drill Floor
EGL .ft        -438.0                                  : Elev-Ground Level (Water Depth)
TDD .ft        10629.0                                 : Total Depth (Driller)
TDL .ft        10645.0                                 : Total Depth (Logger)
SRVC.          SCHLUMBERGER                            : Service Company
LATI.          58 23 39.75" N                          : Latitude
LONG.          00 07 23.05" W                          : Longitude
DATE.          MAR-APR-1976                            : Logging Date
PROJ.          UKCS                                    : Project
SET .          COMP_WIRE                               : Set
~Curve Information Section
DEPTH.ft                                               : Depth Curve
CALD.in                                                : Caliper (from FDC/CNL/GR)
DRHO.g/cc                                              : Delta Rho
DT.us/ft                                               : Delta-T
GR.gAPI                                                : Gamma Ray (from ISF/BHC/GR)
GRD.gAPI                                               : Gamma Ray (from FDC/CNL/GR)
ILD.Ohmm                                               : Deep Induction Standard Processed Resistivity
NPHI.LPU                                               : Neutron Porosity
RHOB.g/cc                                              : Bulk Density
SFLU.Ohmm                                              : SFL Resistivity (Unaveraged)
SP.mV                                                  : Spontaneous Potential
~ASCII Log Data Section
# ...
 9477.0000         8.9739         0.0340        67.5566        57.7502        47.8241         8.1191         9.4849         2.5636        11.7734       -28.7832     
 9477.5000         8.9649         0.0183        67.2373        58.3477        50.2039         8.6973        11.1266         2.5244        15.9063       -30.0703     
 9478.0000         8.9406         0.0035        66.3750        59.2754        49.6987         8.7664        12.2715         2.5117        16.1875       -31.5742     
 9478.5000         8.9018         0.0105        65.4170        60.5703        45.6764         8.8762        12.3096         2.5237        14.6289       -32.9102     
 9479.0000         8.7939         0.0255        65.2734        62.5742        42.7169         9.2324        11.9160         2.5148        24.8125       -34.1953     
 9479.5000         8.6082         0.0236        65.9492        62.0938        41.8534         9.9121        12.1939         2.4845        30.6719       -35.5137     
 9480.0000         8.5008         0.0087        68.0201        58.1002        40.3788        11.3610        12.8230         2.4673        13.8473       -36.5082     
 9480.5000         8.4572         0.0065        71.1836        56.9463        38.2748        13.2539        12.7998         2.4588        10.4707       -37.3613     
 9481.0000         8.4408         0.0105        73.0859        56.1328        36.7454        14.2520        12.9539         2.4398        10.5078       -38.5703     
 9481.5000         8.4658         0.0114        70.6484        52.2969        36.3101        14.6064        13.8933         2.4259        14.8594       -39.8770     
 9482.0000         8.5064         0.0077        66.1730        47.5586        35.6988        14.5325        14.8532         2.4253        35.7718       -41.0135     
 9482.5000         8.5467         0.0029        62.3984        45.7305        32.0826        14.3159        14.5127         2.4570        50.8438       -42.0605     
 9483.0000         8.5475         0.0019        59.3164        45.5410        27.5505        14.5352        12.1070         2.5068        74.1563       -43.4102     
 9483.5000         8.5137         0.0075        63.9297        47.3945        24.7940        15.0938        10.4391         2.5182        80.7500       -45.0117     
 9484.0000         8.4729         0.0115        70.4141        49.4883        25.9517        15.7217        12.3525         2.4872        31.3750       -46.4453     
 9484.5000         8.4321         0.0157        76.4105        52.2539        28.0683        16.2975        15.0272         2.4396        14.3603       -47.6852     
 9485.0000         8.4066         0.0203        80.1563        55.0586        30.4387        16.6250        17.5634         2.3829        12.5293       -48.6934     
 9485.5000         8.4004         0.0178        79.1523        56.0396        33.2969        15.6250        19.3879         2.3371        11.9990       -49.4697     
 9486.0000         8.4004         0.0055        76.4609        54.4844        33.4892        13.8398        19.5445         2.3216        11.9316       -50.0254     
 9486.5000         8.4167         0.0002        75.1827        52.0576        31.2851        13.5534        19.0842         2.3243        13.6457       -50.5899     
 9487.0000         8.4352         0.0030        74.6191        51.9194        29.2899        13.6558        18.3882         2.3383        14.8008       -51.1187     
 9487.5000         8.4365         0.0064        75.1016        51.8848        28.7631        14.0693        17.7027         2.3635        12.6406       -51.3110     
 9488.0000         8.4078         0.0117        77.1816        50.9863        29.5776        14.5355        17.3298         2.3794        12.1689       -51.1309     
 9488.5000         8.4026         0.0140        76.6328        49.9097        30.5189        14.1367        18.1351         2.3531        12.4941       -50.9304     
 9489.0000         8.4158         0.0064        76.5269        51.5898        31.0772        13.5938        19.2373         2.3248        13.4688       -50.7874     
 9489.5000         8.4202         0.0003        76.6724        53.8828        32.0257        13.4690        19.5206         2.3198        12.7930       -50.9446     
 9490.0000         8.4202        -0.0057        76.6113        55.5332        33.2438        13.4059        19.1010         2.3287        10.7129       -51.1812     
 9490.5000         8.4202        -0.0062        76.9316        57.2148        34.4651        13.2917        18.4027         2.3451        10.3381       -51.4199     
 9491.0000         8.4202        -0.0030        74.2266        57.8281        34.8765        13.0884        18.2204         2.3657        10.7539       -51.7476     
 9491.5000         8.4202         0.0015        71.5430        56.1211        34.5558        12.6279        18.1962         2.4057        11.8711       -52.0620     
 9492.0000         8.4201         0.0021        68.0625        54.9312        35.2212        11.8330        17.5058         2.4406        13.6914       -52.0791     
 9492.5000         8.4201         0.0002        66.1641        55.4434        37.6965        11.5029        16.3035         2.4674        20.2500       -51.8650     
 9493.0000         8.4201         0.0014        69.5922        56.1561        39.7344        11.6838        14.9357         2.4907        22.8864       -51.9130     
 9493.5000         8.4200         0.0027        71.3105        56.4512        42.7116        11.6748        14.4792         2.4871        14.7188       -52.2959     
 9494.0000         8.4200         0.0024        72.0713        55.8193        45.1376        11.0391        15.0535         2.4618        10.1304       -52.6792     
 9494.5000         8.4200        -0.0018        70.9512        54.9375        44.8811        10.4990        15.9716         2.4344        10.9922       -53.2773     
 9495.0000         8.4200        -0.0068        70.5532        53.6660        41.3811        10.0149        16.4620         2.4270        13.6134       -53.9334     
 9495.5000         8.4199        -0.0032        74.0742        52.2363        38.1079         9.9626        16.2464         2.4344        15.1211       -54.4717     
 9496.0000         8.4199         0.0020        75.8984        51.5420        37.4916        10.0784        16.2383         2.4444        11.9063       -54.8408     
 9496.5000         8.4199         0.0044        77.2402        52.7578        39.8645        10.1625        17.1152         2.4292        10.1133       -54.7515     
 9497.0000         8.4199         0.0021        77.5371        55.2031        42.3811        10.1296        18.1170         2.3976         9.6250       -54.5745     
 9497.5000         8.4309         0.0002        76.3536        58.4453        42.8682         9.8684        18.6973         2.3803         9.9961       -54.5313     
 9498.0000         8.4639        -0.0008        76.4297        58.6953        42.1736         9.4722        18.9704         2.3809        10.6543       -54.7017     
 9498.5000         8.5045        -0.0003        78.6211        57.0625        40.1000         9.2214        19.1466         2.3987        10.8955       -55.0542     
 9499.0000         8.4932         0.0017        80.3828        55.0977        36.5393         9.1908        19.5132         2.4089         9.6641       -55.3862     
 9499.5000         8.4541         0.0024        82.2977        53.6508        34.4585         9.2053        19.9397         2.3879         9.1463       -55.6963     
 9500.0000         8.4134         0.0052        80.2266        52.7920        33.4462         9.6094        20.2007         2.3645         9.8057       -56.0513     
 9500.5000         8.4129         0.0121        78.6074        52.6802        33.0387        10.1016        20.0661         2.3442        10.7383       -56.3901     
 9501.0000         8.4331         0.0183        77.2578        52.8694        32.6998        10.3687        19.4287         2.3491        11.1963       -56.7949     
