~Version Information Section
VERS.          2.0                                     : CWLS LOG ASCII Standard
WRAP.          NO                                      : One line per depth step
CREA.          03/06/17                                : LAS Creation Date
~Well Information Section
STRT.ft        1441.0000                               : Start Depth
STOP.ft        10644.0000                              : Stop Depth
STEP.ft        0.5000                                  : Step
NULL.          -999.2500                               : Null Value
COMP.          TEXACO PRODUCTION SERVICES LTD.         : Company
WELL.          14/20-5                                 : Well
FLD .          MORAY FIRTH                             : Field
LOC .          NORTH SEA                               : Location
LOC1.          -                                       : Location (UTM)
CTRY.          UK                                      : Country
PROV.          UKCS                                    : Province
UWI .          862                                     : UWI Number
API .          -                                       : API Number
SECT.          -                                       : Section
TOWN.          -                                       : Township
RNGE.          -                                       : Range
PDAT.          MSL                                     : Perm Datum
EPD .ft        0.0                                     : Elevation
LMF .          RKB                                     : Log Measured From
DMF .          RKB                                     : Drill Measured From
APD .ft        88.0                                    : Above Perm Datum
EKB .ft        88.0                                    : Elev-Kelly Bushing
EDF .ft        87.0                                    : Elev-Drill Floor
EGL .ft        -438.0                                  : Elev-Ground Level (Water Depth)
TDD .ft        10629.0                                 : Total Depth (Driller)
TDL .ft        10645.0                                 : Total Depth (Logger)
SRVC.          SCHLUMBERGER                            : Service Company
LATI.          58 23 39.75" N                          : Latitude
LONG.          00 07 23.05" W                          : Longitude
DATE.          MAR-APR-1976                            : Logging Date
PROJ.          UKCS                                    : Project
SET .          COMP_WIRE                               : Set
~Curve Information Section
DEPTH.ft                                               : Depth Curve
CALD.in                                                : Caliper (from FDC/CNL/GR)
DRHO.g/cc                                              : Delta Rho
DT.us/ft                                               : Delta-T
GR.gAPI                                                : Gamma Ray (from ISF/BHC/GR)
GRD.gAPI                                               : Gamma Ray (from FDC/CNL/GR)
ILD.Ohmm                                               : Deep Induction Standard Processed Resistivity
NPHI.LPU                                               : Neutron Porosity
RHOB.g/cc                                              : Bulk Density
SFLU.Ohmm                                              : SFL Resistivity (Unaveraged)
SP.mV                                                  : Spontaneous Potential
~ASCII Log Data Section
# ...
 8644.0000      -999.2500      -999.2500       111.0498        85.5000      -999.2500         0.8856      -999.2500      -999.2500         1.1055       -21.3772     
 8644.5000      -999.2500      -999.2500       112.5152        85.7184      -999.2500         0.8750      -999.2500      -999.2500         1.0967       -21.3412     
 8645.0000      -999.2500      -999.2500       112.7954        84.9766      -999.2500         0.8737      -999.2500      -999.2500         1.0679       -21.3015     
 8645.5000      -999.2500      -999.2500       112.7324        84.6372      -999.2500         0.8770      -999.2500      -999.2500         1.0378       -21.0425     
 8646.0000      -999.2500      -999.2500       110.8477        85.3359      -999.2500         0.8873      -999.2500      -999.2500         1.0464       -20.7451     
 8646.5000      -999.2500      -999.2500       107.9375        86.3750      -999.2500         0.9016      -999.2500      -999.2500         1.1906       -20.5151     
 8647.0000      -999.2500      -999.2500       107.1403        85.6543      -999.2500         0.9256      -999.2500      -999.2500         1.2445       -20.3626     
 8647.5000      -999.2500      -999.2500       111.0234        84.6875      -999.2500         0.9710      -999.2500      -999.2500         1.1321       -20.2957     
 8648.0000      -999.2500      -999.2500       112.1865        83.6836      -999.2500         1.0137      -999.2500      -999.2500         1.0252       -20.3856     
 8648.5000      -999.2500      -999.2500       112.4458        83.3491      -999.2500         1.0433      -999.2500      -999.2500         1.0276       -20.3660     
 8649.0000      -999.2500      -999.2500       110.8828        83.7080      -999.2500         1.0683      -999.2500      -999.2500         1.2378       -20.3989     
 8649.5000      -999.2500      -999.2500       106.4023        83.4619      -999.2500         1.0935      -999.2500      -999.2500         1.2594       -20.5043     
 8650.0000      -999.2500      -999.2500       103.0469        82.3691      -999.2500         1.1126      -999.2500      -999.2500         1.2487       -20.5340     
 8650.5000      -999.2500      -999.2500       101.6968        80.6211      -999.2500         1.1512      -999.2500      -999.2500         1.3643       -20.6103     
 8651.0000      -999.2500      -999.2500       100.9143        79.4452      -999.2500         1.1953      -999.2500      -999.2500         1.5022       -20.6058     
 8651.5000      -999.2500      -999.2500       100.1924        80.9453      -999.2500         1.2251      -999.2500      -999.2500         1.5708       -20.6614     
 8652.0000      -999.2500      -999.2500       100.0938        83.3086      -999.2500         1.2377      -999.2500      -999.2500         1.5428       -20.6992     
 8652.5000      -999.2500      -999.2500       104.9297        85.8281      -999.2500         1.2421      -999.2500      -999.2500         1.4941       -20.6982     
 8653.0000      -999.2500      -999.2500       102.4247        87.9355      -999.2500         1.2268      -999.2500      -999.2500         1.4443       -20.6625     
 8653.5000      -999.2500      -999.2500       105.3676        86.7266      -999.2500         1.2012      -999.2500      -999.2500         1.4783       -20.4290     
 8654.0000      -999.2500      -999.2500       104.6426        82.2227      -999.2500         1.2083      -999.2500      -999.2500         1.4931       -20.2700     
 8654.5000      -999.2500      -999.2500       104.8135        80.2197      -999.2500         1.2305      -999.2500      -999.2500         1.4215       -20.2238     
 8655.0000      -999.2500      -999.2500       105.0088        79.9346      -999.2500         1.2562      -999.2500      -999.2500         1.3413       -20.2458     
 8655.5000      -999.2500      -999.2500       104.2129        79.3369      -999.2500         1.2708      -999.2500      -999.2500         1.3461       -20.1526     
 8656.0000      -999.2500      -999.2500       103.3989        78.7041      -999.2500         1.2713      -999.2500      -999.2500         1.4760       -20.0521     
 8656.5000      -999.2500      -999.2500       101.9102        78.3027      -999.2500         1.2552      -999.2500      -999.2500         1.6031       -20.0984     
 8657.0000      -999.2500      -999.2500       100.3960        79.0586      -999.2500         1.2287      -999.2500      -999.2500         1.6404       -20.1491     
 8657.5000      -999.2500      -999.2500       101.5177        81.0905      -999.2500         1.2069      -999.2500      -999.2500         1.6906       -20.2180     
 8658.0000      -999.2500      -999.2500       104.1172        83.8828      -999.2500         1.1754      -999.2500      -999.2500         1.6011       -20.3362     
 8658.5000      -999.2500      -999.2500       107.7725        86.3945      -999.2500         1.1281      -999.2500      -999.2500         1.4285       -20.3645     
 8659.0000      -999.2500      -999.2500       109.0156        89.8555      -999.2500         1.0659      -999.2500      -999.2500         1.1661       -20.4233     
 8659.5000      -999.2500      -999.2500       111.8037        91.3239      -999.2500         1.0193      -999.2500      -999.2500         1.2350       -20.5525     
 8660.0000      -999.2500      -999.2500       110.5137        88.5703      -999.2500         0.9890      -999.2500      -999.2500         1.2419       -20.6638     
 8660.5000      -999.2500      -999.2500       110.4434        84.7578      -999.2500         0.9671      -999.2500      -999.2500         1.1603       -20.6649     
 8661.0000      -999.2500      -999.2500       111.9141        81.9336      -999.2500         0.9482      -999.2500      -999.2500         1.1360       -20.7998     
 8661.5000      -999.2500      -999.2500       109.8384        80.6777      -999.2500         0.9321      -999.2500      -999.2500         1.1422       -20.8486     
 8662.0000      -999.2500      -999.2500       110.2539        80.9790      -999.2500         0.9173      -999.2500      -999.2500         1.1508       -20.8080     
 8662.5000      -999.2500      -999.2500       110.4395        81.4004      -999.2500         0.9149      -999.2500      -999.2500         1.1628       -20.8833     
 8663.0000      -999.2500      -999.2500       109.7031        82.2656      -999.2500         0.9290      -999.2500      -999.2500         1.1817       -21.0664     
 8663.5000      -999.2500      -999.2500       109.7930        84.2773      -999.2500         0.9692      -999.2500      -999.2500         1.1980       -21.2300     
 8664.0000      -999.2500      -999.2500       110.4345        86.1591      -999.2500         1.0015      -999.2500      -999.2500         1.1947       -21.4418     
 8664.5000      -999.2500      -999.2500       108.5879        86.4854      -999.2500         1.0268      -999.2500      -999.2500         1.1492       -21.4745     
 8665.0000      -999.2500      -999.2500       107.9043        85.6953      -999.2500         1.0425      -999.2500      -999.2500         1.2445       -21.3135     
 8665.5000      -999.2500      -999.2500       105.7734        84.4336      -999.2500         1.0512      -999.2500      -999.2500         1.3657       -21.1228     
 8666.0000      -999.2500      -999.2500       103.9452        83.2764      -999.2500         1.0580      -999.2500      -999.2500         1.4545       -20.9821     
 8666.5000      -999.2500      -999.2500       103.2456        83.7217      -999.2500         1.0606      -999.2500      -999.2500         1.4600       -20.9441     
 8667.0000      -999.2500      -999.2500       104.5977        84.9141      -999.2500         1.0665      -999.2500      -999.2500         1.3918       -20.9359     
 8667.5000      -999.2500      -999.2500       107.0859        87.0977      -999.2500         1.0666      -999.2500      -999.2500         1.3358       -20.9533     
 8668.0000      -999.2500      -999.2500       108.7129        89.5625      -999.2500         1.0648      -999.2500      -999.2500         1.2906       -20.9950     
