~Version Information Section
VERS.          2.0                                     : CWLS LOG ASCII Standard
WRAP.          NO                                      : One line per depth step
CREA.          03/06/17                                : LAS Creation Date
~Well Information Section
STRT.ft        1441.0000                               : Start Depth
STOP.ft        10644.0000                              : Stop Depth
STEP.ft        0.5000                                  : Step
NULL.          -999.2500                               : Null Value
COMP.          TEXACO PRODUCTION SERVICES LTD.         : Company
WELL.          14/20-5                                 : Well
FLD .          MORAY FIRTH                             : Field
LOC .          NORTH SEA                               : Location
LOC1.          -                                       : Location (UTM)
CTRY.          UK                                      : Country
PROV.          UKCS                                    : Province
UWI .          862                                     : UWI Number
API .          -                                       : API Number
SECT.          -                                       : Section
TOWN.          -                                       : Township
RNGE.          -                                       : Range
PDAT.          MSL                                     : Perm Datum
EPD .ft        0.0                                     : Elevation
LMF .          RKB                                     : Log Measured From
DMF .          RKB                                     : Drill Measured From
APD .ft        88.0                                    : Above Perm Datum
EKB .ft        88.0                                    : Elev-Kelly Bushing
EDF .ft        87.0                                    : Elev-Drill Floor
EGL .ft        -438.0                                  : Elev-Ground Level (Water Depth)
TDD .ft        10629.0                                 : Total Depth (Driller)
TDL .ft        10645.0                                 : Total Depth (Logger)
SRVC.          SCHLUMBERGER                            : Service Company
LATI.          58 23 39.75" N                          : Latitude
LONG.          00 07 23.05" W                          : Longitude
DATE.          MAR-APR-1976                            : Logging Date
PROJ.          UKCS                                    : Project
SET .          COMP_WIRE                               : Set
~Curve Information Section
DEPTH.ft                                               : Depth Curve
CALD.in                                                : Caliper (from FDC/CNL/GR)
DRHO.g/cc                                              : Delta Rho
DT.us/ft                                               : Delta-T
GR.gAPI                                                : Gamma Ray (from ISF/BHC/GR)
GRD.gAPI                                               : Gamma Ray (from FDC/CNL/GR)
ILD.Ohmm                                               : Deep Induction Standard Processed Resistivity
NPHI.LPU                                               : Neutron Porosity
RHOB.g/cc                                              : Bulk Density
SFLU.Ohmm                                              : SFL Resistivity (Unaveraged)
SP.mV                                                  : Spontaneous Potential
~ASCII Log Data Section
# ...
 9207.5000        10.0143         0.0695        96.9375        73.1973        45.2754         2.0095        21.0670         2.4294         2.2939       -15.5166     
 9208.0000         9.8717         0.0460        85.8125        73.2617        46.6654         2.0364        19.9023         2.4611         2.9336       -15.4910     
 9208.5000         9.7998         0.0846        83.9766        70.7227        47.4445         2.0576        20.0391         2.4875         4.4648       -15.5144     
 9209.0000         9.7958         0.1281        82.8887        68.3789        46.7631         2.1006        21.6428         2.4949         4.8164       -15.5571     
 9209.5000         9.8365         0.1514        87.5000        65.5898        45.0310         2.1871        22.7940         2.3951         3.0723       -15.7039     
 9210.0000         9.9077         0.1628        90.9375        62.2266        42.7466         2.2728        22.5744         2.3445         2.7304       -15.8023     
 9210.5000         9.9974         0.1755        85.5156        59.3750        40.8425         2.2893        21.8596         2.3389         2.8230       -15.8023     
 9211.0000        10.0727         0.1939        82.2722        58.2051        39.0960         2.1808        21.2049         2.3447         3.3695       -15.7445     
 9211.5000        10.1514         0.2100        80.6895        58.0662        39.1633         2.1466        20.1924         2.3627         4.1367       -15.6660     
 9212.0000        10.1762         0.2271        82.5078        59.2656        39.8007         2.2717        18.9134         2.3959         5.3867       -15.6249     
 9212.5000        10.1598         0.2274        82.3574        59.5620        40.6066         2.3773        18.5279         2.4334         4.4746       -15.6036     
 9213.0000        10.0842         0.2011        81.5303        60.5078        41.2787         2.4715        18.4898         2.4622         4.3592       -15.6035     
 9213.5000         9.9064         0.1634        80.7285        61.5779        41.4823         2.5243        18.4001         2.5124         4.7244       -15.5413     
 9214.0000         9.7676         0.1336        79.6406        61.7031        40.7745         2.4985        18.0077         2.5488         4.8203       -15.5006     
 9214.5000         9.6456         0.1391        78.6426        62.5273        39.3496         2.4379        17.4183         2.5901         4.2601       -15.5018     
 9215.0000         9.5771         0.1545        81.1758        63.8438        38.1478         2.4338        17.0048         2.6264         4.7080       -15.5085     
 9215.5000         9.5592         0.1661        83.5210        65.2285        37.3247         2.4739        16.7055         2.6293         5.4567       -15.4667     
 9216.0000         9.5971         0.1640        84.3613        64.7256        36.4638         2.5063        16.4366         2.6166         5.4023       -15.3809     
 9216.5000         9.6301         0.1651        82.9570        65.6563        36.8979         2.4391        16.2082         2.6134         4.4629       -15.1992     
 9217.0000         9.6162         0.1722        82.5938        66.8711        37.9304         2.4025        16.2944         2.6156         3.8096       -15.0869     
 9217.5000         9.6289         0.1797        84.2578        65.2734        39.0788         2.4398        17.1084         2.6253         4.4004       -15.1709     
 9218.0000         9.6570         0.1833        82.9414        62.8281        40.0628         2.4608        18.1195         2.6258         5.5908       -15.2748     
 9218.5000         9.6630         0.1833        81.0781        60.3477        40.6751         2.3984        18.5700         2.6261         4.3125       -15.3923     
 9219.0000         9.6634         0.1816        80.9531        59.1836        41.1817         2.4075        18.8136         2.6264         4.9805       -15.4939     
 9219.5000         9.6639         0.1779        80.3633        57.6797        40.6742         2.3879        18.9782         2.6225         5.5303       -15.5162     
 9220.0000         9.6643         0.1734        80.7500        57.1992        39.8317         2.3184        18.9075         2.6064         5.3604       -15.4507     
 9220.5000         9.6648         0.1676        79.5400        58.7734        39.0016         2.2435        18.4930         2.5900         5.6406       -15.2114     
 9221.0000         9.6652         0.1653        80.4482        60.6875        39.4322         2.1543        17.5726         2.5606         5.2534       -14.9023     
 9221.5000         9.6657         0.1586        80.7860        63.1641        41.1590         2.0564        16.5869         2.5191         4.9238       -14.5854     
 9222.0000         9.6922         0.1462        83.2773        64.8545        42.8094         1.9868        16.3245         2.4640         4.8179       -14.5488     
 9222.5000         9.7433         0.1428        85.3174        63.8867        43.7380         2.0047        16.1648         2.4264         4.9473       -14.8242     
 9223.0000         9.7648         0.1563        85.1880        63.3184        44.1212         2.0320        16.0765         2.4226         4.7686       -15.0486     
 9223.5000         9.8025         0.1648        83.8047        63.0215        43.4520         2.0627        15.9646         2.4452         4.1826       -15.0205     
 9224.0000         9.8667         0.1363        81.5229        62.4336        41.0557         2.1101        15.9773         2.4600         3.9017       -14.8478     
 9224.5000         9.7601         0.0890        78.8984        61.0977        39.9640         2.1731        16.1070         2.4592         4.9219       -14.7343     
 9225.0000         9.6127         0.0350        76.0195        57.8125        39.6710         2.2449        15.9745         2.4392         6.3164       -14.5076     
 9225.5000         9.5722        -0.0040        74.6699        53.8906        40.0218         2.2968        15.6072         2.4029         7.0742       -14.3464     
 9226.0000         9.5696        -0.0078        76.8593        54.4844        39.3688         2.4471        15.2043         2.3875         5.9148       -14.0972     
 9226.5000         9.5700         0.0073        78.9727        55.6541        37.9692         2.6643        14.6962         2.3998         5.2388       -13.8879     
 9227.0000         9.5705         0.0440        78.6523        56.0801        37.1263         2.8125        14.0584         2.4300         5.4541       -13.7522     
 9227.5000         9.5709         0.0723        77.7920        57.7070        36.9025         2.8571        13.6374         2.4751         5.9189       -13.7305     
 9228.0000         9.5545         0.0802        77.2930        59.1914        37.1396         2.8729        13.5680         2.4973         6.6953       -14.0273     
 9228.5000         9.5518         0.0645        77.4928        59.8853        37.1255         2.8936        14.0238         2.4576         6.8701       -14.3578     
 9229.0000         9.5522         0.0384        78.1035        60.0605        37.9752         2.9068        14.8519         2.4287         5.8398       -14.6151     
 9229.5000         9.5176         0.0206        77.8359        59.5508        39.4270         2.8981        15.3950         2.4157         6.4404       -14.6601     
 9230.0000         9.5043         0.0104        75.5408        58.6865        40.0100         2.7961        15.8259         2.4222         5.8311       -14.6638     
 9230.5000         9.5035         0.0092        76.1699        58.2588        40.1547         2.7241        16.4169         2.4407         5.5435       -14.5454     
 9231.0000         9.4978         0.0251        77.8164        57.9185        40.2256         2.6719        16.8795         2.4594         6.4180       -14.2983     
 9231.5000         9.5033         0.0349        78.7305        57.6900        40.0048         2.6577        17.0082         2.4779         5.9517       -14.0337     
