~Version Information Section
VERS.          2.0                                     : CWLS LOG ASCII Standard
WRAP.          NO                                      : One line per depth step
CREA.          03/06/17                                : LAS Creation Date
~Well Information Section
STRT.ft        1441.0000                               : Start Depth
STOP.ft        10644.0000                              : Stop Depth
STEP.ft        0.5000                                  : Step
NULL.          -999.2500                               : Null Value
COMP.          TEXACO PRODUCTION SERVICES LTD.         : Company
WELL.          14/20-5                                 : Well
FLD .          MORAY FIRTH                             : Field
LOC .          NORTH SEA                               : Location
LOC1.          -                                       : Location (UTM)
CTRY.          UK                                      : Country
PROV.          UKCS                                    : Province
UWI .          862                                     : UWI Number
API .          -                                       : API Number
SECT.          -                                       : Section
TOWN.          -                                       : Township
RNGE.          -                                       : Range
PDAT.          MSL                                     : Perm Datum
EPD .ft        0.0                                     : Elevation
LMF .          RKB                                     : Log Measured From
DMF .          RKB                                     : Drill Measured From
APD .ft        88.0                                    : Above Perm Datum
EKB .ft        88.0                                    : Elev-Kelly Bushing
EDF .ft        87.0                                    : Elev-Drill Floor
EGL .ft        -438.0                                  : Elev-Ground Level (Water Depth)
TDD .ft        10629.0                                 : Total Depth (Driller)
TDL .ft        10645.0                                 : Total Depth (Logger)
SRVC.          SCHLUMBERGER                            : Service Company
LATI.          58 23 39.75" N                          : Latitude
LONG.          00 07 23.05" W                          : Longitude
DATE.          MAR-APR-1976                            : Logging Date
PROJ.          UKCS                                    : Project
SET .          COMP_WIRE                               : Set
~Curve Information Section
DEPTH.ft                                               : Depth Curve
CALD.in                                                : Caliper (from FDC/CNL/GR)
DRHO.g/cc                                              : Delta Rho
DT.us/ft                                               : Delta-T
GR.gAPI                                                : Gamma Ray (from ISF/BHC/GR)
GRD.gAPI                                               : Gamma Ray (from FDC/CNL/GR)
ILD.Ohmm                                               : Deep Induction Standard Processed Resistivity
NPHI.LPU                                               : Neutron Porosity
RHOB.g/cc                                              : Bulk Density
SFLU.Ohmm                                              : SFL Resistivity (Unaveraged)
SP.mV                                                  : Spontaneous Potential
~ASCII Log Data Section
# ...
 7786.5000      -999.2500      -999.2500        79.1941        47.9297      -999.2500         3.0594      -999.2500      -999.2500         3.7615       -29.3213     
 7787.0000      -999.2500      -999.2500        79.9531        46.5801      -999.2500         3.1094      -999.2500      -999.2500         3.7769       -29.4255     
 7787.5000      -999.2500      -999.2500        80.3901        45.3867      -999.2500         3.1710      -999.2500      -999.2500         3.5576       -29.5254     
 7788.0000      -999.2500      -999.2500        80.0908        44.6455      -999.2500         3.1749      -999.2500      -999.2500         3.2859       -29.5629     
 7788.5000      -999.2500      -999.2500        79.7634        44.8477      -999.2500         3.1509      -999.2500      -999.2500         3.2905       -29.5608     
 7789.0000      -999.2500      -999.2500        80.0193        46.0094      -999.2500         3.1202      -999.2500      -999.2500         3.4878       -29.5623     
 7789.5000      -999.2500      -999.2500        80.5023        46.9795      -999.2500         3.1155      -999.2500      -999.2500         3.3643       -29.5768     
 7790.0000      -999.2500      -999.2500        80.7208        46.0527      -999.2500         3.1533      -999.2500      -999.2500         3.0681       -29.5913     
 7790.5000      -999.2500      -999.2500        80.4600        45.5549      -999.2500         3.1968      -999.2500      -999.2500         3.2021       -29.5634     
 7791.0000      -999.2500      -999.2500        79.7344        45.5918      -999.2500         3.2455      -999.2500      -999.2500         3.5586       -29.5108     
 7791.5000      -999.2500      -999.2500        78.9238        45.0469      -999.2500         3.2969      -999.2500      -999.2500         3.7566       -29.4581     
 7792.0000      -999.2500      -999.2500        78.5391        44.2006      -999.2500         3.3497      -999.2500      -999.2500         3.8362       -29.4049     
 7792.5000      -999.2500      -999.2500        78.5376        43.1738      -999.2500         3.3883      -999.2500      -999.2500         3.9181       -29.3510     
 7793.0000      -999.2500      -999.2500        78.5367        42.4309      -999.2500         3.4203      -999.2500      -999.2500         3.9325       -29.2985     
 7793.5000      -999.2500      -999.2500        78.8155        43.2574      -999.2500         3.4367      -999.2500      -999.2500         3.8210       -29.2483     
 7794.0000      -999.2500      -999.2500        79.1778        45.4161      -999.2500         3.4369      -999.2500      -999.2500         3.7722       -29.1983     
 7794.5000      -999.2500      -999.2500        79.5469        45.4980      -999.2500         3.4248      -999.2500      -999.2500         3.7607       -29.2566     
 7795.0000      -999.2500      -999.2500        79.9683        44.7520      -999.2500         3.4056      -999.2500      -999.2500         3.7791       -29.3280     
 7795.5000      -999.2500      -999.2500        80.3369        44.1823      -999.2500         3.4282      -999.2500      -999.2500         3.7875       -29.4556     
 7796.0000      -999.2500      -999.2500        80.6870        44.5273      -999.2500         3.4943      -999.2500      -999.2500         3.5605       -29.5969     
 7796.5000      -999.2500      -999.2500        80.6241        45.3215      -999.2500         3.5664      -999.2500      -999.2500         3.2607       -29.7114     
 7797.0000      -999.2500      -999.2500        78.9082        45.5894      -999.2500         3.5529      -999.2500      -999.2500         3.5049       -29.8024     
 7797.5000      -999.2500      -999.2500        77.3555        44.8125      -999.2500         3.5122      -999.2500      -999.2500         4.1875       -29.8365     
 7798.0000      -999.2500      -999.2500        76.4314        43.7734      -999.2500         3.4672      -999.2500      -999.2500         4.5539       -29.8141     
 7798.5000      -999.2500      -999.2500        77.1914        43.7334      -999.2500         3.4231      -999.2500      -999.2500         4.5444       -29.7873     
 7799.0000      -999.2500      -999.2500        81.0527        45.0957      -999.2500         3.3807      -999.2500      -999.2500         4.0557       -29.7366     
 7799.5000      -999.2500      -999.2500        82.4961        47.3086      -999.2500         3.3676      -999.2500      -999.2500         3.6104       -29.7077     
 7800.0000      -999.2500      -999.2500        83.2959        50.3047      -999.2500         3.4688      -999.2500      -999.2500         3.1235       -29.7820     
 7800.5000      -999.2500      -999.2500        83.1699        49.6348      -999.2500         3.5013      -999.2500      -999.2500         3.4302       -29.8540     
 7801.0000      -999.2500      -999.2500        81.8867        47.6465      -999.2500         3.5480      -999.2500      -999.2500         3.6538       -29.9291     
 7801.5000      -999.2500      -999.2500        80.4512        46.0059      -999.2500         3.6166      -999.2500      -999.2500         3.7261       -30.0059     
 7802.0000      -999.2500      -999.2500        79.1699        44.8457      -999.2500         3.7003      -999.2500      -999.2500         4.0234       -30.0130     
 7802.5000      -999.2500      -999.2500        78.0201        44.3211      -999.2500         3.7786      -999.2500      -999.2500         4.4441       -29.9989     
 7803.0000      -999.2500      -999.2500        77.1611        45.7539      -999.2500         3.8762      -999.2500      -999.2500         4.6055       -29.9513     
 7803.5000      -999.2500      -999.2500        76.7871        47.1309      -999.2500         3.9428      -999.2500      -999.2500         4.4253       -29.8862     
 7804.0000      -999.2500      -999.2500        77.0522        47.3032      -999.2500         3.9836      -999.2500      -999.2500         4.1780       -29.8892     
 7804.5000      -999.2500      -999.2500        77.7354        48.1172      -999.2500         3.9602      -999.2500      -999.2500         4.1223       -29.9037     
 7805.0000      -999.2500      -999.2500        77.9912        49.5134      -999.2500         3.8608      -999.2500      -999.2500         4.1485       -29.8989     
 7805.5000      -999.2500      -999.2500        77.9749        50.6113      -999.2500         3.7161      -999.2500      -999.2500         4.1348       -29.8789     
 7806.0000      -999.2500      -999.2500        78.6504        51.1079      -999.2500         3.5793      -999.2500      -999.2500         4.2029       -29.8596     
 7806.5000      -999.2500      -999.2500        79.5706        51.2562      -999.2500         3.4554      -999.2500      -999.2500         4.1256       -29.8605     
 7807.0000      -999.2500      -999.2500        80.3441        50.8919      -999.2500         3.3683      -999.2500      -999.2500         3.7620       -29.8584     
 7807.5000      -999.2500      -999.2500        81.7637        50.4924      -999.2500         3.3020      -999.2500      -999.2500         3.6295       -29.8385     
 7808.0000      -999.2500      -999.2500        82.3877        50.8848      -999.2500         3.2687      -999.2500      -999.2500         3.4473       -29.8185     
 7808.5000      -999.2500      -999.2500        81.7246        51.7734      -999.2500         3.2664      -999.2500      -999.2500         3.2889       -29.7894     
 7809.0000      -999.2500      -999.2500        80.7031        52.2480      -999.2500         3.3091      -999.2500      -999.2500         3.4858       -29.7410     
 7809.5000      -999.2500      -999.2500        79.5975        51.9665      -999.2500         3.3989      -999.2500      -999.2500         3.8510       -29.7449     
 7810.0000      -999.2500      -999.2500        78.9080        52.1714      -999.2500         3.4718      -999.2500      -999.2500         4.0874       -29.7484     
 7810.5000      -999.2500      -999.2500        79.0166        52.0039      -999.2500         3.5468      -999.2500      -999.2500         3.8987       -29.7477     
