~Version Information Section
VERS.          2.0                                     : CWLS LOG ASCII Standard
WRAP.          NO                                      : One line per depth step
CREA.          03/06/17                                : LAS Creation Date
~Well Information Section
STRT.ft        1441.0000                               : Start Depth
STOP.ft        10644.0000                              : Stop Depth
STEP.ft        0.5000                                  : Step
NULL.          -999.2500                               : Null Value
COMP.          TEXACO PRODUCTION SERVICES LTD.         : Company
WELL.          14/20-5                                 : Well
FLD .          MORAY FIRTH                             : Field
LOC .          NORTH SEA                               : Location
LOC1.          -                                       : Location (UTM)
CTRY.          UK                                      : Country
PROV.          UKCS                                    : Province
UWI .          862                                     : UWI Number
API .          -                                       : API Number
SECT.          -                                       : Section
TOWN.          -                                       : Township
RNGE.          -                                       : Range
PDAT.          MSL                                     : Perm Datum
EPD .ft        0.0                                     : Elevation
LMF .          RKB                                     : Log Measured From
DMF .          RKB                                     : Drill Measured From
APD .ft        88.0                                    : Above Perm Datum
EKB .ft        88.0                                    : Elev-Kelly Bushing
EDF .ft        87.0                                    : Elev-Drill Floor
EGL .ft        -438.0                                  : Elev-Ground Level (Water Depth)
TDD .ft        10629.0                                 : Total Depth (Driller)
TDL .ft        10645.0                                 : Total Depth (Logger)
SRVC.          SCHLUMBERGER                            : Service Company
LATI.          58 23 39.75" N                          : Latitude
LONG.          00 07 23.05" W                          : Longitude
DATE.          MAR-APR-1976                            : Logging Date
PROJ.          UKCS                                    : Project
SET .          COMP_WIRE                               : Set
~Curve Information Section
DEPTH.ft                                               : Depth Curve
CALD.in                                                : Caliper (from FDC/CNL/GR)
DRHO.g/cc                                              : Delta Rho
DT.us/ft                                               : Delta-T
GR.gAPI                                                : Gamma Ray (from ISF/BHC/GR)
GRD.gAPI                                               : Gamma Ray (from FDC/CNL/GR)
ILD.Ohmm                                               : Deep Induction Standard Processed Resistivity
NPHI.LPU                                               : Neutron Porosity
RHOB.g/cc                                              : Bulk Density
SFLU.Ohmm                                              : SFL Resistivity (Unaveraged)
SP.mV                                                  : Spontaneous Potential
~ASCII Log Data Section
# ...
10334.5000         8.0560         0.0091        72.9570        89.4297        61.9879         0.7094        15.6975         2.3805         1.3027       -39.4668     
10335.0000         8.0564         0.0095        73.4845        92.8617        67.0892         0.7089        15.8869         2.3746         1.3661       -39.5445     
10335.5000         8.0568         0.0088        73.5470        93.5410        70.5257         0.7051        16.2282         2.3710         1.4943       -39.6676     
10336.0000         8.0572         0.0060        73.4509        92.9512        72.4622         0.7110        16.4884         2.3645         1.5952       -39.8940     
10336.5000         8.0576        -0.0015        73.1216        91.4727        73.6444         0.7337        16.5090         2.3565         1.6512       -40.1221     
10337.0000         8.0574        -0.0090        72.6513        89.6133        74.4048         0.7501        16.4858         2.3501         1.6899       -40.3497     
10337.5000         8.0525        -0.0117        72.7563        88.4922        74.8074         0.7602        16.4965         2.3473         1.7974       -40.6582     
10338.0000         8.0437        -0.0078        73.1729        89.2705        73.9630         0.7748        16.3174         2.3494         1.8315       -40.9236     
10338.5000         8.0391        -0.0025        73.2021        89.5825        72.0923         0.7924        15.9099         2.3532         1.5952       -40.9177     
10339.0000         8.0395        -0.0030        72.7964        88.7520        70.1776         0.8077        15.5938         2.3550         1.2749       -40.8125     
10339.5000         8.0399        -0.0025        72.4087        90.1602        68.9005         0.8110        15.5002         2.3552         1.1853       -40.6684     
10340.0000         8.0403        -0.0022        72.0522        92.6836        67.4648         0.8085        15.5476         2.3539         1.2517       -40.4780     
10340.5000         8.0406        -0.0023        71.7463        92.6328        65.8041         0.8040        15.3280         2.3487         1.5508       -40.2593     
10341.0000         8.0410        -0.0008        71.6272        90.2383        64.9212         0.8095        14.8277         2.3550         1.7695       -40.1296     
10341.5000         8.0414         0.0003        71.6722        87.6019        66.0700         0.8569        14.4252         2.3672         1.8503       -40.0273     
10342.0000         8.0418         0.0030        71.8083        84.6523        67.3354         0.8940        14.1140         2.3737         1.8583       -39.8811     
10342.5000         8.0422         0.0062        71.8757        85.5859        66.5364         0.9020        14.0134         2.3802         1.8626       -39.7188     
10343.0000         8.0426         0.0099        71.9366        88.3281        66.0821         0.9032        14.0157         2.3821         1.8832       -39.6737     
10343.5000         8.0430         0.0059        72.0211        88.4746        66.0867         0.8986        14.1505         2.3759         1.9104       -39.5911     
10344.0000         8.0434         0.0051        71.9736        83.8203        65.8665         0.8866        14.4966         2.3702         1.9255       -39.5413     
10344.5000         8.0438         0.0033        71.5957        81.4258        65.3054         0.8640        14.9406         2.3719         1.9130       -39.5302     
10345.0000         8.0442         0.0048        70.9844        83.4492        65.6906         0.8436        14.9624         2.3764         1.8711       -39.6812     
10345.5000         8.0446         0.0055        70.8971        86.0195        66.2711         0.8245        14.6603         2.3818         1.8186       -39.9128     
10346.0000         8.0450         0.0037        71.2275        88.4766        66.6478         0.8094        14.4041         2.3801         1.7643       -40.1299     
10346.5000         8.0454         0.0020        71.6816        90.8906        66.7266         0.7946        14.2955         2.3720         1.7191       -40.2518     
10347.0000         8.0458         0.0002        72.1689        93.2109        66.4131         0.7853        14.3663         2.3650         1.6953       -40.2933     
10347.5000         8.0462        -0.0011        72.6768        95.1836        66.8903         0.7823        14.8553         2.3600         1.7106       -40.1665     
10348.0000         8.0466        -0.0026        73.2364        95.1972        66.9784         0.7841        15.3207         2.3544         1.7459       -39.9771     
10348.5000         8.0470        -0.0026        73.8295        93.4688        66.0990         0.7911        15.5212         2.3545         1.7518       -39.8957     
10349.0000         8.0474        -0.0013        74.0349        92.4688        66.2923         0.8032        15.6211         2.3577         1.7507       -39.6147     
10349.5000         8.0478        -0.0018        74.0453        93.5068        68.0746         0.8135        15.9175         2.3578         1.7497       -39.3467     
10350.0000         8.0482        -0.0024        73.9905        94.6289        70.1117         0.8177        16.2120         2.3567         1.7749       -39.1236     
10350.5000         8.0486         0.0000        73.9028        95.7930        71.9322         0.8171        16.3393         2.3567         1.8176       -38.9209     
10351.0000         8.0490         0.0022        73.7637        94.2422        72.9108         0.8054        16.3708         2.3573         1.8364       -38.9046     
10351.5000         8.0494         0.0022        73.8958        92.4063        72.2301         0.7860        16.2780         2.3618         1.8366       -39.0542     
10352.0000         8.0498         0.0054        74.0125        91.1230        69.8414         0.7626        16.4055         2.3699         1.7909       -39.1455     
10352.5000         8.0502         0.0079        73.9653        90.0371        65.7146         0.7380        16.7471         2.3714         1.7277       -39.3713     
10353.0000         8.0506         0.0045        74.0593        88.5586        63.1941         0.7155        16.9063         2.3664         1.6406       -39.7212     
10353.5000         8.0509         0.0060        74.2043        87.2490        61.8884         0.7051        16.9702         2.3680         1.5216       -39.9880     
10354.0000         8.0513         0.0154        74.3574        87.7617        61.8148         0.6977        16.8558         2.3781         1.4730       -40.1347     
10354.5000         8.0517         0.0157        74.7523        91.2366        64.7238         0.6940        16.7385         2.3808         1.4390       -40.1626     
10355.0000         8.0521         0.0050        75.0483        94.9473        66.7948         0.6943        16.5143         2.3770         1.4389       -40.1395     
10355.5000         8.0525         0.0014        74.9546        95.9990        68.1304         0.6974        16.4202         2.3731         1.5181       -40.0870     
10356.0000         8.0529         0.0015        74.5806        93.5898        69.1672         0.7010        16.2078         2.3726         1.6250       -40.0457     
10356.5000         8.0343         0.0026        74.5145        90.5313        68.5876         0.7074        16.0588         2.3676         1.6765       -40.0463     
10357.0000         8.0336         0.0039        74.7724        88.7813        68.2450         0.7138        16.1617         2.3647         1.6512       -40.0715     
10357.5000         8.0340        -0.0016        75.0200        89.3623        68.2979         0.7201        16.8515         2.3590         1.5826       -40.0283     
10358.0000         8.0344        -0.0028        75.1023        89.6826        68.3655         0.7172        17.0715         2.3530         1.5015       -39.9614     
10358.5000         8.0348        -0.0025        74.9946        89.2667        68.3423         0.7063        16.9006         2.3503         1.4925       -39.9603     
