~Version Information Section
VERS.          2.0                                     : CWLS LOG ASCII Standard
WRAP.          NO                                      : One line per depth step
CREA.          03/06/17                                : LAS Creation Date
~Well Information Section
STRT.ft        1441.0000                               : Start Depth
STOP.ft        10644.0000                              : Stop Depth
STEP.ft        0.5000                                  : Step
NULL.          -999.2500                               : Null Value
COMP.          TEXACO PRODUCTION SERVICES LTD.         : Company
WELL.          14/20-5                                 : Well
FLD .          MORAY FIRTH                             : Field
LOC .          NORTH SEA                               : Location
LOC1.          -                                       : Location (UTM)
CTRY.          UK                                      : Country
PROV.          UKCS                                    : Province
UWI .          862                                     : UWI Number
API .          -                                       : API Number
SECT.          -                                       : Section
TOWN.          -                                       : Township
RNGE.          -                                       : Range
PDAT.          MSL                                     : Perm Datum
EPD .ft        0.0                                     : Elevation
LMF .          RKB                                     : Log Measured From
DMF .          RKB                                     : Drill Measured From
APD .ft        88.0                                    : Above Perm Datum
EKB .ft        88.0                                    : Elev-Kelly Bushing
EDF .ft        87.0                                    : Elev-Drill Floor
EGL .ft        -438.0                                  : Elev-Ground Level (Water Depth)
TDD .ft        10629.0                                 : Total Depth (Driller)
TDL .ft        10645.0                                 : Total Depth (Logger)
SRVC.          SCHLUMBERGER                            : Service Company
LATI.          58 23 39.75" N                          : Latitude
LONG.          00 07 23.05" W                          : Longitude
DATE.          MAR-APR-1976                            : Logging Date
PROJ.          UKCS                                    : Project
SET .          COMP_WIRE                               : Set
~Curve Information Section
DEPTH.ft                                               : Depth Curve
CALD.in                                                : Caliper (from FDC/CNL/GR)
DRHO.g/cc                                              : Delta Rho
DT.us/ft                                               : Delta-T
GR.gAPI                                                : Gamma Ray (from ISF/BHC/GR)
GRD.gAPI                                               : Gamma Ray (from FDC/CNL/GR)
ILD.Ohmm                                               : Deep Induction Standard Processed Resistivity
NPHI.LPU                                               : Neutron Porosity
RHOB.g/cc                                              : Bulk Density
SFLU.Ohmm                                              : SFL Resistivity (Unaveraged)
SP.mV                                                  : Spontaneous Potential
~ASCII Log Data Section
# ...
 8350.0000      -999.2500      -999.2500        86.2627        56.9492      -999.2500         2.3704      -999.2500      -999.2500         2.5366       -24.5377     
 8350.5000      -999.2500      -999.2500        85.7637        55.4434      -999.2500         2.4252      -999.2500      -999.2500         2.7515       -24.5332     
 8351.0000      -999.2500      -999.2500        85.3315        55.1748      -999.2500         2.4875      -999.2500      -999.2500         2.8455       -24.4053     
 8351.5000      -999.2500      -999.2500        84.8694        56.0552      -999.2500         2.5109      -999.2500      -999.2500         2.7874       -24.3851     
 8352.0000      -999.2500      -999.2500        84.4702        57.0645      -999.2500         2.4811      -999.2500      -999.2500         2.7756       -24.4337     
 8352.5000      -999.2500      -999.2500        84.1930        58.5625      -999.2500         2.4100      -999.2500      -999.2500         2.9639       -24.5176     
 8353.0000      -999.2500      -999.2500        84.6064        61.7695      -999.2500         2.3032      -999.2500      -999.2500         3.1495       -24.6104     
 8353.5000      -999.2500      -999.2500        86.0078        63.3076      -999.2500         2.1675      -999.2500      -999.2500         3.0447       -24.8015     
 8354.0000      -999.2500      -999.2500        88.6367        62.6045      -999.2500         2.0625      -999.2500      -999.2500         2.7627       -24.9846     
 8354.5000      -999.2500      -999.2500        91.1758        62.3564      -999.2500         2.0263      -999.2500      -999.2500         2.3438       -25.0629     
 8355.0000      -999.2500      -999.2500        92.7754        63.2793      -999.2500         2.0186      -999.2500      -999.2500         2.0087       -25.0127     
 8355.5000      -999.2500      -999.2500        93.0977        61.9766      -999.2500         2.0336      -999.2500      -999.2500         1.9891       -24.9135     
 8356.0000      -999.2500      -999.2500        91.2358        58.6328      -999.2500         2.0641      -999.2500      -999.2500         2.0552       -24.8983     
 8356.5000      -999.2500      -999.2500        87.8555        55.9219      -999.2500         2.0932      -999.2500      -999.2500         2.1909       -24.9295     
 8357.0000      -999.2500      -999.2500        84.7773        55.2314      -999.2500         2.1255      -999.2500      -999.2500         2.5112       -24.9763     
 8357.5000      -999.2500      -999.2500        82.8945        56.0801      -999.2500         2.1580      -999.2500      -999.2500         3.2793       -25.0441     
 8358.0000      -999.2500      -999.2500        81.7843        57.6074      -999.2500         2.1783      -999.2500      -999.2500         3.6318       -25.1118     
 8358.5000      -999.2500      -999.2500        83.7891        60.3867      -999.2500         2.1740      -999.2500      -999.2500         3.3560       -25.1982     
 8359.0000      -999.2500      -999.2500        88.3516        63.3711      -999.2500         2.1469      -999.2500      -999.2500         2.8838       -25.3042     
 8359.5000      -999.2500      -999.2500        92.0117        66.3750      -999.2500         2.1049      -999.2500      -999.2500         2.2783       -25.3067     
 8360.0000      -999.2500      -999.2500        95.0313        69.0820      -999.2500         2.0398      -999.2500      -999.2500         1.9660       -25.2793     
 8360.5000      -999.2500      -999.2500        95.9814        71.0039      -999.2500         1.9800      -999.2500      -999.2500         1.9848       -24.7391     
 8361.0000      -999.2500      -999.2500        95.0625        72.9023      -999.2500         1.8989      -999.2500      -999.2500         1.9883       -24.7258     
 8361.5000      -999.2500      -999.2500        95.0469        73.9824      -999.2500         1.8008      -999.2500      -999.2500         2.0015       -24.7397     
 8362.0000      -999.2500      -999.2500        95.3984        74.2312      -999.2500         1.7330      -999.2500      -999.2500         2.1895       -24.9578     
 8362.5000      -999.2500      -999.2500        94.8507        74.0929      -999.2500         1.6944      -999.2500      -999.2500         2.0120       -25.0624     
 8363.0000      -999.2500      -999.2500        95.4668        74.7754      -999.2500         1.6567      -999.2500      -999.2500         1.8889       -25.0671     
 8363.5000      -999.2500      -999.2500        95.8931        76.0762      -999.2500         1.6102      -999.2500      -999.2500         1.8818       -24.9756     
 8364.0000      -999.2500      -999.2500        98.0508        77.3262      -999.2500         1.5667      -999.2500      -999.2500         1.8665       -24.7002     
 8364.5000      -999.2500      -999.2500        98.3096        78.6641      -999.2500         1.5335      -999.2500      -999.2500         1.7528       -24.5090     
 8365.0000      -999.2500      -999.2500        99.0469        78.7930      -999.2500         1.5077      -999.2500      -999.2500         1.6835       -24.3964     
 8365.5000      -999.2500      -999.2500       100.0616        76.3203      -999.2500         1.4913      -999.2500      -999.2500         1.6620       -24.4144     
 8366.0000      -999.2500      -999.2500        99.6992        75.7229      -999.2500         1.4822      -999.2500      -999.2500         1.6537       -24.4788     
 8366.5000      -999.2500      -999.2500        98.9102        76.1963      -999.2500         1.4739      -999.2500      -999.2500         1.7021       -24.6160     
 8367.0000      -999.2500      -999.2500        98.5739        76.7363      -999.2500         1.4707      -999.2500      -999.2500         1.8134       -24.7328     
 8367.5000      -999.2500      -999.2500        98.8765        77.3711      -999.2500         1.4782      -999.2500      -999.2500         1.7625       -24.7688     
 8368.0000      -999.2500      -999.2500        99.1384        77.4512      -999.2500         1.4974      -999.2500      -999.2500         1.5641       -24.7957     
 8368.5000      -999.2500      -999.2500        99.4768        76.4880      -999.2500         1.4911      -999.2500      -999.2500         1.5897       -24.8450     
 8369.0000      -999.2500      -999.2500        99.0546        76.3871      -999.2500         1.4848      -999.2500      -999.2500         1.6998       -25.0651     
 8369.5000      -999.2500      -999.2500        98.5637        77.0527      -999.2500         1.4835      -999.2500      -999.2500         1.7991       -25.3583     
 8370.0000      -999.2500      -999.2500        99.0479        78.5000      -999.2500         1.4865      -999.2500      -999.2500         1.6416       -25.3430     
 8370.5000      -999.2500      -999.2500        98.7637        79.7397      -999.2500         1.4909      -999.2500      -999.2500         1.5225       -24.9717     
 8371.0000      -999.2500      -999.2500        98.1487        80.7109      -999.2500         1.4840      -999.2500      -999.2500         1.5894       -24.5387     
 8371.5000      -999.2500      -999.2500        97.6602        81.9141      -999.2500         1.4462      -999.2500      -999.2500         1.7731       -24.1924     
 8372.0000      -999.2500      -999.2500        99.1602        82.3887      -999.2500         1.4320      -999.2500      -999.2500         1.7644       -23.9216     
 8372.5000      -999.2500      -999.2500       101.2266        82.8394      -999.2500         1.4299      -999.2500      -999.2500         1.6365       -23.7607     
 8373.0000      -999.2500      -999.2500       101.7686        83.3965      -999.2500         1.4300      -999.2500      -999.2500         1.5223       -23.6187     
 8373.5000      -999.2500      -999.2500       101.5514        82.9551      -999.2500         1.4160      -999.2500      -999.2500         1.4993       -23.5219     
 8374.0000      -999.2500      -999.2500       101.1016        81.3604      -999.2500         1.4055      -999.2500      -999.2500         1.5903       -23.4822     
