~Version Information Section
VERS.          2.0                                     : CWLS LOG ASCII Standard
WRAP.          NO                                      : One line per depth step
CREA.          03/06/17                                : LAS Creation Date
~Well Information Section
STRT.ft        1441.0000                               : Start Depth
STOP.ft        10644.0000                              : Stop Depth
STEP.ft        0.5000                                  : Step
NULL.          -999.2500                               : Null Value
COMP.          TEXACO PRODUCTION SERVICES LTD.         : Company
WELL.          14/20-5                                 : Well
FLD .          MORAY FIRTH                             : Field
LOC .          NORTH SEA                               : Location
LOC1.          -                                       : Location (UTM)
CTRY.          UK                                      : Country
PROV.          UKCS                                    : Province
UWI .          862                                     : UWI Number
API .          -                                       : API Number
SECT.          -                                       : Section
TOWN.          -                                       : Township
RNGE.          -                                       : Range
PDAT.          MSL                                     : Perm Datum
EPD .ft        0.0                                     : Elevation
LMF .          RKB                                     : Log Measured From
DMF .          RKB                                     : Drill Measured From
APD .ft        88.0                                    : Above Perm Datum
EKB .ft        88.0                                    : Elev-Kelly Bushing
EDF .ft        87.0                                    : Elev-Drill Floor
EGL .ft        -438.0                                  : Elev-Ground Level (Water Depth)
TDD .ft        10629.0                                 : Total Depth (Driller)
TDL .ft        10645.0                                 : Total Depth (Logger)
SRVC.          SCHLUMBERGER                            : Service Company
LATI.          58 23 39.75" N                          : Latitude
LONG.          00 07 23.05" W                          : Longitude
DATE.          MAR-APR-1976                            : Logging Date
PROJ.          UKCS                                    : Project
SET .          COMP_WIRE                               : Set
~Curve Information Section
DEPTH.ft                                               : Depth Curve
CALD.in                                                : Caliper (from FDC/CNL/GR)
DRHO.g/cc                                              : Delta Rho
DT.us/ft                                               : Delta-T
GR.gAPI                                                : Gamma Ray (from ISF/BHC/GR)
GRD.gAPI                                               : Gamma Ray (from FDC/CNL/GR)
ILD.Ohmm                                               : Deep Induction Standard Processed Resistivity
NPHI.LPU                                               : Neutron Porosity
RHOB.g/cc                                              : Bulk Density
SFLU.Ohmm                                              : SFL Resistivity (Unaveraged)
SP.mV                                                  : Spontaneous Potential
~ASCII Log Data Section
# ...
 6953.5000      -999.2500      -999.2500        72.9266        34.1997      -999.2500         4.4445      -999.2500      -999.2500         3.7314       -37.5825     
 6954.0000      -999.2500      -999.2500        72.7854        34.9453      -999.2500         4.4164      -999.2500      -999.2500         3.8483       -37.5391     
 6954.5000      -999.2500      -999.2500        72.6410        36.1914      -999.2500         4.4258      -999.2500      -999.2500         3.8862       -37.4355     
 6955.0000      -999.2500      -999.2500        72.5740        37.8887      -999.2500         4.4732      -999.2500      -999.2500         3.8164       -37.4175     
 6955.5000      -999.2500      -999.2500        72.1328        39.8706      -999.2500         4.5454      -999.2500      -999.2500         3.7251       -37.4854     
 6956.0000      -999.2500      -999.2500        70.5111        38.9799      -999.2500         4.6123      -999.2500      -999.2500         3.8033       -37.5987     
 6956.5000      -999.2500      -999.2500        69.4932        38.0303      -999.2500         4.6707      -999.2500      -999.2500         4.1387       -37.6474     
 6957.0000      -999.2500      -999.2500        69.1228        37.1201      -999.2500         4.7239      -999.2500      -999.2500         4.4594       -37.6144     
 6957.5000      -999.2500      -999.2500        69.1782        36.2490      -999.2500         4.7510      -999.2500      -999.2500         4.5137       -37.5127     
 6958.0000      -999.2500      -999.2500        69.4053        35.9053      -999.2500         4.7636      -999.2500      -999.2500         4.5208       -37.2944     
 6958.5000      -999.2500      -999.2500        70.3403        36.2690      -999.2500         4.7854      -999.2500      -999.2500         4.5926       -36.9016     
 6959.0000      -999.2500      -999.2500        71.5293        36.6367      -999.2500         4.7568      -999.2500      -999.2500         4.3071       -36.6682     
 6959.5000      -999.2500      -999.2500        72.5889        37.1572      -999.2500         4.6548      -999.2500      -999.2500         3.6958       -36.4351     
 6960.0000      -999.2500      -999.2500        73.0590        37.9023      -999.2500         4.5403      -999.2500      -999.2500         3.5127       -36.4970     
 6960.5000      -999.2500      -999.2500        72.5015        38.2189      -999.2500         4.4296      -999.2500      -999.2500         3.9133       -36.4674     
 6961.0000      -999.2500      -999.2500        71.0038        37.1836      -999.2500         4.3134      -999.2500      -999.2500         4.6621       -36.2366     
 6961.5000      -999.2500      -999.2500        70.9180        36.0459      -999.2500         4.1868      -999.2500      -999.2500         4.5430       -35.9458     
 6962.0000      -999.2500      -999.2500        71.5879        35.7217      -999.2500         4.0851      -999.2500      -999.2500         3.9795       -35.5293     
 6962.5000      -999.2500      -999.2500        73.8613        37.7559      -999.2500         4.0082      -999.2500      -999.2500         3.8413       -35.3362     
 6963.0000      -999.2500      -999.2500        74.2206        39.8404      -999.2500         3.9477      -999.2500      -999.2500         3.7559       -35.2478     
 6963.5000      -999.2500      -999.2500        74.1273        40.6445      -999.2500         3.9136      -999.2500      -999.2500         3.7039       -35.2386     
 6964.0000      -999.2500      -999.2500        74.0645        40.7891      -999.2500         3.9418      -999.2500      -999.2500         3.7496       -35.3171     
 6964.5000      -999.2500      -999.2500        75.1212        40.1427      -999.2500         4.0242      -999.2500      -999.2500         3.8033       -35.4842     
 6965.0000      -999.2500      -999.2500        73.9529        39.5973      -999.2500         4.1061      -999.2500      -999.2500         3.7033       -35.6895     
 6965.5000      -999.2500      -999.2500        72.5820        39.3864      -999.2500         4.1954      -999.2500      -999.2500         3.2207       -35.8619     
 6966.0000      -999.2500      -999.2500        71.2285        39.6548      -999.2500         4.2960      -999.2500      -999.2500         3.6973       -35.9161     
 6966.5000      -999.2500      -999.2500        69.9180        40.1348      -999.2500         4.3854      -999.2500      -999.2500         4.7070       -35.7734     
 6967.0000      -999.2500      -999.2500        69.9600        40.6719      -999.2500         4.4580      -999.2500      -999.2500         4.8074       -35.4180     
 6967.5000      -999.2500      -999.2500        71.0958        41.4958      -999.2500         4.4742      -999.2500      -999.2500         4.5049       -34.9719     
 6968.0000      -999.2500      -999.2500        72.2090        42.6133      -999.2500         4.4432      -999.2500      -999.2500         4.0410       -34.7052     
 6968.5000      -999.2500      -999.2500        73.0176        43.9414      -999.2500         4.3952      -999.2500      -999.2500         4.0396       -34.5790     
 6969.0000      -999.2500      -999.2500        72.8227        45.3168      -999.2500         4.3475      -999.2500      -999.2500         4.2811       -34.6625     
 6969.5000      -999.2500      -999.2500        71.8638        46.7852      -999.2500         4.2736      -999.2500      -999.2500         4.5193       -34.6620     
 6970.0000      -999.2500      -999.2500        73.3066        48.4922      -999.2500         4.2155      -999.2500      -999.2500         4.2158       -34.5596     
 6970.5000      -999.2500      -999.2500        73.1953        50.3105      -999.2500         4.1649      -999.2500      -999.2500         3.8115       -34.4237     
 6971.0000      -999.2500      -999.2500        70.9385        50.4258      -999.2500         4.1147      -999.2500      -999.2500         3.9580       -34.2856     
 6971.5000      -999.2500      -999.2500        71.3920        48.2539      -999.2500         4.0870      -999.2500      -999.2500         4.8135       -34.1145     
 6972.0000      -999.2500      -999.2500        70.5068        45.5820      -999.2500         4.1149      -999.2500      -999.2500         4.0864       -34.0458     
 6972.5000      -999.2500      -999.2500        71.8242        44.2246      -999.2500         4.2089      -999.2500      -999.2500         4.0679       -33.9879     
 6973.0000      -999.2500      -999.2500        73.1426        43.4648      -999.2500         4.2843      -999.2500      -999.2500         4.5752       -33.8881     
 6973.5000      -999.2500      -999.2500        73.1322        43.1024      -999.2500         4.2947      -999.2500      -999.2500         4.2462       -33.6997     
 6974.0000      -999.2500      -999.2500        72.7695        42.3975      -999.2500         4.2811      -999.2500      -999.2500         4.3093       -33.3887     
 6974.5000      -999.2500      -999.2500        73.2979        40.8965      -999.2500         4.2739      -999.2500      -999.2500         4.5845       -33.1121     
 6975.0000      -999.2500      -999.2500        72.6201        38.3965      -999.2500         4.2635      -999.2500      -999.2500         3.9863       -32.8838     
 6975.5000      -999.2500      -999.2500        72.2417        38.2529      -999.2500         4.2453      -999.2500      -999.2500         3.5583       -32.6906     
 6976.0000      -999.2500      -999.2500        71.9901        39.2703      -999.2500         4.2326      -999.2500      -999.2500         4.1407       -32.5475     
 6976.5000      -999.2500      -999.2500        71.8005        38.6582      -999.2500         4.2310      -999.2500      -999.2500         4.7217       -32.5284     
 6977.0000      -999.2500      -999.2500        71.9023        38.3225      -999.2500         4.2821      -999.2500      -999.2500         4.1660       -32.5244     
 6977.5000      -999.2500      -999.2500        72.8703        39.0831      -999.2500         4.3898      -999.2500      -999.2500         3.8294       -32.5564     
