~Version Information Section
VERS.          2.0                                     : CWLS LOG ASCII Standard
WRAP.          NO                                      : One line per depth step
CREA.          03/06/17                                : LAS Creation Date
~Well Information Section
STRT.ft        1441.0000                               : Start Depth
STOP.ft        10644.0000                              : Stop Depth
STEP.ft        0.5000                                  : Step
NULL.          -999.2500                               : Null Value
COMP.          TEXACO PRODUCTION SERVICES LTD.         : Company
WELL.          14/20-5                                 : Well
FLD .          MORAY FIRTH                             : Field
LOC .          NORTH SEA                               : Location
LOC1.          -                                       : Location (UTM)
CTRY.          UK                                      : Country
PROV.          UKCS                                    : Province
UWI .          862                                     : UWI Number
API .          -                                       : API Number
SECT.          -                                       : Section
TOWN.          -                                       : Township
RNGE.          -                                       : Range
PDAT.          MSL                                     : Perm Datum
EPD .ft        0.0                                     : Elevation
LMF .          RKB                                     : Log Measured From
DMF .          RKB                                     : Drill Measured From
APD .ft        88.0                                    : Above Perm Datum
EKB .ft        88.0                                    : Elev-Kelly Bushing
EDF .ft        87.0                                    : Elev-Drill Floor
EGL .ft        -438.0                                  : Elev-Ground Level (Water Depth)
TDD .ft        10629.0                                 : Total Depth (Driller)
TDL .ft        10645.0                                 : Total Depth (Logger)
SRVC.          SCHLUMBERGER                            : Service Company
LATI.          58 23 39.75" N                          : Latitude
LONG.          00 07 23.05" W                          : Longitude
DATE.          MAR-APR-1976                            : Logging Date
PROJ.          UKCS                                    : Project
SET .          COMP_WIRE                               : Set
~Curve Information Section
DEPTH.ft                                               : Depth Curve
CALD.in                                                : Caliper (from FDC/CNL/GR)
DRHO.g/cc                                              : Delta Rho
DT.us/ft                                               : Delta-T
GR.gAPI                                                : Gamma Ray (from ISF/BHC/GR)
GRD.gAPI                                               : Gamma Ray (from FDC/CNL/GR)
ILD.Ohmm                                               : Deep Induction Standard Processed Resistivity
NPHI.LPU                                               : Neutron Porosity
RHOB.g/cc                                              : Bulk Density
SFLU.Ohmm                                              : SFL Resistivity (Unaveraged)
SP.mV                                                  : Spontaneous Potential
~ASCII Log Data Section
# ...
 7223.0000      -999.2500      -999.2500        68.7617        45.9922      -999.2500         4.3176      -999.2500      -999.2500         7.0635       -31.7982     
 7223.5000      -999.2500      -999.2500        71.2090        46.2301      -999.2500         4.4734      -999.2500      -999.2500         5.5532       -31.8160     
 7224.0000      -999.2500      -999.2500        72.5430        47.6357      -999.2500         4.6343      -999.2500      -999.2500         3.7156       -31.8767     
 7224.5000      -999.2500      -999.2500        73.3545        46.8496      -999.2500         4.7570      -999.2500      -999.2500         3.6924       -32.0532     
 7225.0000      -999.2500      -999.2500        72.6108        44.0258      -999.2500         4.8511      -999.2500      -999.2500         4.9188       -32.3210     
 7225.5000      -999.2500      -999.2500        72.6089        40.6484      -999.2500         4.8875      -999.2500      -999.2500         5.4541       -32.6157     
 7226.0000      -999.2500      -999.2500        73.1738        40.0303      -999.2500         4.8695      -999.2500      -999.2500         4.6953       -32.8975     
 7226.5000      -999.2500      -999.2500        72.0020        40.8262      -999.2500         4.9237      -999.2500      -999.2500         4.1733       -33.1807     
 7227.0000      -999.2500      -999.2500        70.7773        40.3555      -999.2500         5.0128      -999.2500      -999.2500         4.8721       -33.3220     
 7227.5000      -999.2500      -999.2500        69.9133        39.3926      -999.2500         5.1205      -999.2500      -999.2500         5.4457       -33.3240     
 7228.0000      -999.2500      -999.2500        69.9811        38.6545      -999.2500         5.2124      -999.2500      -999.2500         5.3595       -33.2276     
 7228.5000      -999.2500      -999.2500        70.0641        38.8086      -999.2500         5.2868      -999.2500      -999.2500         5.1360       -33.0796     
 7229.0000      -999.2500      -999.2500        69.9918        38.1973      -999.2500         5.3479      -999.2500      -999.2500         5.1431       -32.9973     
 7229.5000      -999.2500      -999.2500        69.8341        37.9913      -999.2500         5.4305      -999.2500      -999.2500         5.3744       -32.9768     
 7230.0000      -999.2500      -999.2500        69.6106        39.8555      -999.2500         5.5446      -999.2500      -999.2500         5.4272       -33.0048     
 7230.5000      -999.2500      -999.2500        69.3223        41.4375      -999.2500         5.6127      -999.2500      -999.2500         5.3555       -33.0311     
 7231.0000      -999.2500      -999.2500        69.0234        41.7280      -999.2500         5.6579      -999.2500      -999.2500         5.4312       -33.0560     
 7231.5000      -999.2500      -999.2500        68.8375        41.3530      -999.2500         5.6877      -999.2500      -999.2500         5.8691       -33.0835     
 7232.0000      -999.2500      -999.2500        69.1226        40.6661      -999.2500         5.7469      -999.2500      -999.2500         6.1619       -33.2307     
 7232.5000      -999.2500      -999.2500        69.9453        39.9688      -999.2500         5.8147      -999.2500      -999.2500         5.9150       -33.6487     
 7233.0000      -999.2500      -999.2500        70.5897        39.5298      -999.2500         5.8724      -999.2500      -999.2500         5.2676       -33.9265     
 7233.5000      -999.2500      -999.2500        70.3875        39.3086      -999.2500         5.9185      -999.2500      -999.2500         4.9278       -34.0110     
 7234.0000      -999.2500      -999.2500        69.9806        39.2951      -999.2500         5.8037      -999.2500      -999.2500         5.5736       -34.0083     
 7234.5000      -999.2500      -999.2500        69.4727        39.5103      -999.2500         5.6692      -999.2500      -999.2500         5.7877       -33.9851     
 7235.0000      -999.2500      -999.2500        69.0601        40.1631      -999.2500         5.5250      -999.2500      -999.2500         5.7583       -33.8733     
 7235.5000      -999.2500      -999.2500        69.2788        40.6377      -999.2500         5.4482      -999.2500      -999.2500         6.0322       -33.7263     
 7236.0000      -999.2500      -999.2500        69.9180        40.6919      -999.2500         5.3821      -999.2500      -999.2500         6.1707       -33.5574     
 7236.5000      -999.2500      -999.2500        70.7350        41.5055      -999.2500         5.3382      -999.2500      -999.2500         5.6376       -33.4267     
 7237.0000      -999.2500      -999.2500        71.8398        42.6211      -999.2500         5.2261      -999.2500      -999.2500         5.0435       -33.4014     
 7237.5000      -999.2500      -999.2500        72.6865        43.5435      -999.2500         5.0066      -999.2500      -999.2500         4.9636       -33.4150     
 7238.0000      -999.2500      -999.2500        73.6165        43.2673      -999.2500         4.8059      -999.2500      -999.2500         5.1435       -33.7310     
 7238.5000      -999.2500      -999.2500        73.7690        43.4175      -999.2500         4.7021      -999.2500      -999.2500         4.9502       -34.0428     
 7239.0000      -999.2500      -999.2500        73.4382        43.6941      -999.2500         4.6760      -999.2500      -999.2500         4.2813       -33.9985     
 7239.5000      -999.2500      -999.2500        73.0410        43.2334      -999.2500         4.6628      -999.2500      -999.2500         4.5625       -33.6614     
 7240.0000      -999.2500      -999.2500        72.5000        42.0625      -999.2500         4.6963      -999.2500      -999.2500         5.4375       -33.4812     
 7240.5000      -999.2500      -999.2500        71.9316        40.7480      -999.2500         4.7889      -999.2500      -999.2500         5.5176       -33.3751     
 7241.0000      -999.2500      -999.2500        71.2491        40.8221      -999.2500         4.9114      -999.2500      -999.2500         4.3135       -33.3129     
 7241.5000      -999.2500      -999.2500        68.8555        41.6602      -999.2500         5.0334      -999.2500      -999.2500         4.3096       -33.2505     
 7242.0000      -999.2500      -999.2500        51.7813        41.4219      -999.2500         5.1168      -999.2500      -999.2500         5.4707       -33.2475     
 7242.5000      -999.2500      -999.2500        51.3421        40.1294      -999.2500         5.1622      -999.2500      -999.2500         6.7294       -33.2957     
 7243.0000      -999.2500      -999.2500        69.8125        39.2183      -999.2500         5.2183      -999.2500      -999.2500         6.6660       -33.4995     
 7243.5000      -999.2500      -999.2500        72.1152        39.8281      -999.2500         5.3092      -999.2500      -999.2500         4.2520       -33.7405     
 7244.0000      -999.2500      -999.2500        72.2959        41.8145      -999.2500         5.2793      -999.2500      -999.2500         4.2852       -33.9614     
 7244.5000      -999.2500      -999.2500        71.6934        43.4824      -999.2500         5.1631      -999.2500      -999.2500         5.7383       -34.1711     
 7245.0000      -999.2500      -999.2500        71.8022        44.4883      -999.2500         5.0822      -999.2500      -999.2500         5.8174       -34.3752     
 7245.5000      -999.2500      -999.2500        72.2769        45.1333      -999.2500         5.0209      -999.2500      -999.2500         4.8770       -34.5691     
 7246.0000      -999.2500      -999.2500        71.9702        45.4285      -999.2500         4.9558      -999.2500      -999.2500         4.0566       -34.6882     
 7246.5000      -999.2500      -999.2500        71.7795        45.1619      -999.2500         4.8922      -999.2500      -999.2500         4.2964       -34.7320     
 7247.0000      -999.2500      -999.2500        71.6554        44.1328      -999.2500         4.8319      -999.2500      -999.2500         5.8043       -34.6713     
