~Version Information Section
VERS.          2.0                                     : CWLS LOG ASCII Standard
WRAP.          NO                                      : One line per depth step
CREA.          03/06/17                                : LAS Creation Date
~Well Information Section
STRT.ft        493.0000                                : Start Depth
STOP.ft        11890.0000                              : Stop Depth
STEP.ft        0.5000                                  : Step
NULL.          -999.2500                               : Null Value
COMP.          TEXACO PRODUCTION SERVICES LTD.         : Company
WELL.          14/20-7                                 : Well
FLD .          SAIL SOUTH, MORAY FIRTH                 : Field
LOC .          NORTH SEA                               : Location
LOC1.          -                                       : Location (UTM)
CTRY.          UK                                      : Country
PROV.          UKCS                                    : Province
UWI .          864                                     : UWI Number
API .          -                                       : API Number
SECT.          -                                       : Section
TOWN.          -                                       : Township
RNGE.          -                                       : Range
PDAT.          MSL                                     : Perm Datum
EPD .ft        0.0                                     : Elevation
LMF .          KB                                      : Log Measured From
DMF .          KB                                      : Drill Measured From
APD .ft        88.0                                    : Above Perm Datum
EKB .ft        88.0                                    : Elev-Kelly Bushing
EDF .ft        83.0                                    : Elev-Drill Floor
EGL .ft        -445.0                                  : Elev-Ground Level (Water Depth)
TDD .ft        11875.0                                 : Total Depth (Driller)
TDL .ft        11895.0                                 : Total Depth (Logger)
SRVC.          SCHLUMBERGER                            : Service Company
LATI.          58 23 01.71" N                          : Latitude
LONG.          00 02 27.26" W                          : Longitude
DATE.          APR-JUN-1976                            : Logging Date
PROJ.          UKCS                                    : Project
SET .          COMP_WIRE                               : Set
~Curve Information Section
DEPTH.ft                                               : Depth Curve
CALD.in                                                : Caliper (from FDC/CNL/GR)
DRHO.g/cc                                              : Delta Rho
DT.us/ft                                               : Delta-T
GR.gAPI                                                : Gamma Ray (from ISF/BHC/GR)
GRD.gAPI                                               : Gamma Ray (from FDC/CNL/GR)
ILD.Ohmm                                               : Deep Induction Standard Processed Resistivity
NPHI.LPU                                               : Neutron Porosity
RHOB.g/cc                                              : Bulk Density
SFL.Ohmm                                               : Spherically Focussed Log
SP.mV                                                  : Spontaneous Potential
~ASCII Log Data Section
# ...
10317.5000         9.7473         0.0031        75.2346        55.0142        46.1328         3.0213        13.0954         2.5800         3.8980        86.5038     
10318.0000         9.7320        -0.0020        74.7162        53.2996        45.1196         3.0652        13.5048         2.5855         4.2270        86.4612     
10318.5000         9.7168        -0.0063        75.0150        51.5882        44.1061         3.1590        13.1252         2.5702         4.0166        86.4885     
10319.0000         9.7254        -0.0042        75.3138        50.8124        44.9671         3.1633        12.7366         2.5620         3.9856        86.5544     
10319.5000         9.7422        -0.0008        75.6126        51.5920        46.0976         3.2006        12.6888         2.5269         4.1466        86.6205     
10320.0000         9.7915         0.0052        75.1958        52.3727        45.8661         3.2414        12.7824         2.4904         4.1691        86.6864     
10320.5000         9.8799         0.0171        77.0568        53.0939        45.0610         3.2823        12.5114         2.4437         4.1406        86.7525     
10321.0000        10.0526         0.0351        77.6797        52.5187        44.8288         3.3231        12.0246         2.3828         4.2246        86.8668     
10321.5000        10.5384         0.0097        77.4331        51.9415        42.4757         3.3906        11.4587         2.3559         4.2162        87.2562     
10322.0000        10.2320        -0.0031        74.8013        51.3643        42.0648         3.4723        10.8060         2.3898         4.0450        87.6874     
10322.5000        10.2029        -0.0020        72.7615        50.7862        43.1794         3.5542         9.2617         2.3985         3.8727        88.1193     
10323.0000        10.1747         0.0083        68.9955        51.5049        44.3652         3.6440         7.9587         2.4132         3.8376        88.5447     
10323.5000        10.1487         0.0118        67.0154        53.7839        45.6100         3.7618         9.8891         2.4405         5.0122        88.9042     
10324.0000        10.1478         0.0152        69.8177        55.2653        47.3130         3.8585        11.8371         2.4633         6.4376        89.2459     
10324.5000        10.0439         0.0194        73.6649        54.3363        48.5910         3.8771        13.2772         2.5097         6.7906        89.5878     
10325.0000         9.8965         0.0226        75.3650        52.5766        49.2530         3.8905        13.8738         2.5533         6.0629        89.9293     
10325.5000         9.8635         0.0212        76.8946        51.1037        48.2409         3.7983        14.4695         2.5525         5.3348        90.2103     
10326.0000         9.8633         0.0201        78.4242        49.9836        46.1143         3.6569        14.8610         2.5578         4.6071        90.2740     
10326.5000         9.8800         0.0295        78.7682        49.5574        43.9910         3.5616        13.9272         2.5873         4.0937        90.3373     
10327.0000         9.8265         0.0052        77.0320        49.2445        43.4227         3.4845        12.9899         2.5780         3.8119        90.4008     
10327.5000         9.7464         0.0037        75.2982        49.3992        43.8853         3.4823        12.9842         2.5744         3.7955        90.4641     
10328.0000         9.6864         0.0022        75.6263        49.6628        43.6536         3.5954        13.2524         2.5511         4.0117        90.5275     
10328.5000         9.6571         0.0007        75.5541        50.5942        46.1289         3.7880        13.2546         2.5283         4.2280        90.5908     
10329.0000         9.6409        -0.0071        74.6775        53.7416        48.8367         3.9264        13.8633         2.4932         4.4451        90.6543     
10329.5000         9.6538        -0.0284        73.8126        58.6084        51.0636         3.8978        14.6424         2.4369         4.7336        90.7177     
10330.0000         9.6681        -0.0272        74.5509        63.1922        53.2681         3.5169        15.1398         2.3693         5.0845        90.9541     
10330.5000         9.7229        -0.0288        74.4965        67.0734        55.2944         2.5298        17.0783         2.1913         5.4357        91.4032     
10331.0000         9.9988        -0.0306        87.0416        68.8112        57.0322         2.0699        22.3580         2.0130         5.3501        91.8329     
10331.5000        10.6768        -0.0616       101.8281        68.9009        56.6776         1.9776        27.7370         1.9252         3.6026        91.8749     
10332.0000        11.3557        -0.0674       102.6796        65.5627        53.1601         2.0167        33.1664         1.9446         2.1848        91.7821     
10332.5000        11.5229        -0.0441       101.8745        61.4807        49.5537         2.1917        30.5140         2.0529         1.4494        91.6893     
10333.0000        11.0134        -0.0209        99.2111        57.3984        46.0453         2.1945        21.3947         2.3547         1.6750        91.5964     
10333.5000         9.8777         0.0013        88.1430        53.3095        45.0628         2.1307        12.5081         2.5470         2.3678        91.4689     
10334.0000         9.6254         0.0168        77.0684        53.8605        44.2940         2.1489        11.9585         2.5805         3.0607        91.1881     
10334.5000         9.6203         0.0169        70.4192        54.8256        43.3541         2.2125        11.9156         2.5917         3.6264        90.9041     
10335.0000         9.6151         0.0166        71.4178        56.0982        43.4650         2.4962        12.2880         2.5897         4.1419        90.6204     
10335.5000         9.6100         0.0163        72.4284        55.5135        42.9836         3.0668        12.5587         2.6007         4.6599        90.5120     
10336.0000         9.6048         0.0259        73.4374        54.9246        42.7237         3.6004        12.7955         2.6205         5.1762        90.5531     
10336.5000         9.5996         0.0444        74.4463        54.3435        43.5785         4.0857        13.4200         2.6403         5.2110        90.5943     
10337.0000         9.5945         0.0361        75.4553        54.4573        45.2865         4.2320        13.8587         2.6126         4.7029        90.6356     
10337.5000         9.5893         0.0159        76.4642        54.9109        44.9380         4.1786        13.3300         2.5835         4.0627        90.6543     
10338.0000         9.5842         0.0141        76.6591        55.9785        43.7344         3.9571        12.7989         2.5732         4.2589        90.6018     
10338.5000         9.5820         0.0162        75.3541        55.6084        44.3440         3.6476        13.0779         2.5741         4.5222        90.5492     
10339.0000         9.5812         0.0134        76.0293        54.7848        45.2539         3.4567        13.3151         2.5807         4.4689        90.4966     
10339.5000         9.5804         0.0135        77.1673        53.7893        45.1257         3.5419        13.1880         2.5689         4.1985        90.4675     
10340.0000         9.5797         0.0146        76.3740        52.1797        45.0582         3.6432        12.5646         2.5645         4.0734        90.6276     
10340.5000         9.5789         0.0133        75.0781        50.3575        44.6819         3.6361        12.0332         2.5716         4.1953        90.8248     
10341.0000         9.5860         0.0103        73.5758        48.3501        44.5070         3.5586        11.7604         2.5801         4.5476        90.9810     
10341.5000         9.5955         0.0071        72.6658        46.5368        44.6225         3.3635        12.8298         2.5829         4.9163        90.8216     
