~Version Information Section
VERS.          2.0                                     : CWLS LOG ASCII Standard
WRAP.          NO                                      : One line per depth step
CREA.          03/06/17                                : LAS Creation Date
~Well Information Section
STRT.ft        493.0000                                : Start Depth
STOP.ft        11890.0000                              : Stop Depth
STEP.ft        0.5000                                  : Step
NULL.          -999.2500                               : Null Value
COMP.          TEXACO PRODUCTION SERVICES LTD.         : Company
WELL.          14/20-7                                 : Well
FLD .          SAIL SOUTH, MORAY FIRTH                 : Field
LOC .          NORTH SEA                               : Location
LOC1.          -                                       : Location (UTM)
CTRY.          UK                                      : Country
PROV.          UKCS                                    : Province
UWI .          864                                     : UWI Number
API .          -                                       : API Number
SECT.          -                                       : Section
TOWN.          -                                       : Township
RNGE.          -                                       : Range
PDAT.          MSL                                     : Perm Datum
EPD .ft        0.0                                     : Elevation
LMF .          KB                                      : Log Measured From
DMF .          KB                                      : Drill Measured From
APD .ft        88.0                                    : Above Perm Datum
EKB .ft        88.0                                    : Elev-Kelly Bushing
EDF .ft        83.0                                    : Elev-Drill Floor
EGL .ft        -445.0                                  : Elev-Ground Level (Water Depth)
TDD .ft        11875.0                                 : Total Depth (Driller)
TDL .ft        11895.0                                 : Total Depth (Logger)
SRVC.          SCHLUMBERGER                            : Service Company
LATI.          58 23 01.71" N                          : Latitude
LONG.          00 02 27.26" W                          : Longitude
DATE.          APR-JUN-1976                            : Logging Date
PROJ.          UKCS                                    : Project
SET .          COMP_WIRE                               : Set
~Curve Information Section
DEPTH.ft                                               : Depth Curve
CALD.in                                                : Caliper (from FDC/CNL/GR)
DRHO.g/cc                                              : Delta Rho
DT.us/ft                                               : Delta-T
GR.gAPI                                                : Gamma Ray (from ISF/BHC/GR)
GRD.gAPI                                               : Gamma Ray (from FDC/CNL/GR)
ILD.Ohmm                                               : Deep Induction Standard Processed Resistivity
NPHI.LPU                                               : Neutron Porosity
RHOB.g/cc                                              : Bulk Density
SFL.Ohmm                                               : Spherically Focussed Log
SP.mV                                                  : Spontaneous Potential
~ASCII Log Data Section
# ...
 6691.5000      -999.2500      -999.2500        92.5799        35.6363      -999.2500         2.0421      -999.2500      -999.2500         2.0056        58.2197     
 6692.0000      -999.2500      -999.2500       100.6000        36.2785      -999.2500         1.8425      -999.2500      -999.2500         1.6828        58.6842     
 6692.5000      -999.2500      -999.2500       109.8460        37.2401      -999.2500         1.7040      -999.2500      -999.2500         1.3597        58.8204     
 6693.0000      -999.2500      -999.2500       115.5600        38.5494      -999.2500         1.6571      -999.2500      -999.2500         1.1490        58.9562     
 6693.5000      -999.2500      -999.2500       114.7338        39.6150      -999.2500         1.6545      -999.2500      -999.2500         1.1010        59.0248     
 6694.0000      -999.2500      -999.2500       111.3930        38.6944      -999.2500         1.6670      -999.2500      -999.2500         1.0478        58.7562     
 6694.5000      -999.2500      -999.2500       105.6288        36.7659      -999.2500         1.6959      -999.2500      -999.2500         1.0278        58.5926     
 6695.0000      -999.2500      -999.2500        92.9033        33.4962      -999.2500         1.7714      -999.2500      -999.2500         1.1809        58.4797     
 6695.5000      -999.2500      -999.2500        82.8640        29.5562      -999.2500         1.8579      -999.2500      -999.2500         1.6626        58.3669     
 6696.0000      -999.2500      -999.2500        78.5235        25.6131      -999.2500         2.0353      -999.2500      -999.2500         1.9602        58.2541     
 6696.5000      -999.2500      -999.2500        76.1010        23.8240      -999.2500         2.3878      -999.2500      -999.2500         1.9896        58.1413     
 6697.0000      -999.2500      -999.2500        76.1920        24.3445      -999.2500         2.9530      -999.2500      -999.2500         1.8525        58.0142     
 6697.5000      -999.2500      -999.2500        76.7933        24.8658      -999.2500         3.3718      -999.2500      -999.2500         1.7823        57.8635     
 6698.0000      -999.2500      -999.2500        78.8832        25.9772      -999.2500         3.4257      -999.2500      -999.2500         1.8629        57.7126     
 6698.5000      -999.2500      -999.2500        81.6666        27.6208      -999.2500         3.2413      -999.2500      -999.2500         1.9073        57.5619     
 6699.0000      -999.2500      -999.2500        85.3195        29.5439      -999.2500         2.9796      -999.2500      -999.2500         1.9048        57.4110     
 6699.5000      -999.2500      -999.2500        88.1783        31.3700      -999.2500         2.6357      -999.2500      -999.2500         1.6412        57.2707     
 6700.0000      -999.2500      -999.2500        90.6051        33.2431      -999.2500         2.2915      -999.2500      -999.2500         1.3774        57.2717     
 6700.5000      -999.2500      -999.2500        93.7097        35.2769      -999.2500         2.0771      -999.2500      -999.2500         1.2126        57.2727     
 6701.0000      -999.2500      -999.2500        96.9994        36.9023      -999.2500         1.8882      -999.2500      -999.2500         1.2205        57.4012     
 6701.5000      -999.2500      -999.2500       100.4250        37.9698      -999.2500         1.6992      -999.2500      -999.2500         1.1311        57.7065     
 6702.0000      -999.2500      -999.2500       106.5752        39.7954      -999.2500         1.5138      -999.2500      -999.2500         1.0417        58.0116     
 6702.5000      -999.2500      -999.2500       110.6084        41.8004      -999.2500         1.4434      -999.2500      -999.2500         0.9948        58.3170     
 6703.0000      -999.2500      -999.2500       113.2699        43.1935      -999.2500         1.3732      -999.2500      -999.2500         0.9856        58.6219     
 6703.5000      -999.2500      -999.2500       112.4700        44.2119      -999.2500         1.3029      -999.2500      -999.2500         0.9610        58.9271     
 6704.0000      -999.2500      -999.2500       112.4185        45.2235      -999.2500         1.2612      -999.2500      -999.2500         0.9236        59.2321     
 6704.5000      -999.2500      -999.2500       114.1922        46.3325      -999.2500         1.2424      -999.2500      -999.2500         0.8835        59.6016     
 6705.0000      -999.2500      -999.2500       115.9654        47.5204      -999.2500         1.2236      -999.2500      -999.2500         0.8751        59.9867     
 6705.5000      -999.2500      -999.2500       116.2797        48.8835      -999.2500         1.2047      -999.2500      -999.2500         0.8976        60.3720     
 6706.0000      -999.2500      -999.2500       117.9987        50.2456      -999.2500         1.2231      -999.2500      -999.2500         0.8991        60.8742     
 6706.5000      -999.2500      -999.2500       116.9261        52.0223      -999.2500         1.2449      -999.2500      -999.2500         0.9002        61.4370     
 6707.0000      -999.2500      -999.2500       114.3563        54.1997      -999.2500         1.2668      -999.2500      -999.2500         0.9206        61.6679     
 6707.5000      -999.2500      -999.2500       111.7287        55.8446      -999.2500         1.3034      -999.2500      -999.2500         0.9314        61.5822     
 6708.0000      -999.2500      -999.2500       109.2960        55.3173      -999.2500         1.3445      -999.2500      -999.2500         0.9357        61.4503     
 6708.5000      -999.2500      -999.2500       108.0966        54.7890      -999.2500         1.3855      -999.2500      -999.2500         0.9541        61.1274     
 6709.0000      -999.2500      -999.2500       107.3995        54.2603      -999.2500         1.4237      -999.2500      -999.2500         0.9810        60.8043     
 6709.5000      -999.2500      -999.2500       106.7982        53.7321      -999.2500         1.4422      -999.2500      -999.2500         0.9910        60.6498     
 6710.0000      -999.2500      -999.2500       106.6384        53.2034      -999.2500         1.4607      -999.2500      -999.2500         0.9910        60.5640     
 6710.5000      -999.2500      -999.2500       106.5569        52.6752      -999.2500         1.4793      -999.2500      -999.2500         0.9910        60.5390     
 6711.0000      -999.2500      -999.2500       106.8201        52.1720      -999.2500         1.4871      -999.2500      -999.2500         0.9911        60.6075     
 6711.5000      -999.2500      -999.2500       107.6962        51.6782      -999.2500         1.4837      -999.2500      -999.2500         0.9911        60.6761     
 6712.0000      -999.2500      -999.2500       108.6336        51.1841      -999.2500         1.4803      -999.2500      -999.2500         0.9911        60.7447     
 6712.5000      -999.2500      -999.2500       108.4562        50.6904      -999.2500         1.4769      -999.2500      -999.2500         0.9912        60.8132     
 6713.0000      -999.2500      -999.2500       107.1429        50.2920      -999.2500         1.4724      -999.2500      -999.2500         0.9912        60.8818     
 6713.5000      -999.2500      -999.2500       106.1222        50.1580      -999.2500         1.4668      -999.2500      -999.2500         0.9912        60.8659     
 6714.0000      -999.2500      -999.2500       106.3792        50.0240      -999.2500         1.4612      -999.2500      -999.2500         0.9913        60.7413     
 6714.5000      -999.2500      -999.2500       107.2224        49.5816      -999.2500         1.4556      -999.2500      -999.2500         0.9913        60.6165     
 6715.0000      -999.2500      -999.2500       107.6222        48.3694      -999.2500         1.4500      -999.2500      -999.2500         0.9913        60.4919     
 6715.5000      -999.2500      -999.2500       107.7811        47.1686      -999.2500         1.4591      -999.2500      -999.2500         0.9932        60.3672     
