~Version Information Section
VERS.          2.0                                     : CWLS LOG ASCII Standard
WRAP.          NO                                      : One line per depth step
CREA.          03/06/17                                : LAS Creation Date
~Well Information Section
STRT.ft        493.0000                                : Start Depth
STOP.ft        11890.0000                              : Stop Depth
STEP.ft        0.5000                                  : Step
NULL.          -999.2500                               : Null Value
COMP.          TEXACO PRODUCTION SERVICES LTD.         : Company
WELL.          14/20-7                                 : Well
FLD .          SAIL SOUTH, MORAY FIRTH                 : Field
LOC .          NORTH SEA                               : Location
LOC1.          -                                       : Location (UTM)
CTRY.          UK                                      : Country
PROV.          UKCS                                    : Province
UWI .          864                                     : UWI Number
API .          -                                       : API Number
SECT.          -                                       : Section
TOWN.          -                                       : Township
RNGE.          -                                       : Range
PDAT.          MSL                                     : Perm Datum
EPD .ft        0.0                                     : Elevation
LMF .          KB                                      : Log Measured From
DMF .          KB                                      : Drill Measured From
APD .ft        88.0                                    : Above Perm Datum
EKB .ft        88.0                                    : Elev-Kelly Bushing
EDF .ft        83.0                                    : Elev-Drill Floor
EGL .ft        -445.0                                  : Elev-Ground Level (Water Depth)
TDD .ft        11875.0                                 : Total Depth (Driller)
TDL .ft        11895.0                                 : Total Depth (Logger)
SRVC.          SCHLUMBERGER                            : Service Company
LATI.          58 23 01.71" N                          : Latitude
LONG.          00 02 27.26" W                          : Longitude
DATE.          APR-JUN-1976                            : Logging Date
PROJ.          UKCS                                    : Project
SET .          COMP_WIRE                               : Set
~Curve Information Section
DEPTH.ft                                               : Depth Curve
CALD.in                                                : Caliper (from FDC/CNL/GR)
DRHO.g/cc                                              : Delta Rho
DT.us/ft                                               : Delta-T
GR.gAPI                                                : Gamma Ray (from ISF/BHC/GR)
GRD.gAPI                                               : Gamma Ray (from FDC/CNL/GR)
ILD.Ohmm                                               : Deep Induction Standard Processed Resistivity
NPHI.LPU                                               : Neutron Porosity
RHOB.g/cc                                              : Bulk Density
SFL.Ohmm                                               : Spherically Focussed Log
SP.mV                                                  : Spontaneous Potential
~ASCII Log Data Section
# ...
11861.0000         9.3546         0.0290        69.9339        54.5109        35.1134        11.2591        23.1991         2.3380        14.1190        82.5594     
11861.5000         9.2861         0.0068        69.2527        49.6223        36.1833        10.9238        28.3571         2.2706        20.7209        83.8343     
11862.0000         9.1401        -0.0062        74.8832        42.5802        37.9915        10.1997        33.5253         2.2001        16.0508        85.0895     
11862.5000         8.8616         0.0464        85.2404        37.3632      -999.2500         9.5582        37.9383         2.1321        10.5619        85.8532     
11863.0000         8.7815         0.1009        95.5978        34.2726      -999.2500         9.0015        41.5649         2.2286         8.4617        86.6161     
11863.5000         8.8450         0.1114       104.2253        33.1661      -999.2500         8.5031        45.1872         2.4092         7.1486        87.3802     
11864.0000         8.9088         0.1099       110.7886        32.4714      -999.2500         8.0964        48.5075         2.4540         6.1527        88.1310     
11864.5000         8.9399         0.1122       117.3510        32.9515      -999.2500         7.6069        47.2385         2.4487         5.3938        88.6227     
11865.0000         8.9259         0.1306       112.7368        34.5265      -999.2500         7.3281        44.8521         2.4568         5.4015        89.1132     
11865.5000         8.9117         0.1445       100.3795        35.5207      -999.2500         7.0928        42.4724         2.4649         5.8123        89.6044     
11866.0000         8.8976         0.1384        90.0192        36.3996      -999.2500         7.1623        40.0897         2.4741         6.2232        90.0950     
11866.5000         8.9019         0.1217        80.9641        36.7524      -999.2500         7.9062        37.6854         2.4822         7.3663        90.1898     
11867.0000         8.9578         0.0929        73.4839        35.6829      -999.2500        10.6784        34.2515         2.4784         8.5578        90.2313     
11867.5000         9.0117         0.0514        67.6865        34.3560      -999.2500        13.9747        30.5770         2.4683         9.9818        90.2730     
11868.0000         9.0526         0.0136        66.1873        33.0313      -999.2500        17.3136        26.8967         2.4659        12.0285        90.3146     
11868.5000         9.0790         0.0520        67.0534        31.7066      -999.2500        20.6471        25.8432         2.4785        13.8551        90.3561     
11869.0000         9.0005         0.0866        68.0724        32.0389      -999.2500        23.8970        25.5320         2.4417        15.5862        90.4335     
11869.5000         8.9205         0.0571        69.0913        29.0219      -999.2500        25.5424        25.2794         2.5004        18.3187        90.5630     
11870.0000         8.8968         0.0541        67.4273      -999.2500      -999.2500        26.0362        25.0133         2.5396        28.3272        90.6927     
11870.5000         8.9003         0.0520        65.1291      -999.2500      -999.2500        25.9372        24.7389         2.5709        43.2209        90.8223     
11871.0000         8.7882         0.0500        63.4711      -999.2500      -999.2500        25.4323        24.4463         2.5825        37.1535        90.9518     
11871.5000         8.6607         0.0460        62.5932      -999.2500      -999.2500        24.0573      -999.2500         2.5629        29.2714        91.0814     
11872.0000         8.5357         0.0477        64.3032      -999.2500      -999.2500        22.1778      -999.2500         2.5230        21.0939        91.2107     
11872.5000         8.4298         0.0840        67.6328      -999.2500      -999.2500        20.1164      -999.2500         2.4950        20.6045        90.9962     
11873.0000         8.4094         0.1151        70.9623      -999.2500      -999.2500        17.7509      -999.2500         2.4382        20.4399        90.7570     
11873.5000         8.4976         0.0923        74.2919      -999.2500      -999.2500        15.9258      -999.2500         2.4056        18.3774        90.5177     
11874.0000         8.7128         0.0812        75.9648      -999.2500      -999.2500        15.0650      -999.2500         2.4844        16.1569        90.2782     
11874.5000         8.7709         0.0826        72.0757      -999.2500      -999.2500        14.9574      -999.2500         2.5318        16.3582        90.0389     
11875.0000         8.7380         0.0644        68.2806      -999.2500      -999.2500        15.3553      -999.2500         2.5330        18.9753        89.7997     
11875.5000         8.6519         0.0518        70.0903      -999.2500      -999.2500        15.8018      -999.2500         2.5370        20.0223        89.5399     
11876.0000         8.5544         0.0620        71.9177      -999.2500      -999.2500        16.4332      -999.2500         2.5486        18.1584        89.2336     
11876.5000         8.7812         0.0512        73.7481      -999.2500      -999.2500        17.3024      -999.2500         2.5263        19.8282        88.9268     
11877.0000         9.0125         0.0393        75.5755      -999.2500      -999.2500        17.8907      -999.2500         2.5163        22.1453        88.6204     
11877.5000         8.9059         0.0388        75.9987      -999.2500      -999.2500        18.3229      -999.2500         2.5206        24.6666        88.3141     
11878.0000         8.8384         0.0387        74.5587      -999.2500      -999.2500        18.9903      -999.2500         2.5672        25.6821        88.0078     
11878.5000         8.8868         0.0445        73.7512      -999.2500      -999.2500        19.7523      -999.2500         2.6182        25.6490        87.7009     
11879.0000         8.9453         0.0562        71.7610      -999.2500      -999.2500        20.5327      -999.2500         2.6322        23.7741        87.3946     
11879.5000         9.0337         0.0470        68.9127      -999.2500      -999.2500        20.2780      -999.2500         2.6134        22.0022        87.0882     
11880.0000         9.0767         0.0442        66.2236      -999.2500      -999.2500        18.7143      -999.2500         2.5903        21.8275        86.7143     
11880.5000         9.0387         0.0576        66.8161      -999.2500      -999.2500        17.7051      -999.2500         2.5834        23.6762        86.3288     
11881.0000         9.0368         0.0710        67.2920      -999.2500      -999.2500        17.3466      -999.2500         2.5791        27.4396        85.9439     
11881.5000         9.0228         0.0867        65.9281      -999.2500      -999.2500        17.1045      -999.2500         2.5694      -999.2500        85.5591     
11882.0000         8.8732         0.1156        65.7685      -999.2500      -999.2500        17.0579      -999.2500         2.5788      -999.2500        85.1742     
11882.5000         8.5913         0.1050        65.2283      -999.2500      -999.2500        17.1361      -999.2500         2.5877      -999.2500        84.7893     
11883.0000         8.7499         0.0831        65.9831      -999.2500      -999.2500        16.9393      -999.2500         2.5916      -999.2500        84.4038     
11883.5000         8.8400         0.0611        67.8112      -999.2500      -999.2500        16.4681      -999.2500         2.5806      -999.2500        84.0727     
11884.0000         8.5812         0.0558        68.9146      -999.2500      -999.2500      -999.2500      -999.2500         2.5909      -999.2500      -999.2500     
11884.5000         8.4958         0.0647      -999.2500      -999.2500      -999.2500      -999.2500      -999.2500         2.5973      -999.2500      -999.2500     
11885.0000         8.4931         0.0628      -999.2500      -999.2500      -999.2500      -999.2500      -999.2500         2.5829      -999.2500      -999.2500     
