~Version Information Section
VERS.          2.0                                     : CWLS LOG ASCII Standard
WRAP.          NO                                      : One line per depth step
CREA.          03/06/17                                : LAS Creation Date
~Well Information Section
STRT.ft        493.0000                                : Start Depth
STOP.ft        11890.0000                              : Stop Depth
STEP.ft        0.5000                                  : Step
NULL.          -999.2500                               : Null Value
COMP.          TEXACO PRODUCTION SERVICES LTD.         : Company
WELL.          14/20-7                                 : Well
FLD .          SAIL SOUTH, MORAY FIRTH                 : Field
LOC .          NORTH SEA                               : Location
LOC1.          -                                       : Location (UTM)
CTRY.          UK                                      : Country
PROV.          UKCS                                    : Province
UWI .          864                                     : UWI Number
API .          -                                       : API Number
SECT.          -                                       : Section
TOWN.          -                                       : Township
RNGE.          -                                       : Range
PDAT.          MSL                                     : Perm Datum
EPD .ft        0.0                                     : Elevation
LMF .          KB                                      : Log Measured From
DMF .          KB                                      : Drill Measured From
APD .ft        88.0                                    : Above Perm Datum
EKB .ft        88.0                                    : Elev-Kelly Bushing
EDF .ft        83.0                                    : Elev-Drill Floor
EGL .ft        -445.0                                  : Elev-Ground Level (Water Depth)
TDD .ft        11875.0                                 : Total Depth (Driller)
TDL .ft        11895.0                                 : Total Depth (Logger)
SRVC.          SCHLUMBERGER                            : Service Company
LATI.          58 23 01.71" N                          : Latitude
LONG.          00 02 27.26" W                          : Longitude
DATE.          APR-JUN-1976                            : Logging Date
PROJ.          UKCS                                    : Project
SET .          COMP_WIRE                               : Set
~Curve Information Section
DEPTH.ft                                               : Depth Curve
CALD.in                                                : Caliper (from FDC/CNL/GR)
DRHO.g/cc                                              : Delta Rho
DT.us/ft                                               : Delta-T
GR.gAPI                                                : Gamma Ray (from ISF/BHC/GR)
GRD.gAPI                                               : Gamma Ray (from FDC/CNL/GR)
ILD.Ohmm                                               : Deep Induction Standard Processed Resistivity
NPHI.LPU                                               : Neutron Porosity
RHOB.g/cc                                              : Bulk Density
SFL.Ohmm                                               : Spherically Focussed Log
SP.mV                                                  : Spontaneous Potential
~ASCII Log Data Section
# ...
 4094.5000      -999.2500      -999.2500       175.1770        33.8497      -999.2500         0.7318      -999.2500      -999.2500         0.7324        31.6775     
 4095.0000      -999.2500      -999.2500       164.1312        32.6412      -999.2500         0.7327      -999.2500      -999.2500         0.7073        32.9264     
 4095.5000      -999.2500      -999.2500       153.8505        31.4334      -999.2500         0.7397      -999.2500      -999.2500         0.6962        31.3356     
 4096.0000      -999.2500      -999.2500       152.3943        30.2246      -999.2500         0.7800      -999.2500      -999.2500         0.6869        31.8451     
 4096.5000      -999.2500      -999.2500       153.3513        30.8521      -999.2500         0.8239      -999.2500      -999.2500         0.6832        31.5407     
 4097.0000      -999.2500      -999.2500       157.5177        31.6629      -999.2500         0.8721      -999.2500      -999.2500         0.6957        34.2935     
 4097.5000      -999.2500      -999.2500       160.7927        32.4731      -999.2500         0.9166      -999.2500      -999.2500         0.7194        33.9104     
 4098.0000      -999.2500      -999.2500       159.8977        33.2834      -999.2500         0.9562      -999.2500      -999.2500         0.7502        33.5453     
 4098.5000      -999.2500      -999.2500       166.6025        33.2946      -999.2500         0.9928      -999.2500      -999.2500         0.7674        33.6479     
 4099.0000      -999.2500      -999.2500       172.5920        32.3664      -999.2500         1.0260      -999.2500      -999.2500         0.7761        33.8506     
 4099.5000      -999.2500      -999.2500       175.5771        31.4374      -999.2500         1.0577      -999.2500      -999.2500         0.7624        33.9531     
 4100.0000      -999.2500      -999.2500       177.7275        30.5092      -999.2500         1.0878      -999.2500      -999.2500         0.7572        33.7566     
 4100.5000      -999.2500      -999.2500       167.2285        29.8016      -999.2500         1.0803      -999.2500      -999.2500         0.7444        33.1036     
 4101.0000      -999.2500      -999.2500       156.7284        30.1349      -999.2500         1.0498      -999.2500      -999.2500         0.7286        32.7509     
 4101.5000      -999.2500      -999.2500       146.2199        29.9403      -999.2500         1.0046      -999.2500      -999.2500         0.7425        32.2681     
 4102.0000      -999.2500      -999.2500       159.7299        28.8185      -999.2500         0.9578      -999.2500      -999.2500         0.7837        31.8615     
 4102.5000      -999.2500      -999.2500       175.8967        27.7827      -999.2500         0.9694      -999.2500      -999.2500         0.8482        31.4755     
 4103.0000      -999.2500      -999.2500       182.9429        28.1896      -999.2500         0.9889      -999.2500      -999.2500         0.7941        31.3786     
 4103.5000      -999.2500      -999.2500       181.4250        28.7442      -999.2500         1.0080      -999.2500      -999.2500         0.6474        31.3815     
 4104.0000      -999.2500      -999.2500       175.6072        29.4079      -999.2500         1.0164      -999.2500      -999.2500         0.6766        31.3843     
 4104.5000      -999.2500      -999.2500       165.5125        30.3676      -999.2500         1.0166      -999.2500      -999.2500         0.7870        31.3872     
 4105.0000      -999.2500      -999.2500       154.0175        31.4212      -999.2500         1.0211      -999.2500      -999.2500         0.8260        31.4899     
 4105.5000      -999.2500      -999.2500       148.1910        31.9230      -999.2500         1.0594      -999.2500      -999.2500         0.8540        31.6676     
 4106.0000      -999.2500      -999.2500       144.0868        31.0737      -999.2500         1.0978      -999.2500      -999.2500         0.8821        31.7952     
 4106.5000      -999.2500      -999.2500       151.0905        30.2244      -999.2500         1.1442      -999.2500      -999.2500         0.9101        31.6982     
 4107.0000      -999.2500      -999.2500       144.9568        29.3744      -999.2500         1.1605      -999.2500      -999.2500         0.8631        31.7011     
 4107.5000      -999.2500      -999.2500       149.0302        28.5251      -999.2500         1.1617      -999.2500      -999.2500         0.8247        31.7040     
 4108.0000      -999.2500      -999.2500       153.1068        28.8555      -999.2500         1.1470      -999.2500      -999.2500         0.8066        31.6074     
 4108.5000      -999.2500      -999.2500       154.9467        29.3810      -999.2500         1.0951      -999.2500      -999.2500         0.8113        31.7098     
 4109.0000      -999.2500      -999.2500       161.2854        28.9569      -999.2500         1.0431      -999.2500      -999.2500         0.8267        31.6129     
 4109.5000      -999.2500      -999.2500       168.2484        28.5324      -999.2500         1.0147      -999.2500      -999.2500         0.8052        31.5159     
 4110.0000      -999.2500      -999.2500       162.4804        28.1323      -999.2500         0.9960      -999.2500      -999.2500         0.7683        31.4188     
 4110.5000      -999.2500      -999.2500       158.5266        27.8166      -999.2500         0.9849      -999.2500      -999.2500         0.7416        30.6793     
 4111.0000      -999.2500      -999.2500       161.0159        27.5009      -999.2500         0.9766      -999.2500      -999.2500         0.7194        29.9771     
 4111.5000      -999.2500      -999.2500       163.5071        27.2224      -999.2500         0.9314      -999.2500      -999.2500         0.6845        29.4733     
 4112.0000      -999.2500      -999.2500       160.4686        27.2967      -999.2500         0.8600      -999.2500      -999.2500         0.6161        28.8348     
 4112.5000      -999.2500      -999.2500       156.1645        27.3711      -999.2500         0.8304      -999.2500      -999.2500         0.6389        28.4669     
 4113.0000      -999.2500      -999.2500       154.7879        27.4894      -999.2500         0.8036      -999.2500      -999.2500         0.6396        28.3408     
 4113.5000      -999.2500      -999.2500       152.0815        27.7129      -999.2500         0.7793      -999.2500      -999.2500         0.6238        28.0598     
 4114.0000      -999.2500      -999.2500       147.4828        28.2391      -999.2500         0.7704      -999.2500      -999.2500         0.6185        28.0556     
 4114.5000      -999.2500      -999.2500       146.3860        29.0910      -999.2500         0.7615      -999.2500      -999.2500         0.6131        28.3493     
 4115.0000      -999.2500      -999.2500       148.5595        30.3651      -999.2500         0.7526      -999.2500      -999.2500         0.6087        28.5515     
 4115.5000      -999.2500      -999.2500       150.2415        31.7240      -999.2500         0.7417      -999.2500      -999.2500         0.6088        28.5545     
 4116.0000      -999.2500      -999.2500       152.9756        33.0323      -999.2500         0.7308      -999.2500      -999.2500         0.6203        28.4576     
 4116.5000      -999.2500      -999.2500       154.2590        32.9546      -999.2500         0.7106      -999.2500      -999.2500         0.6339        28.2349     
 4117.0000      -999.2500      -999.2500       154.3757        32.8769      -999.2500         0.6822      -999.2500      -999.2500         0.6264        27.8641     
 4117.5000      -999.2500      -999.2500       154.4925        32.3443      -999.2500         0.6538      -999.2500      -999.2500         0.6103        27.5283     
 4118.0000      -999.2500      -999.2500       154.2552        31.4581      -999.2500         0.6253      -999.2500      -999.2500         0.5942        27.1250     
 4118.5000      -999.2500      -999.2500       153.1271        30.5828      -999.2500         0.5980      -999.2500      -999.2500         0.5780        27.2260     
