~Version Information Section
VERS.          2.0                                     : CWLS LOG ASCII Standard
WRAP.          NO                                      : One line per depth step
CREA.          03/06/17                                : LAS Creation Date
~Well Information Section
STRT.ft        493.0000                                : Start Depth
STOP.ft        11890.0000                              : Stop Depth
STEP.ft        0.5000                                  : Step
NULL.          -999.2500                               : Null Value
COMP.          TEXACO PRODUCTION SERVICES LTD.         : Company
WELL.          14/20-7                                 : Well
FLD .          SAIL SOUTH, MORAY FIRTH                 : Field
LOC .          NORTH SEA                               : Location
LOC1.          -                                       : Location (UTM)
CTRY.          UK                                      : Country
PROV.          UKCS                                    : Province
UWI .          864                                     : UWI Number
API .          -                                       : API Number
SECT.          -                                       : Section
TOWN.          -                                       : Township
RNGE.          -                                       : Range
PDAT.          MSL                                     : Perm Datum
EPD .ft        0.0                                     : Elevation
LMF .          KB                                      : Log Measured From
DMF .          KB                                      : Drill Measured From
APD .ft        88.0                                    : Above Perm Datum
EKB .ft        88.0                                    : Elev-Kelly Bushing
EDF .ft        83.0                                    : Elev-Drill Floor
EGL .ft        -445.0                                  : Elev-Ground Level (Water Depth)
TDD .ft        11875.0                                 : Total Depth (Driller)
TDL .ft        11895.0                                 : Total Depth (Logger)
SRVC.          SCHLUMBERGER                            : Service Company
LATI.          58 23 01.71" N                          : Latitude
LONG.          00 02 27.26" W                          : Longitude
DATE.          APR-JUN-1976                            : Logging Date
PROJ.          UKCS                                    : Project
SET .          COMP_WIRE                               : Set
~Curve Information Section
DEPTH.ft                                               : Depth Curve
CALD.in                                                : Caliper (from FDC/CNL/GR)
DRHO.g/cc                                              : Delta Rho
DT.us/ft                                               : Delta-T
GR.gAPI                                                : Gamma Ray (from ISF/BHC/GR)
GRD.gAPI                                               : Gamma Ray (from FDC/CNL/GR)
ILD.Ohmm                                               : Deep Induction Standard Processed Resistivity
NPHI.LPU                                               : Neutron Porosity
RHOB.g/cc                                              : Bulk Density
SFL.Ohmm                                               : Spherically Focussed Log
SP.mV                                                  : Spontaneous Potential
~ASCII Log Data Section
# ...
 9264.0000      -999.2500      -999.2500        99.1582        47.3263      -999.2500         1.2201      -999.2500      -999.2500         1.4824        83.4305     
 9264.5000      -999.2500      -999.2500        98.6778        47.7061      -999.2500         1.2168      -999.2500      -999.2500         1.3644        83.3769     
 9265.0000      -999.2500      -999.2500       102.6460        48.5859      -999.2500         1.2413      -999.2500      -999.2500         1.2465        83.3373     
 9265.5000      -999.2500      -999.2500       110.1348        49.4031      -999.2500         1.2638      -999.2500      -999.2500         1.2096        83.2977     
 9266.0000      -999.2500      -999.2500       106.6384        48.7987      -999.2500         1.2404      -999.2500      -999.2500         1.2466        83.2581     
 9266.5000      -999.2500      -999.2500       104.7662        48.2101      -999.2500         1.2080      -999.2500      -999.2500         1.2686        83.2185     
 9267.0000      -999.2500      -999.2500       101.2361        47.7425      -999.2500         1.2184      -999.2500      -999.2500         1.3002        83.1650     
 9267.5000      -999.2500      -999.2500       100.4933        46.0345      -999.2500         1.2004      -999.2500      -999.2500         1.3788        83.0945     
 9268.0000      -999.2500      -999.2500       101.2790        45.0505      -999.2500         1.1764      -999.2500      -999.2500         1.4602        83.0239     
 9268.5000      -999.2500      -999.2500       100.9174        43.5703      -999.2500         1.2049      -999.2500      -999.2500         1.4546        83.0601     
 9269.0000      -999.2500      -999.2500        99.4023        41.5559      -999.2500         1.2545      -999.2500      -999.2500         1.3003        83.2104     
 9269.5000      -999.2500      -999.2500       101.7106        41.3344      -999.2500         1.3013      -999.2500      -999.2500         1.2354        83.3575     
 9270.0000      -999.2500      -999.2500       102.7188        43.9738      -999.2500         1.2833      -999.2500      -999.2500         1.2909        83.4191     
 9270.5000      -999.2500      -999.2500       101.1396        45.3855      -999.2500         1.2393      -999.2500      -999.2500         1.4365        83.4596     
 9271.0000      -999.2500      -999.2500        98.0055        46.0962      -999.2500         1.2377      -999.2500      -999.2500         1.4929        83.5001     
 9271.5000      -999.2500      -999.2500        96.2277        45.8912      -999.2500         1.2622      -999.2500      -999.2500         1.4597        83.5406     
 9272.0000      -999.2500      -999.2500        97.6283        46.2054      -999.2500         1.2872      -999.2500      -999.2500         1.4524        83.5811     
 9272.5000      -999.2500      -999.2500        99.7897        47.4089      -999.2500         1.3199      -999.2500      -999.2500         1.5421        83.6216     
 9273.0000      -999.2500      -999.2500        98.3685        48.5186      -999.2500         1.3548      -999.2500      -999.2500         1.4185        83.6622     
 9273.5000      -999.2500      -999.2500        98.4007        45.8485      -999.2500         1.3868      -999.2500      -999.2500         1.3484        83.7026     
 9274.0000      -999.2500      -999.2500        99.7361        43.1724      -999.2500         1.3902      -999.2500      -999.2500         1.5393        83.7431     
 9274.5000      -999.2500      -999.2500        99.0734        40.9830      -999.2500         1.3881      -999.2500      -999.2500         1.7022        83.7650     
 9275.0000      -999.2500      -999.2500        97.6627        40.6045      -999.2500         1.3606      -999.2500      -999.2500         1.7690        83.7626     
 9275.5000      -999.2500      -999.2500        94.1003        41.4648      -999.2500         1.3300      -999.2500      -999.2500         1.6583        83.7602     
 9276.0000      -999.2500      -999.2500        93.5348        42.9935      -999.2500         1.3332      -999.2500      -999.2500         1.5063        83.7577     
 9276.5000      -999.2500      -999.2500        94.4512        45.4013      -999.2500         1.3401      -999.2500      -999.2500         1.5288        83.7552     
 9277.0000      -999.2500      -999.2500        95.5212        47.3520      -999.2500         1.3529      -999.2500      -999.2500         1.5614        83.7528     
 9277.5000      -999.2500      -999.2500        98.9285        47.3518      -999.2500         1.3661      -999.2500      -999.2500         1.4303        83.7504     
 9278.0000      -999.2500      -999.2500        98.9279        47.4405      -999.2500         1.3692      -999.2500      -999.2500         1.2694        83.7479     
 9278.5000      -999.2500      -999.2500        99.5010        47.7699      -999.2500         1.3415      -999.2500      -999.2500         1.4310        83.7455     
 9279.0000      -999.2500      -999.2500       100.5720        46.9005      -999.2500         1.3054      -999.2500      -999.2500         1.6283        83.7430     
 9279.5000      -999.2500      -999.2500        97.9852        44.7015      -999.2500         1.2591      -999.2500      -999.2500         1.7225        83.6721     
 9280.0000      -999.2500      -999.2500        95.3885        43.3143      -999.2500         1.2248      -999.2500      -999.2500         1.6837        83.4857     
 9280.5000      -999.2500      -999.2500        95.7860        44.2255      -999.2500         1.1975      -999.2500      -999.2500         1.4232        83.2992     
 9281.0000      -999.2500      -999.2500        98.2566        45.9667      -999.2500         1.1732      -999.2500      -999.2500         1.3513        83.1647     
 9281.5000      -999.2500      -999.2500       100.7232        47.4355      -999.2500         1.1494      -999.2500      -999.2500         1.3815        83.2829     
 9282.0000      -999.2500      -999.2500       101.5028        48.7824      -999.2500         1.1256      -999.2500      -999.2500         1.3496        83.4272     
 9282.5000      -999.2500      -999.2500       100.6485        50.0658      -999.2500         1.1113      -999.2500      -999.2500         1.3159        83.5714     
 9283.0000      -999.2500      -999.2500       100.4007        51.2816      -999.2500         1.1124      -999.2500      -999.2500         1.2989        83.7020     
 9283.5000      -999.2500      -999.2500       103.0005        51.5775      -999.2500         1.1458      -999.2500      -999.2500         1.3430        83.6213     
 9284.0000      -999.2500      -999.2500       103.0630        48.8434      -999.2500         1.1914      -999.2500      -999.2500         1.2138        83.5137     
 9284.5000      -999.2500      -999.2500       102.1071        46.5059      -999.2500         1.2299      -999.2500      -999.2500         1.2174        83.4062     
 9285.0000      -999.2500      -999.2500       100.4595        45.3073      -999.2500         1.2669      -999.2500      -999.2500         1.5496        83.2987     
 9285.5000      -999.2500      -999.2500        96.2392        44.6246      -999.2500         1.3039      -999.2500      -999.2500         1.7369        83.1910     
 9286.0000      -999.2500      -999.2500        93.5729        44.3543      -999.2500         1.3409      -999.2500      -999.2500         1.8429        83.1452     
 9286.5000      -999.2500      -999.2500        93.8477        44.4740      -999.2500         1.3778      -999.2500      -999.2500         1.7102        83.2971     
 9287.0000      -999.2500      -999.2500        94.6859        43.9097      -999.2500         1.4304      -999.2500      -999.2500         1.5694        83.4613     
 9287.5000      -999.2500      -999.2500        95.0119        42.1983      -999.2500         1.5039      -999.2500      -999.2500         1.5819        83.6258     
 9288.0000      -999.2500      -999.2500        93.1243        40.5171      -999.2500         1.5450      -999.2500      -999.2500         1.7195        83.7900     
