~Version Information Section
VERS.          2.0                                     : CWLS LOG ASCII Standard
WRAP.          NO                                      : One line per depth step
CREA.          03/06/17                                : LAS Creation Date
~Well Information Section
STRT.ft        493.0000                                : Start Depth
STOP.ft        11890.0000                              : Stop Depth
STEP.ft        0.5000                                  : Step
NULL.          -999.2500                               : Null Value
COMP.          TEXACO PRODUCTION SERVICES LTD.         : Company
WELL.          14/20-7                                 : Well
FLD .          SAIL SOUTH, MORAY FIRTH                 : Field
LOC .          NORTH SEA                               : Location
LOC1.          -                                       : Location (UTM)
CTRY.          UK                                      : Country
PROV.          UKCS                                    : Province
UWI .          864                                     : UWI Number
API .          -                                       : API Number
SECT.          -                                       : Section
TOWN.          -                                       : Township
RNGE.          -                                       : Range
PDAT.          MSL                                     : Perm Datum
EPD .ft        0.0                                     : Elevation
LMF .          KB                                      : Log Measured From
DMF .          KB                                      : Drill Measured From
APD .ft        88.0                                    : Above Perm Datum
EKB .ft        88.0                                    : Elev-Kelly Bushing
EDF .ft        83.0                                    : Elev-Drill Floor
EGL .ft        -445.0                                  : Elev-Ground Level (Water Depth)
TDD .ft        11875.0                                 : Total Depth (Driller)
TDL .ft        11895.0                                 : Total Depth (Logger)
SRVC.          SCHLUMBERGER                            : Service Company
LATI.          58 23 01.71" N                          : Latitude
LONG.          00 02 27.26" W                          : Longitude
DATE.          APR-JUN-1976                            : Logging Date
PROJ.          UKCS                                    : Project
SET .          COMP_WIRE                               : Set
~Curve Information Section
DEPTH.ft                                               : Depth Curve
CALD.in                                                : Caliper (from FDC/CNL/GR)
DRHO.g/cc                                              : Delta Rho
DT.us/ft                                               : Delta-T
GR.gAPI                                                : Gamma Ray (from ISF/BHC/GR)
GRD.gAPI                                               : Gamma Ray (from FDC/CNL/GR)
ILD.Ohmm                                               : Deep Induction Standard Processed Resistivity
NPHI.LPU                                               : Neutron Porosity
RHOB.g/cc                                              : Bulk Density
SFL.Ohmm                                               : Spherically Focussed Log
SP.mV                                                  : Spontaneous Potential
~ASCII Log Data Section
# ...
 7206.0000      -999.2500      -999.2500        63.9917        10.2732      -999.2500         8.1987      -999.2500      -999.2500         4.9712        58.6353     
 7206.5000      -999.2500      -999.2500        63.0965         9.7045      -999.2500         8.1103      -999.2500      -999.2500         5.4482        58.5054     
 7207.0000      -999.2500      -999.2500        63.2612         9.0176      -999.2500         8.0492      -999.2500      -999.2500         5.8419        58.5605     
 7207.5000      -999.2500      -999.2500        63.9331         8.3307      -999.2500         7.9883      -999.2500      -999.2500         5.4794        58.6190     
 7208.0000      -999.2500      -999.2500        64.6060         7.6427      -999.2500         8.1119      -999.2500      -999.2500         5.1902        58.6777     
 7208.5000      -999.2500      -999.2500        64.6282         6.9559      -999.2500         8.2485      -999.2500      -999.2500         5.3513        58.9002     
 7209.0000      -999.2500      -999.2500        64.3787         7.1356      -999.2500         8.3852      -999.2500      -999.2500         5.5429        59.2015     
 7209.5000      -999.2500      -999.2500        64.1292         7.8607      -999.2500         8.5654      -999.2500      -999.2500         5.7999        59.4918     
 7210.0000      -999.2500      -999.2500        63.7968         8.5869      -999.2500         8.7722      -999.2500      -999.2500         6.0564        59.4141     
 7210.5000      -999.2500      -999.2500        63.4003         8.9481      -999.2500         8.8094      -999.2500      -999.2500         5.6312        59.3359     
 7211.0000      -999.2500      -999.2500        63.0038         8.4589      -999.2500         8.4629      -999.2500      -999.2500         5.0652        59.1996     
 7211.5000      -999.2500      -999.2500        62.6076         7.9698      -999.2500         8.1163      -999.2500      -999.2500         5.0344        58.9695     
 7212.0000      -999.2500      -999.2500        62.9552         7.4827      -999.2500         7.7698      -999.2500      -999.2500         5.9244        58.7395     
 7212.5000      -999.2500      -999.2500        63.8350         8.2799      -999.2500         7.6282      -999.2500      -999.2500         6.8150        58.7193     
 7213.0000      -999.2500      -999.2500        65.3198         9.0868      -999.2500         7.8701      -999.2500      -999.2500         6.2758        58.7749     
 7213.5000      -999.2500      -999.2500        65.4989         9.8723      -999.2500         8.1119      -999.2500      -999.2500         5.5032        58.8305     
 7214.0000      -999.2500      -999.2500        63.8899         8.8955      -999.2500         8.3535      -999.2500      -999.2500         4.7311        58.8861     
 7214.5000      -999.2500      -999.2500        62.2809         7.9187      -999.2500         8.2522      -999.2500      -999.2500         4.8732        58.9417     
 7215.0000      -999.2500      -999.2500        60.9497         6.9403      -999.2500         8.0044      -999.2500      -999.2500         5.6560        58.9973     
 7215.5000      -999.2500      -999.2500        61.5550         7.0884      -999.2500         8.0250      -999.2500      -999.2500         6.2688        59.0529     
 7216.0000      -999.2500      -999.2500        63.4866         7.7010      -999.2500         8.2569      -999.2500      -999.2500         6.8808        59.0629     
 7216.5000      -999.2500      -999.2500        64.5579         8.4564      -999.2500         8.4888      -999.2500      -999.2500         6.8826        59.0606     
 7217.0000      -999.2500      -999.2500        64.4840         9.2131      -999.2500         8.7210      -999.2500      -999.2500         6.0383        59.0389     
 7217.5000      -999.2500      -999.2500        63.3605         9.3245      -999.2500         8.6342      -999.2500      -999.2500         4.9413        58.9016     
 7218.0000      -999.2500      -999.2500        62.2371         8.4852      -999.2500         8.3184      -999.2500      -999.2500         4.8210        58.7642     
 7218.5000      -999.2500      -999.2500        62.3826         7.6472      -999.2500         8.0025      -999.2500      -999.2500         5.7822        58.7208     
 7219.0000      -999.2500      -999.2500        63.7337         7.9474      -999.2500         7.6866      -999.2500      -999.2500         6.4331        59.1428     
 7219.5000      -999.2500      -999.2500        65.0871         8.6077      -999.2500         8.0574      -999.2500      -999.2500         6.7764        59.5660     
 7220.0000      -999.2500      -999.2500        64.5853         9.2669      -999.2500         8.4609      -999.2500      -999.2500         5.6431        59.9886     
 7220.5000      -999.2500      -999.2500        63.3381         9.8030      -999.2500         8.7880      -999.2500      -999.2500         4.5366        59.8164     
 7221.0000      -999.2500      -999.2500        62.0910         9.4219      -999.2500         8.6222      -999.2500      -999.2500         5.0686        59.5439     
 7221.5000      -999.2500      -999.2500        61.0136         9.0389      -999.2500         8.4555      -999.2500      -999.2500         5.6040        59.2710     
 7222.0000      -999.2500      -999.2500        62.6629         8.6719      -999.2500         8.2891      -999.2500      -999.2500         6.0999        58.9986     
 7222.5000      -999.2500      -999.2500        64.0144         8.3222      -999.2500         8.2788      -999.2500      -999.2500         6.5446        58.8042     
 7223.0000      -999.2500      -999.2500        64.4686         7.9311      -999.2500         8.5775      -999.2500      -999.2500         6.3387        58.7304     
 7223.5000      -999.2500      -999.2500        64.3468         7.3194      -999.2500         8.8769      -999.2500      -999.2500         5.7679        58.6565     
 7224.0000      -999.2500      -999.2500        63.2762         6.7767      -999.2500         9.1758      -999.2500      -999.2500         5.1403        58.6243     
 7224.5000      -999.2500      -999.2500        62.0873         6.5532      -999.2500         9.0998      -999.2500      -999.2500         5.1672        58.6220     
 7225.0000      -999.2500      -999.2500        61.0930         6.5667      -999.2500         8.9551      -999.2500      -999.2500         5.6903        58.6198     
 7225.5000      -999.2500      -999.2500        61.0569         7.0053      -999.2500         8.6925      -999.2500      -999.2500         6.2133        58.5861     
 7226.0000      -999.2500      -999.2500        62.2064         7.7285      -999.2500         8.4293      -999.2500      -999.2500         6.7371        58.5122     
 7226.5000      -999.2500      -999.2500        63.3543         8.6958      -999.2500         8.6309      -999.2500      -999.2500         6.7806        58.4384     
 7227.0000      -999.2500      -999.2500        64.2316         8.3536      -999.2500         8.8892      -999.2500      -999.2500         6.1302        58.1849     
 7227.5000      -999.2500      -999.2500        63.5977         7.8298      -999.2500         9.1476      -999.2500      -999.2500         5.4798        57.8250     
 7228.0000      -999.2500      -999.2500        62.9608         7.6001      -999.2500         9.4063      -999.2500      -999.2500         4.9812        57.4650     
 7228.5000      -999.2500      -999.2500        62.1709         7.5977      -999.2500         9.6096      -999.2500      -999.2500         5.5385        57.5395     
 7229.0000      -999.2500      -999.2500        61.3040         7.6157      -999.2500         9.7363      -999.2500      -999.2500         5.9215        57.7108     
 7229.5000      -999.2500      -999.2500        60.9991         7.8559      -999.2500         9.8630      -999.2500      -999.2500         6.2014        57.9210     
 7230.0000      -999.2500      -999.2500        60.8021         7.6707      -999.2500         9.9405      -999.2500      -999.2500         6.4817        58.1704     
