~Version Information Section
VERS.          2.0                                     : CWLS LOG ASCII Standard
WRAP.          NO                                      : One line per depth step
CREA.          03/06/17                                : LAS Creation Date
~Well Information Section
STRT.ft        493.0000                                : Start Depth
STOP.ft        11890.0000                              : Stop Depth
STEP.ft        0.5000                                  : Step
NULL.          -999.2500                               : Null Value
COMP.          TEXACO PRODUCTION SERVICES LTD.         : Company
WELL.          14/20-7                                 : Well
FLD .          SAIL SOUTH, MORAY FIRTH                 : Field
LOC .          NORTH SEA                               : Location
LOC1.          -                                       : Location (UTM)
CTRY.          UK                                      : Country
PROV.          UKCS                                    : Province
UWI .          864                                     : UWI Number
API .          -                                       : API Number
SECT.          -                                       : Section
TOWN.          -                                       : Township
RNGE.          -                                       : Range
PDAT.          MSL                                     : Perm Datum
EPD .ft        0.0                                     : Elevation
LMF .          KB                                      : Log Measured From
DMF .          KB                                      : Drill Measured From
APD .ft        88.0                                    : Above Perm Datum
EKB .ft        88.0                                    : Elev-Kelly Bushing
EDF .ft        83.0                                    : Elev-Drill Floor
EGL .ft        -445.0                                  : Elev-Ground Level (Water Depth)
TDD .ft        11875.0                                 : Total Depth (Driller)
TDL .ft        11895.0                                 : Total Depth (Logger)
SRVC.          SCHLUMBERGER                            : Service Company
LATI.          58 23 01.71" N                          : Latitude
LONG.          00 02 27.26" W                          : Longitude
DATE.          APR-JUN-1976                            : Logging Date
PROJ.          UKCS                                    : Project
SET .          COMP_WIRE                               : Set
~Curve Information Section
DEPTH.ft                                               : Depth Curve
CALD.in                                                : Caliper (from FDC/CNL/GR)
DRHO.g/cc                                              : Delta Rho
DT.us/ft                                               : Delta-T
GR.gAPI                                                : Gamma Ray (from ISF/BHC/GR)
GRD.gAPI                                               : Gamma Ray (from FDC/CNL/GR)
ILD.Ohmm                                               : Deep Induction Standard Processed Resistivity
NPHI.LPU                                               : Neutron Porosity
RHOB.g/cc                                              : Bulk Density
SFL.Ohmm                                               : Spherically Focussed Log
SP.mV                                                  : Spontaneous Potential
~ASCII Log Data Section
# ...
 8235.0000      -999.2500      -999.2500        79.3436        27.9064      -999.2500         3.4529      -999.2500      -999.2500         3.3532        73.1706     
 8235.5000      -999.2500      -999.2500        79.2149        25.7798      -999.2500         3.4200      -999.2500      -999.2500         3.3827        72.8395     
 8236.0000      -999.2500      -999.2500        77.9543        23.3695      -999.2500         3.3953      -999.2500      -999.2500         3.6509        72.1351     
 8236.5000      -999.2500      -999.2500        76.6406        21.9969      -999.2500         3.3961      -999.2500      -999.2500         3.8752        72.0854     
 8237.0000      -999.2500      -999.2500        77.2027        21.3029      -999.2500         3.3976      -999.2500      -999.2500         3.9722        72.7423     
 8237.5000      -999.2500      -999.2500        78.2086        21.4706      -999.2500         3.4252      -999.2500      -999.2500         3.8545        73.1089     
 8238.0000      -999.2500      -999.2500        78.7148        22.8588      -999.2500         3.4627      -999.2500      -999.2500         3.6295        72.8395     
 8238.5000      -999.2500      -999.2500        79.1143        24.0364      -999.2500         3.5003      -999.2500      -999.2500         3.5440        72.5695     
 8239.0000      -999.2500      -999.2500        79.5138        23.0986      -999.2500         3.5437      -999.2500      -999.2500         3.6905        72.2995     
 8239.5000      -999.2500      -999.2500        79.9118        22.6860      -999.2500         3.6043      -999.2500      -999.2500         3.4845        72.2317     
 8240.0000      -999.2500      -999.2500        78.6920        22.4467      -999.2500         3.6111      -999.2500      -999.2500         3.2541        72.2650     
 8240.5000      -999.2500      -999.2500        77.2074        23.0907      -999.2500         3.5814      -999.2500      -999.2500         3.5652        72.2984     
 8241.0000      -999.2500      -999.2500        75.7227        24.8395      -999.2500         3.5649      -999.2500      -999.2500         4.4780        72.3318     
 8241.5000      -999.2500      -999.2500        74.4528        25.6927      -999.2500         3.5658      -999.2500      -999.2500         4.9126        72.3652     
 8242.0000      -999.2500      -999.2500        76.4467        25.7000      -999.2500         3.5922      -999.2500      -999.2500         4.5549        72.3986     
 8242.5000      -999.2500      -999.2500        78.4455        25.6068      -999.2500         3.6505      -999.2500      -999.2500         4.0138        72.4320     
 8243.0000      -999.2500      -999.2500        80.4443        24.5422      -999.2500         3.6999      -999.2500      -999.2500         3.4738        72.5517     
 8243.5000      -999.2500      -999.2500        81.1345        23.0941      -999.2500         3.6863      -999.2500      -999.2500         3.2247        72.9928     
 8244.0000      -999.2500      -999.2500        80.8436        23.3158      -999.2500         3.6728      -999.2500      -999.2500         3.5825        73.2787     
 8244.5000      -999.2500      -999.2500        79.0591        23.2124      -999.2500         3.6717      -999.2500      -999.2500         3.9358        73.2857     
 8245.0000      -999.2500      -999.2500        77.2717        23.4985      -999.2500         3.6726      -999.2500      -999.2500         4.1700        72.5230     
 8245.5000      -999.2500      -999.2500        76.1712        24.6663      -999.2500         3.6736      -999.2500      -999.2500         4.0617        71.1008     
 8246.0000      -999.2500      -999.2500        75.8536        24.9671      -999.2500         3.6690      -999.2500      -999.2500         3.9263        70.4835     
 8246.5000      -999.2500      -999.2500        76.2130        26.0218      -999.2500         3.6278      -999.2500      -999.2500         4.0265        70.4896     
 8247.0000      -999.2500      -999.2500        77.3399        27.5252      -999.2500         3.5865      -999.2500      -999.2500         4.1598        70.4960     
 8247.5000      -999.2500      -999.2500        78.6396        27.7683      -999.2500         3.5437      -999.2500      -999.2500         3.9106        70.5025     
 8248.0000      -999.2500      -999.2500        79.9413        27.1649      -999.2500         3.4790      -999.2500      -999.2500         3.6065        71.1201     
 8248.5000      -999.2500      -999.2500        81.2411        26.4322      -999.2500         3.4121      -999.2500      -999.2500         3.3038        72.4734     
 8249.0000      -999.2500      -999.2500        81.4202        25.4012      -999.2500         3.3557      -999.2500      -999.2500         3.0567        72.6759     
 8249.5000      -999.2500      -999.2500        79.5952        25.7290      -999.2500         3.3564      -999.2500      -999.2500         3.4252        72.6130     
 8250.0000      -999.2500      -999.2500        77.7643        25.9355      -999.2500         3.3910      -999.2500      -999.2500         3.9143        72.5500     
 8250.5000      -999.2500      -999.2500        75.9388        25.4578      -999.2500         3.4614      -999.2500      -999.2500         4.4033        72.4870     
 8251.0000      -999.2500      -999.2500        76.4864        25.3204      -999.2500         3.5639      -999.2500      -999.2500         4.4945        72.4241     
 8251.5000      -999.2500      -999.2500        77.9485        26.2326      -999.2500         3.6809      -999.2500      -999.2500         4.0472        72.3731     
 8252.0000      -999.2500      -999.2500        79.4105        27.9755      -999.2500         3.6492      -999.2500      -999.2500         3.6420        72.4201     
 8252.5000      -999.2500      -999.2500        80.8732        29.8767      -999.2500         3.6030      -999.2500      -999.2500         3.3997        72.4684     
 8253.0000      -999.2500      -999.2500        80.6966        30.8911      -999.2500         3.5065      -999.2500      -999.2500         3.1739        72.5166     
 8253.5000      -999.2500      -999.2500        79.9901        31.6061      -999.2500         3.4099      -999.2500      -999.2500         3.5398        72.5649     
 8254.0000      -999.2500      -999.2500        79.2835        31.8150      -999.2500         3.3320      -999.2500      -999.2500         4.1762        72.6731     
 8254.5000      -999.2500      -999.2500        78.5758        31.9339      -999.2500         3.2573      -999.2500      -999.2500         4.4621        72.9345     
 8255.0000      -999.2500      -999.2500        78.9990        31.9777      -999.2500         3.1933      -999.2500      -999.2500         3.9289        73.1957     
 8255.5000      -999.2500      -999.2500        80.7385        30.9300      -999.2500         3.3329      -999.2500      -999.2500         3.3288        73.4203     
 8256.0000      -999.2500      -999.2500        82.4785        29.3972      -999.2500         3.3639      -999.2500      -999.2500         3.1281        73.3808     
 8256.5000      -999.2500      -999.2500        81.9744        27.9681      -999.2500         3.3439      -999.2500      -999.2500         3.0871        73.3405     
 8257.0000      -999.2500      -999.2500        80.9652        26.9093      -999.2500         3.3162      -999.2500      -999.2500         3.4571        73.3002     
 8257.5000      -999.2500      -999.2500        79.9560        26.6694      -999.2500         3.3344      -999.2500      -999.2500         3.7937        73.2562     
 8258.0000      -999.2500      -999.2500        78.9685        26.4728      -999.2500         3.3823      -999.2500      -999.2500         3.9709        73.0482     
 8258.5000      -999.2500      -999.2500        79.0945        26.1118      -999.2500         3.5274      -999.2500      -999.2500         3.8791        72.7943     
 8259.0000      -999.2500      -999.2500        79.2242        25.9862      -999.2500         3.6606      -999.2500      -999.2500         3.6825        72.7241     
