~Version Information Section
VERS.          2.0                                     : CWLS LOG ASCII Standard
WRAP.          NO                                      : One line per depth step
CREA.          03/06/17                                : LAS Creation Date
~Well Information Section
STRT.ft        493.0000                                : Start Depth
STOP.ft        11890.0000                              : Stop Depth
STEP.ft        0.5000                                  : Step
NULL.          -999.2500                               : Null Value
COMP.          TEXACO PRODUCTION SERVICES LTD.         : Company
WELL.          14/20-7                                 : Well
FLD .          SAIL SOUTH, MORAY FIRTH                 : Field
LOC .          NORTH SEA                               : Location
LOC1.          -                                       : Location (UTM)
CTRY.          UK                                      : Country
PROV.          UKCS                                    : Province
UWI .          864                                     : UWI Number
API .          -                                       : API Number
SECT.          -                                       : Section
TOWN.          -                                       : Township
RNGE.          -                                       : Range
PDAT.          MSL                                     : Perm Datum
EPD .ft        0.0                                     : Elevation
LMF .          KB                                      : Log Measured From
DMF .          KB                                      : Drill Measured From
APD .ft        88.0                                    : Above Perm Datum
EKB .ft        88.0                                    : Elev-Kelly Bushing
EDF .ft        83.0                                    : Elev-Drill Floor
EGL .ft        -445.0                                  : Elev-Ground Level (Water Depth)
TDD .ft        11875.0                                 : Total Depth (Driller)
TDL .ft        11895.0                                 : Total Depth (Logger)
SRVC.          SCHLUMBERGER                            : Service Company
LATI.          58 23 01.71" N                          : Latitude
LONG.          00 02 27.26" W                          : Longitude
DATE.          APR-JUN-1976                            : Logging Date
PROJ.          UKCS                                    : Project
SET .          COMP_WIRE                               : Set
~Curve Information Section
DEPTH.ft                                               : Depth Curve
CALD.in                                                : Caliper (from FDC/CNL/GR)
DRHO.g/cc                                              : Delta Rho
DT.us/ft                                               : Delta-T
GR.gAPI                                                : Gamma Ray (from ISF/BHC/GR)
GRD.gAPI                                               : Gamma Ray (from FDC/CNL/GR)
ILD.Ohmm                                               : Deep Induction Standard Processed Resistivity
NPHI.LPU                                               : Neutron Porosity
RHOB.g/cc                                              : Bulk Density
SFL.Ohmm                                               : Spherically Focussed Log
SP.mV                                                  : Spontaneous Potential
~ASCII Log Data Section
# ...
 5123.5000      -999.2500      -999.2500       138.4893        58.5848      -999.2500         0.8236      -999.2500      -999.2500         0.7470        44.3690     
 5124.0000      -999.2500      -999.2500       136.4720        56.2366      -999.2500         0.8198      -999.2500      -999.2500         0.7293        43.4465     
 5124.5000      -999.2500      -999.2500       134.4531        53.8087      -999.2500         0.7856      -999.2500      -999.2500         0.7416        42.5412     
 5125.0000      -999.2500      -999.2500       131.7614        51.3828      -999.2500         0.7459      -999.2500      -999.2500         0.7595        41.7386     
 5125.5000      -999.2500      -999.2500       128.2623        50.9889      -999.2500         0.7135      -999.2500      -999.2500         0.7630        40.1430     
 5126.0000      -999.2500      -999.2500       124.7604        50.6161      -999.2500         0.6823      -999.2500      -999.2500         0.7533        39.5289     
 5126.5000      -999.2500      -999.2500       123.9785        48.7799      -999.2500         0.6508      -999.2500      -999.2500         0.7361        38.5228     
 5127.0000      -999.2500      -999.2500       124.5402        46.6559      -999.2500         0.6185      -999.2500      -999.2500         0.7060        38.1236     
 5127.5000      -999.2500      -999.2500       124.8517        44.5336      -999.2500         0.5894      -999.2500      -999.2500         0.6760        37.8234     
 5128.0000      -999.2500      -999.2500       125.0007        42.4097      -999.2500         0.5719      -999.2500      -999.2500         0.6460        37.7513     
 5128.5000      -999.2500      -999.2500       125.1496        40.2874      -999.2500         0.5612      -999.2500      -999.2500         0.6160        37.9263     
 5129.0000      -999.2500      -999.2500       129.6757        40.1740      -999.2500         0.5612      -999.2500      -999.2500         0.5886        38.7314     
 5129.5000      -999.2500      -999.2500       135.2171        41.8079      -999.2500         0.5626      -999.2500      -999.2500         0.6022        39.5366     
 5130.0000      -999.2500      -999.2500       141.9021        43.4431      -999.2500         0.5823      -999.2500      -999.2500         0.6158        40.3442     
 5130.5000      -999.2500      -999.2500       145.8689        45.0770      -999.2500         0.6019      -999.2500      -999.2500         0.6352        41.6172     
 5131.0000      -999.2500      -999.2500       142.8408        46.7123      -999.2500         0.6246      -999.2500      -999.2500         0.6589        41.9537     
 5131.5000      -999.2500      -999.2500       140.4180        47.5590      -999.2500         0.6492      -999.2500      -999.2500         0.6826        41.7543     
 5132.0000      -999.2500      -999.2500       140.0414        48.1204      -999.2500         0.6754      -999.2500      -999.2500         0.7095        41.7555     
 5132.5000      -999.2500      -999.2500       139.6645        47.1796      -999.2500         0.7034      -999.2500      -999.2500         0.7373        39.7459     
 5133.0000      -999.2500      -999.2500       137.8943        45.1626      -999.2500         0.6724      -999.2500      -999.2500         0.7323        38.8838     
 5133.5000      -999.2500      -999.2500       135.0864        43.1904      -999.2500         0.6042      -999.2500      -999.2500         0.7067        37.7824     
 5134.0000      -999.2500      -999.2500       132.2807        41.2198      -999.2500         0.5567      -999.2500      -999.2500         0.6811        36.9352     
 5134.5000      -999.2500      -999.2500       129.0699        39.7054      -999.2500         0.5340      -999.2500      -999.2500         0.6555        36.3327     
 5135.0000      -999.2500      -999.2500       125.7160        38.7737      -999.2500         0.5188      -999.2500      -999.2500         0.6300        36.7357     
 5135.5000      -999.2500      -999.2500       128.8165        39.0680      -999.2500         0.5125      -999.2500      -999.2500         0.6044        37.7682     
 5136.0000      -999.2500      -999.2500       132.6834        42.4247      -999.2500         0.5324      -999.2500      -999.2500         0.5995        38.5482     
 5136.5000      -999.2500      -999.2500       136.5534        45.7842      -999.2500         0.5531      -999.2500      -999.2500         0.5996        41.0778     
 5137.0000      -999.2500      -999.2500       139.2337        49.1409      -999.2500         0.5801      -999.2500      -999.2500         0.5996        42.1347     
 5137.5000      -999.2500      -999.2500       139.5230        52.1444      -999.2500         0.6083      -999.2500      -999.2500         0.6346        42.5470     
 5138.0000      -999.2500      -999.2500       141.7347        51.8067      -999.2500         0.6383      -999.2500      -999.2500         0.6697        42.9763     
 5138.5000      -999.2500      -999.2500       144.8004        50.4089      -999.2500         0.6699      -999.2500      -999.2500         0.7049        42.9775     
 5139.0000      -999.2500      -999.2500       147.8685        50.3637      -999.2500         0.6970      -999.2500      -999.2500         0.7162        42.5805     
 5139.5000      -999.2500      -999.2500       147.8631        50.9164      -999.2500         0.7050      -999.2500      -999.2500         0.7055        42.3722     
 5140.0000      -999.2500      -999.2500       146.3755        51.4695      -999.2500         0.7129      -999.2500      -999.2500         0.6949        41.7732     
 5140.5000      -999.2500      -999.2500       142.3994        52.0222      -999.2500         0.6994      -999.2500      -999.2500         0.6842        39.7284     
 5141.0000      -999.2500      -999.2500       137.1542        51.3531      -999.2500         0.6769      -999.2500      -999.2500         0.6736        38.5345     
 5141.5000      -999.2500      -999.2500       130.2177        48.7013      -999.2500         0.6587      -999.2500      -999.2500         0.6664        37.0047     
 5142.0000      -999.2500      -999.2500       122.9424        44.7848      -999.2500         0.6421      -999.2500      -999.2500         0.6606        36.7530     
 5142.5000      -999.2500      -999.2500       119.6292        42.1037      -999.2500         0.6300      -999.2500      -999.2500         0.6549        36.2766     
 5143.0000      -999.2500      -999.2500       118.7948        41.4618      -999.2500         0.6183      -999.2500      -999.2500         0.6601        36.6110     
 5143.5000      -999.2500      -999.2500       121.8810        40.8205      -999.2500         0.6173      -999.2500      -999.2500         0.6736        37.1596     
 5144.0000      -999.2500      -999.2500       124.9697        41.2669      -999.2500         0.6173      -999.2500      -999.2500         0.6619        38.0495     
 5144.5000      -999.2500      -999.2500       128.0559        42.5628      -999.2500         0.6364      -999.2500      -999.2500         0.6416        39.5744     
 5145.0000      -999.2500      -999.2500       130.0202        44.0372      -999.2500         0.6572      -999.2500      -999.2500         0.6262        40.9820     
 5145.5000      -999.2500      -999.2500       129.9827        47.6093      -999.2500         0.6747      -999.2500      -999.2500         0.6581        41.8843     
 5146.0000      -999.2500      -999.2500       129.5197        51.1802      -999.2500         0.6921      -999.2500      -999.2500         0.6901        42.1914     
 5146.5000      -999.2500      -999.2500       130.0768        52.4748      -999.2500         0.7110      -999.2500      -999.2500         0.7220        42.3934     
 5147.0000      -999.2500      -999.2500       132.2355        50.7782      -999.2500         0.7299      -999.2500      -999.2500         0.7540        42.5955     
 5147.5000      -999.2500      -999.2500       134.9965        49.6443      -999.2500         0.7476      -999.2500      -999.2500         0.7658        43.9319     
