~Version Information Section
VERS.          2.0                                     : CWLS LOG ASCII Standard
WRAP.          NO                                      : One line per depth step
CREA.          03/06/17                                : LAS Creation Date
~Well Information Section
STRT.ft        493.0000                                : Start Depth
STOP.ft        11890.0000                              : Stop Depth
STEP.ft        0.5000                                  : Step
NULL.          -999.2500                               : Null Value
COMP.          TEXACO PRODUCTION SERVICES LTD.         : Company
WELL.          14/20-7                                 : Well
FLD .          SAIL SOUTH, MORAY FIRTH                 : Field
LOC .          NORTH SEA                               : Location
LOC1.          -                                       : Location (UTM)
CTRY.          UK                                      : Country
PROV.          UKCS                                    : Province
UWI .          864                                     : UWI Number
API .          -                                       : API Number
SECT.          -                                       : Section
TOWN.          -                                       : Township
RNGE.          -                                       : Range
PDAT.          MSL                                     : Perm Datum
EPD .ft        0.0                                     : Elevation
LMF .          KB                                      : Log Measured From
DMF .          KB                                      : Drill Measured From
APD .ft        88.0                                    : Above Perm Datum
EKB .ft        88.0                                    : Elev-Kelly Bushing
EDF .ft        83.0                                    : Elev-Drill Floor
EGL .ft        -445.0                                  : Elev-Ground Level (Water Depth)
TDD .ft        11875.0                                 : Total Depth (Driller)
TDL .ft        11895.0                                 : Total Depth (Logger)
SRVC.          SCHLUMBERGER                            : Service Company
LATI.          58 23 01.71" N                          : Latitude
LONG.          00 02 27.26" W                          : Longitude
DATE.          APR-JUN-1976                            : Logging Date
PROJ.          UKCS                                    : Project
SET .          COMP_WIRE                               : Set
~Curve Information Section
DEPTH.ft                                               : Depth Curve
CALD.in                                                : Caliper (from FDC/CNL/GR)
DRHO.g/cc                                              : Delta Rho
DT.us/ft                                               : Delta-T
GR.gAPI                                                : Gamma Ray (from ISF/BHC/GR)
GRD.gAPI                                               : Gamma Ray (from FDC/CNL/GR)
ILD.Ohmm                                               : Deep Induction Standard Processed Resistivity
NPHI.LPU                                               : Neutron Porosity
RHOB.g/cc                                              : Bulk Density
SFL.Ohmm                                               : Spherically Focussed Log
SP.mV                                                  : Spontaneous Potential
~ASCII Log Data Section
# ...
 9778.5000      -999.2500      -999.2500        93.1521        39.3348      -999.2500         1.5667      -999.2500      -999.2500         1.4381        83.6516     
 9779.0000      -999.2500      -999.2500        90.4199        39.0598      -999.2500         1.6343      -999.2500      -999.2500         1.5102        83.8660     
 9779.5000      -999.2500      -999.2500        89.3479        38.7436      -999.2500         1.7019      -999.2500      -999.2500         1.8121        84.6505     
 9780.0000      -999.2500      -999.2500        88.2785        38.4079      -999.2500         1.7433      -999.2500      -999.2500         2.0105        85.1276     
 9780.5000      -999.2500      -999.2500        87.2155        38.6315      -999.2500         1.7607      -999.2500      -999.2500         1.9819        85.3622     
 9781.0000      -999.2500      -999.2500        89.1159        40.3629      -999.2500         1.7513      -999.2500      -999.2500         2.1564        85.4214     
 9781.5000      -999.2500      -999.2500        91.0694        41.7506      -999.2500         1.7297      -999.2500      -999.2500         2.2494        85.4806     
 9782.0000      -999.2500      -999.2500        92.4699        41.6158      -999.2500         1.7080      -999.2500      -999.2500         2.1420        85.5400     
 9782.5000      -999.2500      -999.2500        91.8094        40.2507      -999.2500         1.6874      -999.2500      -999.2500         1.9486        85.5992     
 9783.0000      -999.2500      -999.2500        92.6825        38.3444      -999.2500         1.6672      -999.2500      -999.2500         1.7135        85.6584     
 9783.5000      -999.2500      -999.2500        94.1808        38.1041      -999.2500         1.6593      -999.2500      -999.2500         1.5833        85.7177     
 9784.0000      -999.2500      -999.2500        95.6792        39.0854      -999.2500         1.6732      -999.2500      -999.2500         1.7482        85.7769     
 9784.5000      -999.2500      -999.2500        93.5260        39.3425      -999.2500         1.6900      -999.2500      -999.2500         1.9661        85.8362     
 9785.0000      -999.2500      -999.2500        92.8365        38.5410      -999.2500         1.7277      -999.2500      -999.2500         1.9871        85.8955     
 9785.5000      -999.2500      -999.2500        92.1546        37.3991      -999.2500         1.8279      -999.2500      -999.2500         1.8468        85.9547     
 9786.0000      -999.2500      -999.2500        88.7950        38.4047      -999.2500         1.9027      -999.2500      -999.2500         1.7068        86.0140     
 9786.5000      -999.2500      -999.2500        85.4222        39.4162      -999.2500         1.9584      -999.2500      -999.2500         2.1620        86.0733     
 9787.0000      -999.2500      -999.2500        82.0548        40.2975      -999.2500         1.9881      -999.2500      -999.2500         2.6691        85.9099     
 9787.5000      -999.2500      -999.2500        79.8517        39.9212      -999.2500         2.0162      -999.2500      -999.2500         3.2262        85.6644     
 9788.0000      -999.2500      -999.2500        83.6375        39.5431      -999.2500         2.0749      -999.2500      -999.2500         2.6517        85.4185     
 9788.5000      -999.2500      -999.2500        87.4450        39.2625      -999.2500         2.1871      -999.2500      -999.2500         2.2978        84.9832     
 9789.0000      -999.2500      -999.2500        91.2393        38.4379      -999.2500         2.2146      -999.2500      -999.2500         2.2076        84.2784     
 9789.5000      -999.2500      -999.2500        89.0544        35.7421      -999.2500         2.2071      -999.2500      -999.2500         1.9277        83.5712     
 9790.0000      -999.2500      -999.2500        85.2236        32.3550      -999.2500         2.1978      -999.2500      -999.2500         2.0249        83.1315     
 9790.5000      -999.2500      -999.2500        81.3928        30.9003      -999.2500         2.1892      -999.2500      -999.2500         2.8233        83.3565     
 9791.0000      -999.2500      -999.2500        80.1131        30.9983      -999.2500         2.2483      -999.2500      -999.2500         3.3843        83.6042     
 9791.5000      -999.2500      -999.2500        81.2100        31.8806      -999.2500         2.3353      -999.2500      -999.2500         3.2151        83.8516     
 9792.0000      -999.2500      -999.2500        83.2484        33.3729      -999.2500         2.4519      -999.2500      -999.2500         3.0510        84.1555     
 9792.5000      -999.2500      -999.2500        84.2842        34.8653      -999.2500         2.5560      -999.2500      -999.2500         3.1355        84.6034     
 9793.0000      -999.2500      -999.2500        82.0508        36.5341      -999.2500         2.5645      -999.2500      -999.2500         3.2797        85.0584     
 9793.5000      -999.2500      -999.2500        80.9253        38.8671      -999.2500         2.5118      -999.2500      -999.2500         3.0161        85.5120     
 9794.0000      -999.2500      -999.2500        80.1893        37.8879      -999.2500         2.4444      -999.2500      -999.2500         3.1218        85.4649     
 9794.5000      -999.2500      -999.2500        81.0629        36.9034      -999.2500         2.3715      -999.2500      -999.2500         3.9982        85.2256     
 9795.0000      -999.2500      -999.2500        83.1436        37.3615      -999.2500         2.3318      -999.2500      -999.2500         3.9928        84.9857     
 9795.5000      -999.2500      -999.2500        85.2187        39.0120      -999.2500         2.3276      -999.2500      -999.2500         2.5827        84.7462     
 9796.0000      -999.2500      -999.2500        85.8835        40.1965      -999.2500         2.3412      -999.2500      -999.2500         3.0829        84.5067     
 9796.5000      -999.2500      -999.2500        86.4944        40.2119      -999.2500         2.3549      -999.2500      -999.2500         3.9340        84.2672     
 9797.0000      -999.2500      -999.2500        85.0302        38.8567      -999.2500         2.3685      -999.2500      -999.2500         3.2316        84.0542     
 9797.5000      -999.2500      -999.2500        84.1906        37.0052      -999.2500         2.3837      -999.2500      -999.2500         2.4800        84.3127     
 9798.0000      -999.2500      -999.2500        84.3205        34.7666      -999.2500         2.4325      -999.2500      -999.2500         2.7911        84.0686     
 9798.5000      -999.2500      -999.2500        80.4795        32.2926      -999.2500         2.4877      -999.2500      -999.2500         3.1756        83.7527     
 9799.0000      -999.2500      -999.2500        80.1864        29.8024      -999.2500         2.4498      -999.2500      -999.2500         3.4574        83.4369     
 9799.5000      -999.2500      -999.2500        80.0625        29.4481      -999.2500         2.3988      -999.2500      -999.2500         3.7843        83.1206     
 9800.0000      -999.2500      -999.2500        79.9413        31.1702      -999.2500         2.3360      -999.2500      -999.2500         4.1447        82.8416     
 9800.5000      -999.2500      -999.2500        81.8134        32.3722      -999.2500         2.2419      -999.2500      -999.2500         4.0458        83.0506     
 9801.0000      -999.2500      -999.2500        84.1784        31.4609      -999.2500         2.1481      -999.2500      -999.2500         3.5710        83.3558     
 9801.5000      -999.2500      -999.2500        85.8390        30.4641      -999.2500         2.0594      -999.2500      -999.2500         3.1211        83.6614     
 9802.0000      -999.2500      -999.2500        88.0164        30.0583      -999.2500         1.9747      -999.2500      -999.2500         3.1358        83.9665     
 9802.5000      -999.2500      -999.2500        88.5378        30.8366      -999.2500         1.9344      -999.2500      -999.2500         2.9229        84.2717     
