~Version Information Section
VERS.          2.0                                     : CWLS LOG ASCII Standard
WRAP.          NO                                      : One line per depth step
CREA.          03/06/17                                : LAS Creation Date
~Well Information Section
STRT.ft        493.0000                                : Start Depth
STOP.ft        11890.0000                              : Stop Depth
STEP.ft        0.5000                                  : Step
NULL.          -999.2500                               : Null Value
COMP.          TEXACO PRODUCTION SERVICES LTD.         : Company
WELL.          14/20-7                                 : Well
FLD .          SAIL SOUTH, MORAY FIRTH                 : Field
LOC .          NORTH SEA                               : Location
LOC1.          -                                       : Location (UTM)
CTRY.          UK                                      : Country
PROV.          UKCS                                    : Province
UWI .          864                                     : UWI Number
API .          -                                       : API Number
SECT.          -                                       : Section
TOWN.          -                                       : Township
RNGE.          -                                       : Range
PDAT.          MSL                                     : Perm Datum
EPD .ft        0.0                                     : Elevation
LMF .          KB                                      : Log Measured From
DMF .          KB                                      : Drill Measured From
APD .ft        88.0                                    : Above Perm Datum
EKB .ft        88.0                                    : Elev-Kelly Bushing
EDF .ft        83.0                                    : Elev-Drill Floor
EGL .ft        -445.0                                  : Elev-Ground Level (Water Depth)
TDD .ft        11875.0                                 : Total Depth (Driller)
TDL .ft        11895.0                                 : Total Depth (Logger)
SRVC.          SCHLUMBERGER                            : Service Company
LATI.          58 23 01.71" N                          : Latitude
LONG.          00 02 27.26" W                          : Longitude
DATE.          APR-JUN-1976                            : Logging Date
PROJ.          UKCS                                    : Project
SET .          COMP_WIRE                               : Set
~Curve Information Section
DEPTH.ft                                               : Depth Curve
CALD.in                                                : Caliper (from FDC/CNL/GR)
DRHO.g/cc                                              : Delta Rho
DT.us/ft                                               : Delta-T
GR.gAPI                                                : Gamma Ray (from ISF/BHC/GR)
GRD.gAPI                                               : Gamma Ray (from FDC/CNL/GR)
ILD.Ohmm                                               : Deep Induction Standard Processed Resistivity
NPHI.LPU                                               : Neutron Porosity
RHOB.g/cc                                              : Bulk Density
SFL.Ohmm                                               : Spherically Focussed Log
SP.mV                                                  : Spontaneous Potential
~ASCII Log Data Section
# ...
 8749.5000      -999.2500      -999.2500        80.9099        30.3915      -999.2500         2.5734      -999.2500      -999.2500         2.7720        77.6525     
 8750.0000      -999.2500      -999.2500        79.2973        28.1558      -999.2500         2.6493      -999.2500      -999.2500         2.9111        77.7820     
 8750.5000      -999.2500      -999.2500        77.6846        25.9161      -999.2500         2.7353      -999.2500      -999.2500         3.3239        77.9141     
 8751.0000      -999.2500      -999.2500        76.0719        23.6763      -999.2500         2.8175      -999.2500      -999.2500         3.7068        78.0594     
 8751.5000      -999.2500      -999.2500        75.0536        23.7458      -999.2500         2.8874      -999.2500      -999.2500         3.9705        78.2058     
 8752.0000      -999.2500      -999.2500        76.1734        25.1323      -999.2500         2.9555      -999.2500      -999.2500         3.5922        78.3520     
 8752.5000      -999.2500      -999.2500        77.2360        26.5188      -999.2500         3.0113      -999.2500      -999.2500         3.1414        78.4918     
 8753.0000      -999.2500      -999.2500        78.2983        27.3582      -999.2500         3.0644      -999.2500      -999.2500         3.0733        78.3897     
 8753.5000      -999.2500      -999.2500        78.5847        26.8163      -999.2500         3.0939      -999.2500      -999.2500         3.1040        78.2726     
 8754.0000      -999.2500      -999.2500        78.1165        26.2998      -999.2500         3.0573      -999.2500      -999.2500         3.1419        78.1558     
 8754.5000      -999.2500      -999.2500        77.6482        25.7902      -999.2500         2.9948      -999.2500      -999.2500         3.2627        78.1199     
 8755.0000      -999.2500      -999.2500        77.3185        27.2946      -999.2500         2.8307      -999.2500      -999.2500         3.3171        78.1664     
 8755.5000      -999.2500      -999.2500        77.9976        29.2735      -999.2500         2.6692      -999.2500      -999.2500         3.3573        78.2130     
 8756.0000      -999.2500      -999.2500        79.4839        31.2557      -999.2500         2.5444      -999.2500      -999.2500         3.1474        78.2596     
 8756.5000      -999.2500      -999.2500        80.8755        31.6865      -999.2500         2.4285      -999.2500      -999.2500         2.7219        78.2351     
 8757.0000      -999.2500      -999.2500        83.4799        32.0336      -999.2500         2.3730      -999.2500      -999.2500         2.4963        77.9470     
 8757.5000      -999.2500      -999.2500        84.2268        31.7531      -999.2500         2.3269      -999.2500      -999.2500         2.3981        77.6525     
 8758.0000      -999.2500      -999.2500        83.5384        31.0845      -999.2500         2.2807      -999.2500      -999.2500         2.4966        77.3575     
 8758.5000      -999.2500      -999.2500        82.5356        29.8559      -999.2500         2.2479      -999.2500      -999.2500         2.7907        77.1417     
 8759.0000      -999.2500      -999.2500        80.6275        29.1909      -999.2500         2.2210      -999.2500      -999.2500         3.0558        77.7996     
 8759.5000      -999.2500      -999.2500        80.1267        30.1616      -999.2500         2.2076      -999.2500      -999.2500         3.1145        78.0725     
 8760.0000      -999.2500      -999.2500        80.9422        31.4905      -999.2500         2.2158      -999.2500      -999.2500         2.8716        78.0367     
 8760.5000      -999.2500      -999.2500        82.1566        31.7662      -999.2500         2.2271      -999.2500      -999.2500         2.6264        78.0009     
 8761.0000      -999.2500      -999.2500        83.3224        31.3143      -999.2500         2.3056      -999.2500      -999.2500         2.4380        77.9650     
 8761.5000      -999.2500      -999.2500        84.4278        30.5487      -999.2500         2.3953      -999.2500      -999.2500         2.3522        77.9292     
 8762.0000      -999.2500      -999.2500        83.6147        28.4490      -999.2500         2.4625      -999.2500      -999.2500         2.3788        77.8934     
 8762.5000      -999.2500      -999.2500        81.6998        26.3764      -999.2500         2.5221      -999.2500      -999.2500         2.8641        77.8575     
 8763.0000      -999.2500      -999.2500        78.6438        24.4261      -999.2500         2.6124      -999.2500      -999.2500         3.4301        77.8217     
 8763.5000      -999.2500      -999.2500        75.5401        23.4609      -999.2500         2.7447      -999.2500      -999.2500         3.9957        77.7859     
 8764.0000      -999.2500      -999.2500        74.3614        22.4972      -999.2500         2.8775      -999.2500      -999.2500         4.3997        77.7500     
 8764.5000      -999.2500      -999.2500        75.1610        23.4011      -999.2500         3.0118      -999.2500      -999.2500         3.9683        77.7141     
 8765.0000      -999.2500      -999.2500        75.6141        24.9403      -999.2500         3.1777      -999.2500      -999.2500         3.4293        77.6837     
 8765.5000      -999.2500      -999.2500        75.7471        26.4796      -999.2500         3.3484      -999.2500      -999.2500         3.4585        77.6832     
 8766.0000      -999.2500      -999.2500        75.1474        25.7137      -999.2500         3.4919      -999.2500      -999.2500         3.7420        77.6829     
 8766.5000      -999.2500      -999.2500        73.8095        24.3469      -999.2500         3.5034      -999.2500      -999.2500         3.9008        77.6764     
 8767.0000      -999.2500      -999.2500        72.2885        23.8218      -999.2500         3.5034      -999.2500      -999.2500         4.0183        77.2307     
 8767.5000      -999.2500      -999.2500        71.9665        23.2976      -999.2500         3.5034      -999.2500      -999.2500         4.1786        76.5840     
 8768.0000      -999.2500      -999.2500        72.0484        23.0093      -999.2500         3.4963      -999.2500      -999.2500         4.1164        76.6630     
 8768.5000      -999.2500      -999.2500        72.5324        22.8576      -999.2500         3.4808      -999.2500      -999.2500         3.9849        76.8896     
 8769.0000      -999.2500      -999.2500        73.6106        23.2320      -999.2500         3.4652      -999.2500      -999.2500         4.0664        77.1165     
 8769.5000      -999.2500      -999.2500        74.5394        24.5558      -999.2500         3.4496      -999.2500      -999.2500         4.0595        77.3432     
 8770.0000      -999.2500      -999.2500        75.1733        24.9123      -999.2500         3.4065      -999.2500      -999.2500         3.6776        77.5698     
 8770.5000      -999.2500      -999.2500        75.5297        24.6302      -999.2500         3.3121      -999.2500      -999.2500         3.3168        77.7964     
 8771.0000      -999.2500      -999.2500        75.3997        25.2191      -999.2500         3.2163      -999.2500      -999.2500         3.4461        78.0205     
 8771.5000      -999.2500      -999.2500        74.9629        24.6788      -999.2500         3.1206      -999.2500      -999.2500         3.6471        78.1521     
 8772.0000      -999.2500      -999.2500        75.4789        25.2294      -999.2500         3.0306      -999.2500      -999.2500         3.5752        78.2457     
 8772.5000      -999.2500      -999.2500        76.5368        26.4366      -999.2500         2.9450      -999.2500      -999.2500         3.2783        78.3393     
 8773.0000      -999.2500      -999.2500        78.0268        27.3037      -999.2500         2.8589      -999.2500      -999.2500         3.0056        78.4329     
 8773.5000      -999.2500      -999.2500        77.8909        28.0745      -999.2500         2.7735      -999.2500      -999.2500         3.0172        78.3013     
