~Version Information Section
VERS.          2.0                                     : CWLS LOG ASCII Standard
WRAP.          NO                                      : One line per depth step
CREA.          03/06/17                                : LAS Creation Date
~Well Information Section
STRT.ft        493.0000                                : Start Depth
STOP.ft        11890.0000                              : Stop Depth
STEP.ft        0.5000                                  : Step
NULL.          -999.2500                               : Null Value
COMP.          TEXACO PRODUCTION SERVICES LTD.         : Company
WELL.          14/20-7                                 : Well
FLD .          SAIL SOUTH, MORAY FIRTH                 : Field
LOC .          NORTH SEA                               : Location
LOC1.          -                                       : Location (UTM)
CTRY.          UK                                      : Country
PROV.          UKCS                                    : Province
UWI .          864                                     : UWI Number
API .          -                                       : API Number
SECT.          -                                       : Section
TOWN.          -                                       : Township
RNGE.          -                                       : Range
PDAT.          MSL                                     : Perm Datum
EPD .ft        0.0                                     : Elevation
LMF .          KB                                      : Log Measured From
DMF .          KB                                      : Drill Measured From
APD .ft        88.0                                    : Above Perm Datum
EKB .ft        88.0                                    : Elev-Kelly Bushing
EDF .ft        83.0                                    : Elev-Drill Floor
EGL .ft        -445.0                                  : Elev-Ground Level (Water Depth)
TDD .ft        11875.0                                 : Total Depth (Driller)
TDL .ft        11895.0                                 : Total Depth (Logger)
SRVC.          SCHLUMBERGER                            : Service Company
LATI.          58 23 01.71" N                          : Latitude
LONG.          00 02 27.26" W                          : Longitude
DATE.          APR-JUN-1976                            : Logging Date
PROJ.          UKCS                                    : Project
SET .          COMP_WIRE                               : Set
~Curve Information Section
DEPTH.ft                                               : Depth Curve
CALD.in                                                : Caliper (from FDC/CNL/GR)
DRHO.g/cc                                              : Delta Rho
DT.us/ft                                               : Delta-T
GR.gAPI                                                : Gamma Ray (from ISF/BHC/GR)
GRD.gAPI                                               : Gamma Ray (from FDC/CNL/GR)
ILD.Ohmm                                               : Deep Induction Standard Processed Resistivity
NPHI.LPU                                               : Neutron Porosity
RHOB.g/cc                                              : Bulk Density
SFL.Ohmm                                               : Spherically Focussed Log
SP.mV                                                  : Spontaneous Potential
~ASCII Log Data Section
# ...
 5638.0000      -999.2500      -999.2500       106.2856        39.5560      -999.2500         1.0431      -999.2500      -999.2500         0.9052        43.0048     
 5638.5000      -999.2500      -999.2500       105.2148        38.6925      -999.2500         0.9917      -999.2500      -999.2500         0.8822        43.0919     
 5639.0000      -999.2500      -999.2500       104.8622        37.9772      -999.2500         0.9440      -999.2500      -999.2500         0.8744        42.9391     
 5639.5000      -999.2500      -999.2500       104.4492        37.3730      -999.2500         0.9084      -999.2500      -999.2500         0.8885        42.6977     
 5640.0000      -999.2500      -999.2500       103.9659        36.9556      -999.2500         0.8728      -999.2500      -999.2500         0.9047        42.3905     
 5640.5000      -999.2500      -999.2500       106.0089        37.0772      -999.2500         0.8399      -999.2500      -999.2500         0.9411        41.8873     
 5641.0000      -999.2500      -999.2500       108.1635        37.5256      -999.2500         0.8105      -999.2500      -999.2500         0.9615        41.3461     
 5641.5000      -999.2500      -999.2500       111.6113        38.1870      -999.2500         0.7812      -999.2500      -999.2500         0.9615        40.7016     
 5642.0000      -999.2500      -999.2500       115.3782        37.8524      -999.2500         0.7508      -999.2500      -999.2500         0.9184        40.0570     
 5642.5000      -999.2500      -999.2500       118.3139        37.3682      -999.2500         0.7197      -999.2500      -999.2500         0.8350        39.7713     
 5643.0000      -999.2500      -999.2500       121.0730        37.6714      -999.2500         0.6984      -999.2500      -999.2500         0.8197        39.5858     
 5643.5000      -999.2500      -999.2500       119.7975        37.9660      -999.2500         0.6823      -999.2500      -999.2500         0.8007        39.5771     
 5644.0000      -999.2500      -999.2500       118.3503        38.2088      -999.2500         0.6769      -999.2500      -999.2500         0.7625        39.6710     
 5644.5000      -999.2500      -999.2500       118.7494        38.2514      -999.2500         0.6770      -999.2500      -999.2500         0.7217        39.8175     
 5645.0000      -999.2500      -999.2500       118.9871        38.0906      -999.2500         0.6770      -999.2500      -999.2500         0.7348        40.0199     
 5645.5000      -999.2500      -999.2500       118.6572        37.9703      -999.2500         0.6841      -999.2500      -999.2500         0.7582        40.3547     
 5646.0000      -999.2500      -999.2500       117.8665        40.2243      -999.2500         0.6923      -999.2500      -999.2500         0.7764        40.8214     
 5646.5000      -999.2500      -999.2500       116.3952        42.4801      -999.2500         0.7066      -999.2500      -999.2500         0.7707        41.3828     
 5647.0000      -999.2500      -999.2500       114.7623        43.9072      -999.2500         0.7260      -999.2500      -999.2500         0.7650        42.1167     
 5647.5000      -999.2500      -999.2500       113.1126        44.9933      -999.2500         0.7453      -999.2500      -999.2500         0.7686        42.8512     
 5648.0000      -999.2500      -999.2500       111.4643        46.0785      -999.2500         0.7647      -999.2500      -999.2500         0.7758        43.5852     
 5648.5000      -999.2500      -999.2500       109.8159        47.5832      -999.2500         0.7841      -999.2500      -999.2500         0.7907        44.3192     
 5649.0000      -999.2500      -999.2500       109.9340        49.4052      -999.2500         0.8100      -999.2500      -999.2500         0.8069        45.0537     
 5649.5000      -999.2500      -999.2500       112.2896        51.3252      -999.2500         0.8405      -999.2500      -999.2500         0.8069        45.7421     
 5650.0000      -999.2500      -999.2500       114.6470        53.5276      -999.2500         0.8641      -999.2500      -999.2500         0.8053        45.8708     
 5650.5000      -999.2500      -999.2500       117.0025        55.7283      -999.2500         0.8829      -999.2500      -999.2500         0.8016        45.9989     
 5651.0000      -999.2500      -999.2500       115.4799        55.3295      -999.2500         0.9004      -999.2500      -999.2500         0.7977        46.1271     
 5651.5000      -999.2500      -999.2500       113.3406        53.3627      -999.2500         0.9164      -999.2500      -999.2500         0.7937        46.0171     
 5652.0000      -999.2500      -999.2500       112.0933        51.3944      -999.2500         0.9323      -999.2500      -999.2500         0.7993        45.8903     
 5652.5000      -999.2500      -999.2500       110.9859        49.4276      -999.2500         0.9657      -999.2500      -999.2500         0.8116        45.7636     
 5653.0000      -999.2500      -999.2500       111.5777        47.5047      -999.2500         1.0034      -999.2500      -999.2500         0.8303        45.5121     
 5653.5000      -999.2500      -999.2500       113.2028        45.8442      -999.2500         1.0454      -999.2500      -999.2500         0.8840        45.2281     
 5654.0000      -999.2500      -999.2500       110.7378        44.1824      -999.2500         1.0898      -999.2500      -999.2500         0.8963        44.9435     
 5654.5000      -999.2500      -999.2500       106.3463        42.2615      -999.2500         1.1473      -999.2500      -999.2500         0.8999        44.2867     
 5655.0000      -999.2500      -999.2500        99.3271        40.0778      -999.2500         1.2056      -999.2500      -999.2500         0.9279        43.6223     
 5655.5000      -999.2500      -999.2500        87.1805        37.8922      -999.2500         1.2341      -999.2500      -999.2500         1.0822        42.9574     
 5656.0000      -999.2500      -999.2500        87.2177        35.7655      -999.2500         1.1992      -999.2500      -999.2500         1.2548        42.1046     
 5656.5000      -999.2500      -999.2500       101.9362        36.9764      -999.2500         1.1206      -999.2500      -999.2500         1.3619        41.1584     
 5657.0000      -999.2500      -999.2500       110.3432        38.1890      -999.2500         1.0432      -999.2500      -999.2500         1.3486        40.2131     
 5657.5000      -999.2500      -999.2500       115.8783        39.0995      -999.2500         0.9919      -999.2500      -999.2500         1.3353        39.2669     
 5658.0000      -999.2500      -999.2500       117.3360        39.5038      -999.2500         0.9407      -999.2500      -999.2500         1.2094        38.6473     
 5658.5000      -999.2500      -999.2500       124.4951        39.4502      -999.2500         0.8830      -999.2500      -999.2500         0.9895        38.0785     
 5659.0000      -999.2500      -999.2500       130.4975        38.6873      -999.2500         0.8161      -999.2500      -999.2500         0.8799        37.5352     
 5659.5000      -999.2500      -999.2500       134.6659        37.9238      -999.2500         0.7602      -999.2500      -999.2500         0.9249        37.4549     
 5660.0000      -999.2500      -999.2500       130.1760        37.2002      -999.2500         0.7190      -999.2500      -999.2500         0.8158        37.3750     
 5660.5000      -999.2500      -999.2500       121.7468        36.5957      -999.2500         0.6979      -999.2500      -999.2500         0.7191        37.3903     
 5661.0000      -999.2500      -999.2500       123.0681        35.9917      -999.2500         0.7014      -999.2500      -999.2500         0.7764        37.4776     
 5661.5000      -999.2500      -999.2500       122.4102        37.8334      -999.2500         0.7085      -999.2500      -999.2500         0.8338        37.6312     
 5662.0000      -999.2500      -999.2500       122.1920        39.8577      -999.2500         0.7177      -999.2500      -999.2500         0.8123        37.9779     
