~Version Information Section
VERS.          2.0                                     : CWLS LOG ASCII Standard
WRAP.          NO                                      : One line per depth step
CREA.          03/06/17                                : LAS Creation Date
~Well Information Section
STRT.ft        493.0000                                : Start Depth
STOP.ft        11890.0000                              : Stop Depth
STEP.ft        0.5000                                  : Step
NULL.          -999.2500                               : Null Value
COMP.          TEXACO PRODUCTION SERVICES LTD.         : Company
WELL.          14/20-7                                 : Well
FLD .          SAIL SOUTH, MORAY FIRTH                 : Field
LOC .          NORTH SEA                               : Location
LOC1.          -                                       : Location (UTM)
CTRY.          UK                                      : Country
PROV.          UKCS                                    : Province
UWI .          864                                     : UWI Number
API .          -                                       : API Number
SECT.          -                                       : Section
TOWN.          -                                       : Township
RNGE.          -                                       : Range
PDAT.          MSL                                     : Perm Datum
EPD .ft        0.0                                     : Elevation
LMF .          KB                                      : Log Measured From
DMF .          KB                                      : Drill Measured From
APD .ft        88.0                                    : Above Perm Datum
EKB .ft        88.0                                    : Elev-Kelly Bushing
EDF .ft        83.0                                    : Elev-Drill Floor
EGL .ft        -445.0                                  : Elev-Ground Level (Water Depth)
TDD .ft        11875.0                                 : Total Depth (Driller)
TDL .ft        11895.0                                 : Total Depth (Logger)
SRVC.          SCHLUMBERGER                            : Service Company
LATI.          58 23 01.71" N                          : Latitude
LONG.          00 02 27.26" W                          : Longitude
DATE.          APR-JUN-1976                            : Logging Date
PROJ.          UKCS                                    : Project
SET .          COMP_WIRE                               : Set
~Curve Information Section
DEPTH.ft                                               : Depth Curve
CALD.in                                                : Caliper (from FDC/CNL/GR)
DRHO.g/cc                                              : Delta Rho
DT.us/ft                                               : Delta-T
GR.gAPI                                                : Gamma Ray (from ISF/BHC/GR)
GRD.gAPI                                               : Gamma Ray (from FDC/CNL/GR)
ILD.Ohmm                                               : Deep Induction Standard Processed Resistivity
NPHI.LPU                                               : Neutron Porosity
RHOB.g/cc                                              : Bulk Density
SFL.Ohmm                                               : Spherically Focussed Log
SP.mV                                                  : Spontaneous Potential
~ASCII Log Data Section
# ...
10832.0000        10.1165         0.0310        70.3246        94.8124        80.4693         5.2017        15.8563         2.6324         7.3763        89.7320     
10832.5000        10.2216         0.0186        68.6096       110.0341        88.8073         5.3979        16.2663         2.6281         6.8139        89.6808     
10833.0000        10.4008         0.0063        66.5269       120.5209        97.2474         5.5747        17.0080         2.6175         6.9769        89.6298     
10833.5000        10.3587         0.0238        68.2761       135.0437       113.1678         5.6886        19.4187         2.6261         8.5512        89.5787     
10834.0000        10.1464         0.0312        72.6779       149.0692       124.1675         5.7836        23.0960         2.6344        10.0303        89.5276     
10834.5000        10.0733         0.0269        77.9593       155.2965       125.6312         5.6615        26.7700         2.6097         9.4883        89.4765     
10835.0000        10.0423         0.0202        83.9624       154.5946       114.1992         5.4763        26.4519         2.5859         8.1285        89.4246     
10835.5000        10.0145         0.0130        86.3295       137.3472       103.4783         5.2812        24.4642         2.5945         7.0483        88.7522     
10836.0000        10.0074         0.0081        82.7059       124.0673        96.7138         5.0761        22.4734         2.6222         7.0361        87.9986     
10836.5000        10.0004         0.0046        79.0747       118.1843        92.4429         4.8630        20.4858         2.6461         7.8036        85.9800     
10837.0000         9.9933         0.0019        76.1554       116.9724        95.8973         4.7446        20.0442         2.6479         7.4038        84.3376     
10837.5000         9.9926        -0.0001        74.5975       120.2143       102.3649         4.6875        20.9108         2.6303         6.8685        83.8203     
10838.0000         9.9920        -0.0001        76.3439       123.9884       106.5523         4.6306        21.4518         2.6189         6.3513        83.3039     
10838.5000         9.9893         0.0017        78.0972       126.3437       110.3870         4.5995        21.7743         2.6126         6.0467        83.2167     
10839.0000         9.9771         0.0079        79.8533       128.7027       114.0492         4.5978        22.0963         2.6041         5.9896        84.1194     
10839.5000         9.9649         0.0191        81.6059       131.0579       114.8419         4.5962        22.8269         2.6053         6.1978        85.1938     
10840.0000         9.9527         0.0180        81.6353       133.4132       112.2790         4.6184        23.5683         2.6007         6.6932        85.7837     
10840.5000         9.9487         0.0119        80.3317       132.8087       113.5879         4.6654        24.7677         2.5825         7.2250        85.4166     
10841.0000         9.9481         0.0157        82.2028       132.9674       121.4381         4.7227        26.7134         2.5612         7.6835        85.0462     
10841.5000         9.9475         0.0236        84.4774       138.7112       127.1481         4.9157        28.6601         2.5142         7.3974        84.7243     
10842.0000         9.9468         0.0365        86.7520       144.4625       132.3830         5.1504        30.0964         2.5143         7.1106        84.6386     
10842.5000         9.9462         0.0147        88.9898       149.7418       131.8113         5.3853        31.3078         2.4933         7.2742        84.5868     
10843.0000         9.9321        -0.0102        91.0653       150.9446       132.4563         5.6205        32.5414         2.4702         7.9560        84.5350     
10843.5000         9.9085        -0.0158        93.1427       152.4849       133.6923         5.8560        33.7401         2.4411         8.6390        84.4833     
10844.0000         9.8850        -0.0165        94.3214       153.0253       134.2889         6.0910        34.6839         2.4119         9.3662        84.6100     
10844.5000         9.8615        -0.0133        95.2250       152.6507       135.7122         6.4464        35.6267         2.4220        10.1351        84.9015     
10845.0000         9.8379        -0.0036        96.1035       153.4044       134.9023         6.9439        35.1448         2.4343        10.9054        85.0439     
10845.5000         9.8144        -0.0014        96.9281       153.9324       133.5860         7.4423        34.1572         2.4285        11.5874        85.0368     
10846.0000         9.7909        -0.0001        97.5041       153.5919       133.5739         7.9397        33.1695         2.4170        12.2261        85.0295     
10846.5000         9.7674         0.0007        98.0335       155.5396       135.0150         8.4367        33.0488         2.4077        12.8000        85.0278     
10847.0000         9.7438         0.0011        98.5630       160.2234       135.2846         8.9346        33.7217         2.4102        13.6610        85.0381     
10847.5000         9.7226         0.0014        99.1423       161.7094       133.8000         9.3225        34.3935         2.4138        15.8704        85.0485     
10848.0000         9.7017         0.0014        99.7960       160.8918       132.4072         9.6224        35.0654         2.4089        18.0766        85.0589     
10848.5000         9.6809        -0.0017       100.4498       159.5606       132.7157         9.9222        35.4793         2.3836        20.0880        85.0693     
10849.0000         9.6601        -0.0050       101.2250       157.8902       133.0320        10.2218        34.2686         2.3681        20.0672        85.0796     
10849.5000         9.6423         0.0010       102.0783       156.2197       131.5968        10.5955        33.0493         2.3704        18.7086        85.0900     
10850.0000         9.6249         0.0000       101.9723       154.1306       129.6187        11.0864        31.8320         2.3782        18.6418        85.1004     
10850.5000         9.6075        -0.0028       100.8345       152.0347       129.8277        11.5778        30.7226         2.3845        19.0729        85.1107     
10851.0000         9.5902         0.0000        99.6966       153.0306       131.3485        12.0454        31.6226         2.3886        20.0225        85.1211     
10851.5000         9.5732         0.0048        98.5587       156.3849       134.5180        12.3022        32.5332         2.4088        20.9730        85.1315     
10852.0000         9.5600         0.0026        97.9987       159.7445       137.2570        12.1521        33.1987         2.4154        21.5556        85.1421     
10852.5000         9.5469        -0.0002        98.0993       162.1839       139.5411        11.8102        32.3537         2.4181        24.3095        85.3446     
10853.0000         9.5337        -0.0020        98.0176       162.8577       137.5125        11.5050        31.5045         2.4277        27.1898        85.5653     
10853.5000         9.5205         0.0006        97.5546       158.0777       135.1903        11.2562        30.6541         2.4454        24.8012        85.7860     
10854.0000         9.5087         0.0032        97.0902       153.2747       131.0154        11.0366        30.2083         2.4430        18.1562        85.9667     
10854.5000         9.5000         0.0005        96.6266       148.9466       128.8528        10.9044        30.9207         2.4301        16.4216        86.0839     
10855.0000         9.4913        -0.0047        96.7780       146.9884       128.9916        10.7726        31.6354         2.4137        15.4529        86.2006     
10855.5000         9.4821        -0.0099        97.5367       148.2041       133.2309        10.6733        32.3513         2.3855        15.3537        86.3174     
10856.0000         9.4728        -0.0077        97.9578       150.6754       137.6345        10.8191        33.0660         2.3762        17.5852        86.4341     
