~Version Information Section
VERS.          2.0                                     : CWLS LOG ASCII Standard
WRAP.          NO                                      : One line per depth step
CREA.          03/06/17                                : LAS Creation Date
~Well Information Section
STRT.ft        493.0000                                : Start Depth
STOP.ft        11890.0000                              : Stop Depth
STEP.ft        0.5000                                  : Step
NULL.          -999.2500                               : Null Value
COMP.          TEXACO PRODUCTION SERVICES LTD.         : Company
WELL.          14/20-7                                 : Well
FLD .          SAIL SOUTH, MORAY FIRTH                 : Field
LOC .          NORTH SEA                               : Location
LOC1.          -                                       : Location (UTM)
CTRY.          UK                                      : Country
PROV.          UKCS                                    : Province
UWI .          864                                     : UWI Number
API .          -                                       : API Number
SECT.          -                                       : Section
TOWN.          -                                       : Township
RNGE.          -                                       : Range
PDAT.          MSL                                     : Perm Datum
EPD .ft        0.0                                     : Elevation
LMF .          KB                                      : Log Measured From
DMF .          KB                                      : Drill Measured From
APD .ft        88.0                                    : Above Perm Datum
EKB .ft        88.0                                    : Elev-Kelly Bushing
EDF .ft        83.0                                    : Elev-Drill Floor
EGL .ft        -445.0                                  : Elev-Ground Level (Water Depth)
TDD .ft        11875.0                                 : Total Depth (Driller)
TDL .ft        11895.0                                 : Total Depth (Logger)
SRVC.          SCHLUMBERGER                            : Service Company
LATI.          58 23 01.71" N                          : Latitude
LONG.          00 02 27.26" W                          : Longitude
DATE.          APR-JUN-1976                            : Logging Date
PROJ.          UKCS                                    : Project
SET .          COMP_WIRE                               : Set
~Curve Information Section
DEPTH.ft                                               : Depth Curve
CALD.in                                                : Caliper (from FDC/CNL/GR)
DRHO.g/cc                                              : Delta Rho
DT.us/ft                                               : Delta-T
GR.gAPI                                                : Gamma Ray (from ISF/BHC/GR)
GRD.gAPI                                               : Gamma Ray (from FDC/CNL/GR)
ILD.Ohmm                                               : Deep Induction Standard Processed Resistivity
NPHI.LPU                                               : Neutron Porosity
RHOB.g/cc                                              : Bulk Density
SFL.Ohmm                                               : Spherically Focussed Log
SP.mV                                                  : Spontaneous Potential
~ASCII Log Data Section
# ...
 6177.0000      -999.2500      -999.2500        99.9664        26.9795      -999.2500         0.5009      -999.2500      -999.2500         0.6873        35.4365     
 6177.5000      -999.2500      -999.2500        99.9667        28.5452      -999.2500         0.5005      -999.2500      -999.2500         0.6895        35.2328     
 6178.0000      -999.2500      -999.2500       100.5996        30.1109      -999.2500         0.4964      -999.2500      -999.2500         0.6917        35.4677     
 6178.5000      -999.2500      -999.2500       101.9078        30.3232      -999.2500         0.4923      -999.2500      -999.2500         0.6926        35.7027     
 6179.0000      -999.2500      -999.2500       102.7021        30.5088      -999.2500         0.4882      -999.2500      -999.2500         0.6841        35.9376     
 6179.5000      -999.2500      -999.2500       102.8177        29.8877      -999.2500         0.4841      -999.2500      -999.2500         0.6730        36.1726     
 6180.0000      -999.2500      -999.2500       102.0915        29.1051      -999.2500         0.4840      -999.2500      -999.2500         0.6772        36.4075     
 6180.5000      -999.2500      -999.2500        99.8285        28.4996      -999.2500         0.4840      -999.2500      -999.2500         0.6907        36.5173     
 6181.0000      -999.2500      -999.2500        98.8346        28.0567      -999.2500         0.4839      -999.2500      -999.2500         0.7041        36.5162     
 6181.5000      -999.2500      -999.2500       100.0959        27.7111      -999.2500         0.4830      -999.2500      -999.2500         0.7086        36.5151     
 6182.0000      -999.2500      -999.2500       101.3569        27.4063      -999.2500         0.4815      -999.2500      -999.2500         0.7112        36.5140     
 6182.5000      -999.2500      -999.2500       102.6190        27.5308      -999.2500         0.4801      -999.2500      -999.2500         0.7082        36.5128     
 6183.0000      -999.2500      -999.2500       102.0660        28.4385      -999.2500         0.4772      -999.2500      -999.2500         0.6952        36.5117     
 6183.5000      -999.2500      -999.2500       102.0953        29.3469      -999.2500         0.4730      -999.2500      -999.2500         0.6990        36.5106     
 6184.0000      -999.2500      -999.2500       103.0267        28.3072      -999.2500         0.4688      -999.2500      -999.2500         0.7133        36.5095     
 6184.5000      -999.2500      -999.2500       103.9581        26.5938      -999.2500         0.4647      -999.2500      -999.2500         0.6972        36.5013     
 6185.0000      -999.2500      -999.2500       104.8902        25.9388      -999.2500         0.4608      -999.2500      -999.2500         0.6812        36.4737     
 6185.5000      -999.2500      -999.2500       103.9026        26.5465      -999.2500         0.4569      -999.2500      -999.2500         0.6778        36.4462     
 6186.0000      -999.2500      -999.2500       102.8867        27.2350      -999.2500         0.4536      -999.2500      -999.2500         0.6841        36.4187     
 6186.5000      -999.2500      -999.2500       102.3736        27.9411      -999.2500         0.4560      -999.2500      -999.2500         0.6981        36.3911     
 6187.0000      -999.2500      -999.2500       101.2022        28.4218      -999.2500         0.4584      -999.2500      -999.2500         0.7059        36.3636     
 6187.5000      -999.2500      -999.2500       101.4815        28.6481      -999.2500         0.4608      -999.2500      -999.2500         0.6805        36.3361     
 6188.0000      -999.2500      -999.2500       101.4112        28.8747      -999.2500         0.4706      -999.2500      -999.2500         0.6551        36.3085     
 6188.5000      -999.2500      -999.2500        99.1064        29.4856      -999.2500         0.4850      -999.2500      -999.2500         0.6806        36.2385     
 6189.0000      -999.2500      -999.2500        96.7997        29.3530      -999.2500         0.5010      -999.2500      -999.2500         0.7201        36.1474     
 6189.5000      -999.2500      -999.2500        96.1854        28.9108      -999.2500         0.5174      -999.2500      -999.2500         0.7597        36.0563     
 6190.0000      -999.2500      -999.2500        97.3700        28.9096      -999.2500         0.5637      -999.2500      -999.2500         0.7584        35.9652     
 6190.5000      -999.2500      -999.2500        98.4420        28.3850      -999.2500         0.6169      -999.2500      -999.2500         0.7341        35.9142     
 6191.0000      -999.2500      -999.2500        93.3315        28.1778      -999.2500         0.6732      -999.2500      -999.2500         0.7097        36.0141     
 6191.5000      -999.2500      -999.2500        84.0608        28.3477      -999.2500         0.7459      -999.2500      -999.2500         0.7443        36.1142     
 6192.0000      -999.2500      -999.2500        74.7139        29.1542      -999.2500         0.8081      -999.2500      -999.2500         0.8769        36.2142     
 6192.5000      -999.2500      -999.2500        66.9783        29.0382      -999.2500         0.8213      -999.2500      -999.2500         1.4715        36.3518     
 6193.0000      -999.2500      -999.2500        63.6906        28.2082      -999.2500         0.8239      -999.2500      -999.2500         2.6874        36.6060     
 6193.5000      -999.2500      -999.2500        74.9766        27.3775      -999.2500         0.7711      -999.2500      -999.2500         2.1294        36.8605     
 6194.0000      -999.2500      -999.2500        86.2616        26.5475      -999.2500         0.7183      -999.2500      -999.2500         1.0227        37.0593     
 6194.5000      -999.2500      -999.2500        94.1481        27.2312      -999.2500         0.6650      -999.2500      -999.2500         0.8481        36.7726     
 6195.0000      -999.2500      -999.2500       101.4661        28.0207      -999.2500         0.6116      -999.2500      -999.2500         0.7830        36.4858     
 6195.5000      -999.2500      -999.2500       104.6906        28.8108      -999.2500         0.5545      -999.2500      -999.2500         0.7180        36.2292     
 6196.0000      -999.2500      -999.2500       105.0915        29.5607      -999.2500         0.4972      -999.2500      -999.2500         0.6883        36.0460     
 6196.5000      -999.2500      -999.2500       106.2995        30.0451      -999.2500         0.4506      -999.2500      -999.2500         0.6622        35.8626     
 6197.0000      -999.2500      -999.2500       105.1739        30.2399      -999.2500         0.4298      -999.2500      -999.2500         0.6406        35.6796     
 6197.5000      -999.2500      -999.2500       106.0580        30.1174      -999.2500         0.4203      -999.2500      -999.2500         0.6313        35.8485     
 6198.0000      -999.2500      -999.2500       104.9707        30.8634      -999.2500         0.4191      -999.2500      -999.2500         0.6220        36.2016     
 6198.5000      -999.2500      -999.2500       102.5935        31.7943      -999.2500         0.4229      -999.2500      -999.2500         0.6144        36.5903     
 6199.0000      -999.2500      -999.2500       102.5050        31.9897      -999.2500         0.4278      -999.2500      -999.2500         0.6185        36.9793     
 6199.5000      -999.2500      -999.2500       102.4482        31.8266      -999.2500         0.4333      -999.2500      -999.2500         0.6226        37.3680     
 6200.0000      -999.2500      -999.2500       102.3913        31.6442      -999.2500         0.4388      -999.2500      -999.2500         0.6268        37.6255     
 6200.5000      -999.2500      -999.2500       102.2098        31.3828      -999.2500         0.4443      -999.2500      -999.2500         0.6309        37.3731     
 6201.0000      -999.2500      -999.2500       101.9102        31.1212      -999.2500         0.4498      -999.2500      -999.2500         0.6278        37.1206     
