~Version Information Section
VERS.          2.0                                     : CWLS LOG ASCII Standard
WRAP.          NO                                      : One line per depth step
CREA.          03/06/17                                : LAS Creation Date
~Well Information Section
STRT.ft        493.0000                                : Start Depth
STOP.ft        11890.0000                              : Stop Depth
STEP.ft        0.5000                                  : Step
NULL.          -999.2500                               : Null Value
COMP.          TEXACO PRODUCTION SERVICES LTD.         : Company
WELL.          14/20-7                                 : Well
FLD .          SAIL SOUTH, MORAY FIRTH                 : Field
LOC .          NORTH SEA                               : Location
LOC1.          -                                       : Location (UTM)
CTRY.          UK                                      : Country
PROV.          UKCS                                    : Province
UWI .          864                                     : UWI Number
API .          -                                       : API Number
SECT.          -                                       : Section
TOWN.          -                                       : Township
RNGE.          -                                       : Range
PDAT.          MSL                                     : Perm Datum
EPD .ft        0.0                                     : Elevation
LMF .          KB                                      : Log Measured From
DMF .          KB                                      : Drill Measured From
APD .ft        88.0                                    : Above Perm Datum
EKB .ft        88.0                                    : Elev-Kelly Bushing
EDF .ft        83.0                                    : Elev-Drill Floor
EGL .ft        -445.0                                  : Elev-Ground Level (Water Depth)
TDD .ft        11875.0                                 : Total Depth (Driller)
TDL .ft        11895.0                                 : Total Depth (Logger)
SRVC.          SCHLUMBERGER                            : Service Company
LATI.          58 23 01.71" N                          : Latitude
LONG.          00 02 27.26" W                          : Longitude
DATE.          APR-JUN-1976                            : Logging Date
PROJ.          UKCS                                    : Project
SET .          COMP_WIRE                               : Set
~Curve Information Section
DEPTH.ft                                               : Depth Curve
CALD.in                                                : Caliper (from FDC/CNL/GR)
DRHO.g/cc                                              : Delta Rho
DT.us/ft                                               : Delta-T
GR.gAPI                                                : Gamma Ray (from ISF/BHC/GR)
GRD.gAPI                                               : Gamma Ray (from FDC/CNL/GR)
ILD.Ohmm                                               : Deep Induction Standard Processed Resistivity
NPHI.LPU                                               : Neutron Porosity
RHOB.g/cc                                              : Bulk Density
SFL.Ohmm                                               : Spherically Focussed Log
SP.mV                                                  : Spontaneous Potential
~ASCII Log Data Section
# ...
 7720.5000      -999.2500      -999.2500        71.9122        19.3040      -999.2500         5.7297      -999.2500      -999.2500         5.7284        69.7566     
 7721.0000      -999.2500      -999.2500        72.1897        20.8574      -999.2500         5.6281      -999.2500      -999.2500         5.5943        69.7972     
 7721.5000      -999.2500      -999.2500        74.7277        21.1476      -999.2500         5.5261      -999.2500      -999.2500         6.0204        69.8378     
 7722.0000      -999.2500      -999.2500        73.3536        22.1484      -999.2500         5.4239      -999.2500      -999.2500         5.9295        69.8783     
 7722.5000      -999.2500      -999.2500        73.0740        22.7503      -999.2500         5.3339      -999.2500      -999.2500         4.8959        69.9189     
 7723.0000      -999.2500      -999.2500        70.9068        22.8476      -999.2500         5.2505      -999.2500      -999.2500         4.8963        69.9595     
 7723.5000      -999.2500      -999.2500        69.8993        21.9291      -999.2500         5.2286      -999.2500      -999.2500         5.1240        70.0000     
 7724.0000      -999.2500      -999.2500        69.3363        20.8014      -999.2500         5.3748      -999.2500      -999.2500         5.3520        70.0406     
 7724.5000      -999.2500      -999.2500        68.7733        19.6971      -999.2500         5.6052      -999.2500      -999.2500         6.6155        70.0811     
 7725.0000      -999.2500      -999.2500        68.2095        19.6360      -999.2500         5.7316      -999.2500      -999.2500         8.5942        70.1218     
 7725.5000      -999.2500      -999.2500        68.9510        19.9013      -999.2500         5.8282      -999.2500      -999.2500         8.1957        70.1623     
 7726.0000      -999.2500      -999.2500        69.9068        20.0517      -999.2500         5.8975      -999.2500      -999.2500         5.8244        70.1931     
 7726.5000      -999.2500      -999.2500        70.7597        20.0241      -999.2500         5.8199      -999.2500      -999.2500         5.9256        70.1484     
 7727.0000      -999.2500      -999.2500        71.5337        19.7572      -999.2500         5.7142      -999.2500      -999.2500         6.6447        70.0882     
 7727.5000      -999.2500      -999.2500        71.8830        20.8021      -999.2500         5.5419      -999.2500      -999.2500         5.3133        70.0281     
 7728.0000      -999.2500      -999.2500        72.0985        21.8612      -999.2500         5.3539      -999.2500      -999.2500         5.5709        69.9680     
 7728.5000      -999.2500      -999.2500        72.4505        22.4727      -999.2500         5.2159      -999.2500      -999.2500         6.4757        69.9079     
 7729.0000      -999.2500      -999.2500        72.5658        22.6110      -999.2500         5.0995      -999.2500      -999.2500         6.8324        69.8478     
 7729.5000      -999.2500      -999.2500        72.1180        22.4690      -999.2500         5.0944      -999.2500      -999.2500         5.5708        69.7876     
 7730.0000      -999.2500      -999.2500        72.3302        22.3273      -999.2500         5.1412      -999.2500      -999.2500         5.2595        69.7275     
 7730.5000      -999.2500      -999.2500        74.2445        22.1856      -999.2500         5.2215      -999.2500      -999.2500         5.5775        69.6674     
 7731.0000      -999.2500      -999.2500        72.1715        21.5498      -999.2500         5.2169      -999.2500      -999.2500         4.8743        69.7356     
 7731.5000      -999.2500      -999.2500        70.6023        20.4151      -999.2500         5.1153      -999.2500      -999.2500         5.7775        69.8628     
 7732.0000      -999.2500      -999.2500        71.3716        19.0724      -999.2500         5.0175      -999.2500      -999.2500         7.5847        69.9898     
 7732.5000      -999.2500      -999.2500        71.8512        17.6154      -999.2500         4.9346      -999.2500      -999.2500         7.3387        70.1168     
 7733.0000      -999.2500      -999.2500        71.8455        19.3260      -999.2500         4.9467      -999.2500      -999.2500         5.7759        70.2438     
 7733.5000      -999.2500      -999.2500        73.0192        21.0488      -999.2500         5.0491      -999.2500      -999.2500         5.2068        70.2835     
 7734.0000      -999.2500      -999.2500        73.5352        22.0437      -999.2500         5.0644      -999.2500      -999.2500         5.5019        70.2887     
 7734.5000      -999.2500      -999.2500        72.3181        21.9810      -999.2500         5.0332      -999.2500      -999.2500         4.6354        70.2940     
 7735.0000      -999.2500      -999.2500        72.4772        21.3035      -999.2500         4.9286      -999.2500      -999.2500         4.7232        70.2992     
 7735.5000      -999.2500      -999.2500        74.1224        20.1124      -999.2500         4.8163      -999.2500      -999.2500         5.6512        70.3045     
 7736.0000      -999.2500      -999.2500        73.3497        20.7299      -999.2500         4.7657      -999.2500      -999.2500         4.5251        70.3097     
 7736.5000      -999.2500      -999.2500        73.1790        22.5255      -999.2500         4.7294      -999.2500      -999.2500         4.4976        70.3150     
 7737.0000      -999.2500      -999.2500        74.0686        23.4875      -999.2500         4.7273      -999.2500      -999.2500         5.7094        70.3202     
 7737.5000      -999.2500      -999.2500        73.2173        24.2480      -999.2500         4.7286      -999.2500      -999.2500         5.9032        70.3254     
 7738.0000      -999.2500      -999.2500        73.0218        25.0134      -999.2500         4.7298      -999.2500      -999.2500         4.9213        70.3307     
 7738.5000      -999.2500      -999.2500        73.4849        24.3477      -999.2500         4.7418      -999.2500      -999.2500         4.6221        70.3359     
 7739.0000      -999.2500      -999.2500        73.1744        22.7668      -999.2500         4.8318      -999.2500      -999.2500         4.9862        70.3412     
 7739.5000      -999.2500      -999.2500        71.5832        20.5140      -999.2500         4.9375      -999.2500      -999.2500         4.7178        70.3464     
 7740.0000      -999.2500      -999.2500        72.0411        20.5888      -999.2500         5.0434      -999.2500      -999.2500         4.8731        70.4403     
 7740.5000      -999.2500      -999.2500        72.5016        20.5930      -999.2500         5.1701      -999.2500      -999.2500         5.0777        70.6280     
 7741.0000      -999.2500      -999.2500        70.8657        20.2062      -999.2500         5.3198      -999.2500      -999.2500         5.3200        70.8158     
 7741.5000      -999.2500      -999.2500        69.7618        19.5750      -999.2500         5.4696      -999.2500      -999.2500         5.5244        70.9290     
 7742.0000      -999.2500      -999.2500        69.8354        18.8937      -999.2500         5.6053      -999.2500      -999.2500         5.6319        70.7616     
 7742.5000      -999.2500      -999.2500        69.9095        19.3496      -999.2500         5.7266      -999.2500      -999.2500         5.7264        70.5815     
 7743.0000      -999.2500      -999.2500        69.3475        20.1012      -999.2500         5.8448      -999.2500      -999.2500         5.7929        70.4016     
 7743.5000      -999.2500      -999.2500        68.7338        19.7674      -999.2500         5.9276      -999.2500      -999.2500         5.9039        70.2218     
 7744.0000      -999.2500      -999.2500        68.3795        18.2106      -999.2500         5.9997      -999.2500      -999.2500         6.0384        70.0420     
 7744.5000      -999.2500      -999.2500        68.1902        18.2092      -999.2500         6.0717      -999.2500      -999.2500         6.1401        70.0526     
