~Version Information Section
VERS.          2.0                                     : CWLS LOG ASCII Standard
WRAP.          NO                                      : One line per depth step
CREA.          03/06/17                                : LAS Creation Date
~Well Information Section
STRT.ft        493.0000                                : Start Depth
STOP.ft        11890.0000                              : Stop Depth
STEP.ft        0.5000                                  : Step
NULL.          -999.2500                               : Null Value
COMP.          TEXACO PRODUCTION SERVICES LTD.         : Company
WELL.          14/20-7                                 : Well
FLD .          SAIL SOUTH, MORAY FIRTH                 : Field
LOC .          NORTH SEA                               : Location
LOC1.          -                                       : Location (UTM)
CTRY.          UK                                      : Country
PROV.          UKCS                                    : Province
UWI .          864                                     : UWI Number
API .          -                                       : API Number
SECT.          -                                       : Section
TOWN.          -                                       : Township
RNGE.          -                                       : Range
PDAT.          MSL                                     : Perm Datum
EPD .ft        0.0                                     : Elevation
LMF .          KB                                      : Log Measured From
DMF .          KB                                      : Drill Measured From
APD .ft        88.0                                    : Above Perm Datum
EKB .ft        88.0                                    : Elev-Kelly Bushing
EDF .ft        83.0                                    : Elev-Drill Floor
EGL .ft        -445.0                                  : Elev-Ground Level (Water Depth)
TDD .ft        11875.0                                 : Total Depth (Driller)
TDL .ft        11895.0                                 : Total Depth (Logger)
SRVC.          SCHLUMBERGER                            : Service Company
LATI.          58 23 01.71" N                          : Latitude
LONG.          00 02 27.26" W                          : Longitude
DATE.          APR-JUN-1976                            : Logging Date
PROJ.          UKCS                                    : Project
SET .          COMP_WIRE                               : Set
~Curve Information Section
DEPTH.ft                                               : Depth Curve
CALD.in                                                : Caliper (from FDC/CNL/GR)
DRHO.g/cc                                              : Delta Rho
DT.us/ft                                               : Delta-T
GR.gAPI                                                : Gamma Ray (from ISF/BHC/GR)
GRD.gAPI                                               : Gamma Ray (from FDC/CNL/GR)
ILD.Ohmm                                               : Deep Induction Standard Processed Resistivity
NPHI.LPU                                               : Neutron Porosity
RHOB.g/cc                                              : Bulk Density
SFL.Ohmm                                               : Spherically Focussed Log
SP.mV                                                  : Spontaneous Potential
~ASCII Log Data Section
# ...
11346.5000         9.2984         0.1257        73.8631       110.0838        97.2337         3.7513        23.5383         2.4869         4.8060        94.3857     
11347.0000         9.1657         0.1329        74.2961       110.6882        95.1663         3.6733        24.7146         2.4540         4.3127        94.2875     
11347.5000         9.0738         0.1519        74.9028       113.5512        94.8446         3.6694        25.2021         2.4337         3.8199        94.4094     
11348.0000         9.2070         0.1419        76.8147       116.2911        94.9175         3.7438        25.1409         2.4033         3.4368        94.5404     
11348.5000         9.3629         0.1303        77.9846       115.5135        94.6572         3.8102        25.6583         2.3932         3.5996        94.6643     
11349.0000         9.5182         0.1209        78.0423       113.6586        93.4265         3.8642        26.1210         2.4048         4.0683        94.7475     
11349.5000         9.6481         0.1290        78.8516       110.9496        91.7827         3.9607        25.3054         2.4727         4.4159        94.8241     
11350.0000         9.4225         0.1199        77.1885       107.3212        88.3108         4.0327        23.9488         2.5590         4.7212        94.9009     
11350.5000         9.2446         0.1044        75.0480       107.3811        86.8982         4.1165        22.5879         2.6009         4.7535        94.9776     
11351.0000         9.1904         0.0906        74.1930       106.3889        89.8288         4.2858        21.3112         2.6131         4.4406        95.0544     
11351.5000         9.1694         0.0801        73.6180       105.5534        91.2313         4.3979        20.7498         2.6045         4.2053        94.9873     
11352.0000         9.1633         0.0689        73.2522       106.0108        91.3321         4.4379        20.7947         2.5851         4.3441        94.7956     
11352.5000         9.1571         0.0823        74.1342       104.3896        91.5161         4.4778        21.3573         2.5649         4.4767        94.6036     
11353.0000         9.1570         0.1383        74.9572       102.5388        91.3474         4.4791        21.7258         2.5907         4.5049        94.4117     
11353.5000         9.1650         0.1732        74.4179       105.3388        91.3133         4.4074        20.8423         2.5995         4.4917        94.3799     
11354.0000         9.1786         0.1647        74.6874       108.4267        92.0918         4.3356        20.6306         2.5821         4.2817        94.5938     
11354.5000         9.2500         0.1382        75.4483       110.9532        94.0015         4.1905        20.4200         2.5434         4.0262        94.8083     
11355.0000         9.3565         0.1174        76.2093       112.6028        96.9817         3.9974        20.3424         2.5372         3.9731        95.0224     
11355.5000         9.5113         0.1067        76.9715       114.2541        99.4753         3.8722        21.1072         2.5441         4.0423        95.0828     
11356.0000         9.7780         0.1180        77.3041       115.5717        99.7194         3.7649        21.6074         2.5555         4.0914        95.0281     
11356.5000         9.9192         0.1386        77.3125       115.5767        99.4805         3.7358        21.5944         2.5912         4.3400        94.9732     
11357.0000         9.9254         0.1563        76.8248       114.2961        99.1264         3.7242        21.9395         2.6077         4.6190        94.9183     
11357.5000         9.9314         0.1508        76.9312       111.9251        99.2893         3.7176        22.3866         2.6059         4.5664        94.8633     
11358.0000         9.9374         0.1483        77.2387       110.0447        98.6251         3.7323        22.8290         2.6003         4.3106        94.8084     
11358.5000         9.9434         0.1578        76.6521       108.7964        98.7988         3.7442        23.2052         2.6068         4.0545        94.7536     
11359.0000         9.9495         0.1617        77.4923       111.0785        99.5036         3.7220        23.4749         2.5947         3.9375        94.4169     
11359.5000         9.9555         0.1500        78.3368       113.3656        99.7341         3.6929        23.1886         2.5552         4.0599        93.8972     
11360.0000         9.9615         0.1448        78.5803       115.6563       100.1536         3.6598        22.1839         2.5491         3.9738        93.6778     
11360.5000         9.9675         0.1547        78.7793       117.4093       100.4682         3.6246        21.3935         2.5469         3.7271        94.1835     
11361.0000         9.9735         0.1646        78.4687       116.4123       102.7770         3.5910        22.1790         2.5689         3.7698        94.4589     
11361.5000        10.0990         0.1613        78.2647       113.9335       102.2560         3.5837        22.4067         2.5744         3.9276        94.1794     
11362.0000         9.9873         0.1434        78.8710       111.7081        99.9511         3.5967        21.8720         2.5631         4.0304        93.8978     
11362.5000        10.0200         0.1336        78.2529       110.0996        99.9148         3.6585        21.3369         2.5727         3.9831        93.6162     
11363.0000        10.0635         0.1390        77.3696       108.6982        99.6981         3.7253        20.8016         2.5762         3.9486        93.3350     
11363.5000        10.0785         0.1444        78.5475       108.3233        99.1443         3.8140        20.7352         2.5833         4.0159        93.2187     
11364.0000        10.1196         0.1438        77.5263       107.9623        95.6131         3.9059        20.4839         2.5723         4.1006        93.4419     
11364.5000        10.2702         0.1407        76.5012       108.2080        93.3196         3.8988        19.7340         2.5394         4.1853        93.6657     
11365.0000        10.4810         0.1630        76.5208       108.4547        93.4198         3.8458        19.1282         2.5362         4.2743        93.8884     
11365.5000        10.4006         0.1645        76.7206       109.3135        94.7551         3.7927        18.8329         2.5261         4.1167        94.0364     
11366.0000        10.3138         0.1325        76.7423       109.7070        97.0885         3.7404        18.5473         2.5107         3.8765        94.1452     
11366.5000        10.3883         0.1318        76.7574       109.2830        98.6534         3.7253        18.9459         2.5178         3.8757        94.2540     
11367.0000        10.4292         0.1420        76.8351       111.3299       100.0688         3.7259        19.7036         2.5299         3.7120        94.3412     
11367.5000        10.4064         0.1258        76.9129       110.9291        98.7933         3.7318        20.4171         2.5299         3.5320        94.1465     
11368.0000        10.3840         0.1272        76.7993       111.5742        99.5148         3.7545        20.8088         2.5578         3.5343        93.8724     
11368.5000        10.3768         0.1230        78.7849       112.6123        99.7471         3.7773        21.1413         2.5800         3.6444        93.5984     
11369.0000        10.3767         0.1023        78.2531       112.0944        99.7290         3.7921        21.1416         2.6034         3.6803        93.4419     
11369.5000        10.3751         0.0761        77.7188       111.5741        98.7248         3.7636        20.9000         2.6096         3.6565        93.7290     
11370.0000        10.3321         0.0500        76.9854       113.0108        95.6945         3.7276        20.2080         2.5972         3.5663        94.0175     
11370.5000        10.2712         0.0624        76.1336       115.2137        93.6909         3.6566        19.8098         2.6093         3.7095        94.1980     
