~Version Information Section
VERS.          2.0                                     : CWLS LOG ASCII Standard
WRAP.          NO                                      : One line per depth step
CREA.          03/06/17                                : LAS Creation Date
~Well Information Section
STRT.ft        493.0000                                : Start Depth
STOP.ft        11890.0000                              : Stop Depth
STEP.ft        0.5000                                  : Step
NULL.          -999.2500                               : Null Value
COMP.          TEXACO PRODUCTION SERVICES LTD.         : Company
WELL.          14/20-7                                 : Well
FLD .          SAIL SOUTH, MORAY FIRTH                 : Field
LOC .          NORTH SEA                               : Location
LOC1.          -                                       : Location (UTM)
CTRY.          UK                                      : Country
PROV.          UKCS                                    : Province
UWI .          864                                     : UWI Number
API .          -                                       : API Number
SECT.          -                                       : Section
TOWN.          -                                       : Township
RNGE.          -                                       : Range
PDAT.          MSL                                     : Perm Datum
EPD .ft        0.0                                     : Elevation
LMF .          KB                                      : Log Measured From
DMF .          KB                                      : Drill Measured From
APD .ft        88.0                                    : Above Perm Datum
EKB .ft        88.0                                    : Elev-Kelly Bushing
EDF .ft        83.0                                    : Elev-Drill Floor
EGL .ft        -445.0                                  : Elev-Ground Level (Water Depth)
TDD .ft        11875.0                                 : Total Depth (Driller)
TDL .ft        11895.0                                 : Total Depth (Logger)
SRVC.          SCHLUMBERGER                            : Service Company
LATI.          58 23 01.71" N                          : Latitude
LONG.          00 02 27.26" W                          : Longitude
DATE.          APR-JUN-1976                            : Logging Date
PROJ.          UKCS                                    : Project
SET .          COMP_WIRE                               : Set
~Curve Information Section
DEPTH.ft                                               : Depth Curve
CALD.in                                                : Caliper (from FDC/CNL/GR)
DRHO.g/cc                                              : Delta Rho
DT.us/ft                                               : Delta-T
GR.gAPI                                                : Gamma Ray (from ISF/BHC/GR)
GRD.gAPI                                               : Gamma Ray (from FDC/CNL/GR)
ILD.Ohmm                                               : Deep Induction Standard Processed Resistivity
NPHI.LPU                                               : Neutron Porosity
RHOB.g/cc                                              : Bulk Density
SFL.Ohmm                                               : Spherically Focussed Log
SP.mV                                                  : Spontaneous Potential
~ASCII Log Data Section
# ...
 4609.0000      -999.2500      -999.2500       127.7444        58.0312      -999.2500         1.3453      -999.2500      -999.2500         0.9616        39.0574     
 4609.5000      -999.2500      -999.2500       128.1378        59.7121      -999.2500         1.3489      -999.2500      -999.2500         0.9423        39.0601     
 4610.0000      -999.2500      -999.2500       127.6197        61.3917      -999.2500         1.3525      -999.2500      -999.2500         0.9482        39.0630     
 4610.5000      -999.2500      -999.2500       127.1012        63.0726      -999.2500         1.3565      -999.2500      -999.2500         0.9705        39.3665     
 4611.0000      -999.2500      -999.2500       125.9177        62.1113      -999.2500         1.3604      -999.2500      -999.2500         0.9834        39.3695     
 4611.5000      -999.2500      -999.2500       124.6387        60.6762      -999.2500         1.3643      -999.2500      -999.2500         0.9904        39.3723     
 4612.0000      -999.2500      -999.2500       123.4404        59.2378      -999.2500         1.3834      -999.2500      -999.2500         0.9975        39.2747     
 4612.5000      -999.2500      -999.2500       123.3040        58.1329      -999.2500         1.4030      -999.2500      -999.2500         1.0045        39.1769     
 4613.0000      -999.2500      -999.2500       124.4937        57.6679      -999.2500         1.4044      -999.2500      -999.2500         0.9970        39.0793     
 4613.5000      -999.2500      -999.2500       126.6285        57.3653      -999.2500         1.3688      -999.2500      -999.2500         0.9820        39.0820     
 4614.0000      -999.2500      -999.2500       127.1627        57.7256      -999.2500         1.3332      -999.2500      -999.2500         0.9751        39.0848     
 4614.5000      -999.2500      -999.2500       125.6532        58.0862      -999.2500         1.3050      -999.2500      -999.2500         0.9753        38.6862     
 4615.0000      -999.2500      -999.2500       124.7071        58.6742      -999.2500         1.2781      -999.2500      -999.2500         0.9985        38.5884     
 4615.5000      -999.2500      -999.2500       124.4272        59.6132      -999.2500         1.2552      -999.2500      -999.2500         1.0160        38.4907     
 4616.0000      -999.2500      -999.2500       124.6867        60.4096      -999.2500         1.2472      -999.2500      -999.2500         1.0122        38.4935     
 4616.5000      -999.2500      -999.2500       126.1333        60.7771      -999.2500         1.2391      -999.2500      -999.2500         1.0085        38.6967     
 4617.0000      -999.2500      -999.2500       127.5810        60.6322      -999.2500         1.2460      -999.2500      -999.2500         1.0047        38.7000     
 4617.5000      -999.2500      -999.2500       129.3879        60.1486      -999.2500         1.2746      -999.2500      -999.2500         1.0009        39.1036     
 4618.0000      -999.2500      -999.2500       130.3278        59.6663      -999.2500         1.3032      -999.2500      -999.2500         0.9971        39.1068     
 4618.5000      -999.2500      -999.2500       134.6264        59.1962      -999.2500         1.3319      -999.2500      -999.2500         0.9933        39.3605     
 4619.0000      -999.2500      -999.2500       134.6264        58.7257      -999.2500         1.3605      -999.2500      -999.2500         0.9895        39.7140     
 4619.5000      -999.2500      -999.2500       127.6105        58.2435      -999.2500         1.3873      -999.2500      -999.2500         0.9857        39.7171     
 4620.0000      -999.2500      -999.2500       126.0159        57.6932      -999.2500         1.4136      -999.2500      -999.2500         0.9819        39.7196     
 4620.5000      -999.2500      -999.2500       126.0146        57.3288      -999.2500         1.4399      -999.2500      -999.2500         1.0027        39.5218     
 4621.0000      -999.2500      -999.2500       125.8862        57.3312      -999.2500         1.4558      -999.2500      -999.2500         1.0079        39.3450     
 4621.5000      -999.2500      -999.2500       125.3386        56.9544      -999.2500         1.4693      -999.2500      -999.2500         1.0132        39.1258     
 4622.0000      -999.2500      -999.2500       124.5023        56.2284      -999.2500         1.4827      -999.2500      -999.2500         1.0184        39.1286     
 4622.5000      -999.2500      -999.2500       123.6653        55.5119      -999.2500         1.4962      -999.2500      -999.2500         1.0185        38.9306     
 4623.0000      -999.2500      -999.2500       123.9168        55.0282      -999.2500         1.5097      -999.2500      -999.2500         1.0186        38.9333     
 4623.5000      -999.2500      -999.2500       124.2332        54.9563      -999.2500         1.5044      -999.2500      -999.2500         1.0187        38.9361     
 4624.0000      -999.2500      -999.2500       124.5494        55.5267      -999.2500         1.4909      -999.2500      -999.2500         1.0188        38.9388     
 4624.5000      -999.2500      -999.2500       124.8694        56.0976      -999.2500         1.4774      -999.2500      -999.2500         1.0190        38.9416     
 4625.0000      -999.2500      -999.2500       125.1901        55.5383      -999.2500         1.4638      -999.2500      -999.2500         1.0191        38.7439     
 4625.5000      -999.2500      -999.2500       125.4964        55.0453      -999.2500         1.4503      -999.2500      -999.2500         1.0192        38.7467     
 4626.0000      -999.2500      -999.2500       125.7735        56.0439      -999.2500         1.4367      -999.2500      -999.2500         1.0113        38.9498     
 4626.5000      -999.2500      -999.2500       125.9416        56.6392      -999.2500         1.4210      -999.2500      -999.2500         0.9919        39.2537     
 4627.0000      -999.2500      -999.2500       125.0811        56.2367      -999.2500         1.4047      -999.2500      -999.2500         0.9724        39.3567     
 4627.5000      -999.2500      -999.2500       124.4685        55.3243      -999.2500         1.3883      -999.2500      -999.2500         0.9871        39.5598     
 4628.0000      -999.2500      -999.2500       126.5497        54.6956      -999.2500         1.3821      -999.2500      -999.2500         1.0186        39.5628     
 4628.5000      -999.2500      -999.2500       125.9924        54.3577      -999.2500         1.3822      -999.2500      -999.2500         1.0085        39.5656     
 4629.0000      -999.2500      -999.2500       129.1640        54.3599      -999.2500         1.3824      -999.2500      -999.2500         0.9985        39.6443     
 4629.5000      -999.2500      -999.2500       128.9847        54.3525      -999.2500         1.4043      -999.2500      -999.2500         0.9884        39.5710     
 4630.0000      -999.2500      -999.2500       127.6489        53.6265      -999.2500         1.4269      -999.2500      -999.2500         0.9933        39.5731     
 4630.5000      -999.2500      -999.2500       126.3141        52.6818      -999.2500         1.4126      -999.2500      -999.2500         1.0139        39.1751     
 4631.0000      -999.2500      -999.2500       123.5937        51.3486      -999.2500         1.3794      -999.2500      -999.2500         1.0345        38.9775     
 4631.5000      -999.2500      -999.2500       122.7233        50.1881      -999.2500         1.3562      -999.2500      -999.2500         1.0551        38.9799     
 4632.0000      -999.2500      -999.2500       128.7794        49.1193      -999.2500         1.3516      -999.2500      -999.2500         1.0757        38.9827     
 4632.5000      -999.2500      -999.2500       128.8053        48.4276      -999.2500         1.3471      -999.2500      -999.2500         1.0532        38.9854     
 4633.0000      -999.2500      -999.2500       130.5572        48.9562      -999.2500         1.3497      -999.2500      -999.2500         0.9565        38.9881     
