~Version Information Section
VERS.          2.0                                     : CWLS LOG ASCII Standard
WRAP.          NO                                      : One line per depth step
CREA.          03/08/17                                : LAS Creation Date
~Well Information Section
STRT.ft        521.0000                                : Start Depth
STOP.ft        10547.0000                              : Stop Depth
STEP.ft        0.5000                                  : Step
NULL.          -999.2500                               : Null Value
COMP.          TEXACO PRODUCTION SERVICES LTD.         : Company
WELL.          14/20-8                                 : Well
FLD .          MORAY FIRTH                             : Field
LOC .          NORTH SEA                               : Location
LOC1.          -                                       : Location (UTM)
CTRY.          UK                                      : Country
PROV.          UKCS                                    : Province
UWI .          865                                     : UWI Number
API .          -                                       : API Number
SECT.          -                                       : Section
TOWN.          -                                       : Township
RNGE.          -                                       : Range
PDAT.          MSL                                     : Perm Datum
EPD .ft        0                                       : Elevation
LMF .          KB                                      : Log Measured From
DMF .          KB                                      : Drill Measured From
APD .ft        78.00                                   : Above Perm Datum
EKB .ft        78.00                                   : Elev-Kelly Bushing
EDF .ft        -                                       : Elev-Drill Floor
EGL .ft        -447.00                                 : Elev-Ground Level (Water Depth)
TDD .ft        10560.00                                : Total Depth (Driller)
TDL .ft        -                                       : Total Depth (Logger)
SRVC.          SCHLUMBERGER                            : Service Company
LATI.          58 24 41.3" N                           : Latitude
LONG.          00 06 20.9" W                           : Longitude
DATE.          JUN-AUG-1976                            : Logging Date
PROJ.          UKCS                                    : Project
SET .          COMP_WIRE                               : Set
~Curve Information Section
DEPTH.ft                                               : Depth Curve
CALI.in                                                : Caliper (FDC/CNL/GR)
DRHO.g/cc                                              : Delta Rho
DT.us/ft                                               : Delta T
GR.gAPI                                                : Gamma Ray (ISF/BHC/GR)
GRD.gAPI                                               : Gamma Ray (FDC/CNL/GR)
ILD.Ohmm                                               : Deep Induction Standard Processed Resistivity
NPHI.LPU                                               : Neutron Porosity
RHOB.g/cc                                              : Bulk Density
SFLU.Ohmm                                              : Spherically Focussed Log
SP.mV                                                  : Spontaneous Potential
~ASCII Log Data Section
# ...
 6327.5000      -999.2500      -999.2500       141.5905        36.1961      -999.2500         0.7915      -999.2500      -999.2500         0.5185        24.5818     
 6328.0000      -999.2500      -999.2500       135.9818        35.6995      -999.2500         0.7732      -999.2500      -999.2500         0.5343        23.9943     
 6328.5000      -999.2500      -999.2500       128.5133        35.4136      -999.2500         0.7550      -999.2500      -999.2500         0.5451        23.2737     
 6329.0000      -999.2500      -999.2500       121.4342        35.5000      -999.2500         0.7388      -999.2500      -999.2500         0.5539        22.5525     
 6329.5000      -999.2500      -999.2500       122.0555        34.7748      -999.2500         0.7232      -999.2500      -999.2500         0.5579        21.7551     
 6330.0000      -999.2500      -999.2500       126.6056        34.5729      -999.2500         0.7073      -999.2500      -999.2500         0.5497        20.9231     
 6330.5000      -999.2500      -999.2500       130.3486        34.8726      -999.2500         0.6912      -999.2500      -999.2500         0.5421        20.4572     
 6331.0000      -999.2500      -999.2500       131.1852        34.9245      -999.2500         0.6778      -999.2500      -999.2500         0.5367        20.3133     
 6331.5000      -999.2500      -999.2500       123.5390        34.6859      -999.2500         0.6664      -999.2500      -999.2500         0.5320        19.7126     
 6332.0000      -999.2500      -999.2500       117.6991        34.5212      -999.2500         0.6555      -999.2500      -999.2500         0.5284        18.9057     
 6332.5000      -999.2500      -999.2500       114.9761        33.0529      -999.2500         0.6448      -999.2500      -999.2500         0.5248        18.0050     
 6333.0000      -999.2500      -999.2500       113.1036        31.3303      -999.2500         0.6397      -999.2500      -999.2500         0.5271        17.2633     
 6333.5000      -999.2500      -999.2500       112.2036        31.2416      -999.2500         0.6560      -999.2500      -999.2500         0.5317        16.8089     
 6334.0000      -999.2500      -999.2500       112.5020        31.2412      -999.2500         0.6724      -999.2500      -999.2500         0.5461        17.3128     
 6334.5000      -999.2500      -999.2500       112.9747        31.2409      -999.2500         0.6887      -999.2500      -999.2500         0.5683        17.0126     
 6335.0000      -999.2500      -999.2500       113.5490        31.4060      -999.2500         0.7058      -999.2500      -999.2500         0.5886        16.7140     
 6335.5000      -999.2500      -999.2500       114.3443        32.1227      -999.2500         0.7350      -999.2500      -999.2500         0.6029        16.7129     
 6336.0000      -999.2500      -999.2500       115.1694        32.2927      -999.2500         0.7640      -999.2500      -999.2500         0.6172        16.7140     
 6336.5000      -999.2500      -999.2500       114.7096        32.9213      -999.2500         0.7906      -999.2500      -999.2500         0.6342        17.5419     
 6337.0000      -999.2500      -999.2500       114.0622        33.4611      -999.2500         0.8085      -999.2500      -999.2500         0.6238        18.3698     
 6337.5000      -999.2500      -999.2500       119.8547        33.9388      -999.2500         0.8264      -999.2500      -999.2500         0.6078        18.7951     
 6338.0000      -999.2500      -999.2500       126.8042        34.3929      -999.2500         0.8399      -999.2500      -999.2500         0.5842        19.3788     
 6338.5000      -999.2500      -999.2500       134.6763        37.9910      -999.2500         0.8516      -999.2500      -999.2500         0.5616        20.0891     
 6339.0000      -999.2500      -999.2500       139.8481        41.1683      -999.2500         0.8638      -999.2500      -999.2500         0.5501        20.7989     
 6339.5000      -999.2500      -999.2500       151.3411        45.6394      -999.2500         0.8826      -999.2500      -999.2500         0.5655        21.5093     
 6340.0000      -999.2500      -999.2500       150.4316        49.4323      -999.2500         0.9014      -999.2500      -999.2500         0.5830        22.2190     
 6340.5000      -999.2500      -999.2500       146.7795        51.2783      -999.2500         0.9140      -999.2500      -999.2500         0.5961        22.8099     
 6341.0000      -999.2500      -999.2500       143.4530        51.2937      -999.2500         0.9257      -999.2500      -999.2500         0.6079        23.1317     
 6341.5000      -999.2500      -999.2500       139.4747        51.0304      -999.2500         0.9868      -999.2500      -999.2500         0.6185        23.4532     
 6342.0000      -999.2500      -999.2500       135.7807        50.6818      -999.2500         1.0353      -999.2500      -999.2500         0.6292        23.7750     
 6342.5000      -999.2500      -999.2500       134.3170        51.6332      -999.2500         1.0713      -999.2500      -999.2500         0.6398        24.0963     
 6343.0000      -999.2500      -999.2500       131.5032        52.4685      -999.2500         1.1073      -999.2500      -999.2500         0.6492        24.2129     
 6343.5000      -999.2500      -999.2500       128.6234        52.7596      -999.2500         1.1265      -999.2500      -999.2500         0.6535        24.3209     
 6344.0000      -999.2500      -999.2500       126.6666        52.7543      -999.2500         1.1391      -999.2500      -999.2500         0.6578        24.4289     
 6344.5000      -999.2500      -999.2500       126.2311        52.3492      -999.2500         1.1498      -999.2500      -999.2500         0.6591        24.4814     
 6345.0000      -999.2500      -999.2500       127.9572        51.5362      -999.2500         1.1534      -999.2500      -999.2500         0.6555        24.3948     
 6345.5000      -999.2500      -999.2500       129.7438        50.6552      -999.2500         1.1570      -999.2500      -999.2500         0.6473        24.3083     
 6346.0000      -999.2500      -999.2500       130.7684        50.3501      -999.2500         1.1609      -999.2500      -999.2500         0.6372        24.3867     
 6346.5000      -999.2500      -999.2500       136.1011        50.0357      -999.2500         1.1659      -999.2500      -999.2500         0.6280        24.4745     
 6347.0000      -999.2500      -999.2500       137.4860        49.9353      -999.2500         1.1698      -999.2500      -999.2500         0.6203        24.5622     
 6347.5000      -999.2500      -999.2500       135.5782        49.5994      -999.2500         1.1467      -999.2500      -999.2500         0.6223        24.6501     
 6348.0000      -999.2500      -999.2500       132.2513        47.9303      -999.2500         1.1273      -999.2500      -999.2500         0.6278        24.6520     
 6348.5000      -999.2500      -999.2500       129.9617        45.8392      -999.2500         1.1222      -999.2500      -999.2500         0.6419        24.5421     
 6349.0000      -999.2500      -999.2500       130.5486        45.1721      -999.2500         1.1236      -999.2500      -999.2500         0.6487        24.4322     
 6349.5000      -999.2500      -999.2500       133.1510        44.4946      -999.2500         1.1513      -999.2500      -999.2500         0.6487        24.3222     
 6350.0000      -999.2500      -999.2500       134.6145        43.7231      -999.2500         1.1788      -999.2500      -999.2500         0.6544        24.2951     
 6350.5000      -999.2500      -999.2500       132.5674        42.7881      -999.2500         1.2064      -999.2500      -999.2500         0.6654        24.2941     
 6351.0000      -999.2500      -999.2500       131.6512        39.7341      -999.2500         1.2340      -999.2500      -999.2500         0.7038        24.2932     
 6351.5000      -999.2500      -999.2500       130.1521        37.9346      -999.2500         1.2622      -999.2500      -999.2500         0.7470        24.2922     
