~Version Information Section
VERS.          2.0                                     : CWLS LOG ASCII Standard
WRAP.          NO                                      : One line per depth step
CREA.          03/08/17                                : LAS Creation Date
~Well Information Section
STRT.ft        521.0000                                : Start Depth
STOP.ft        10547.0000                              : Stop Depth
STEP.ft        0.5000                                  : Step
NULL.          -999.2500                               : Null Value
COMP.          TEXACO PRODUCTION SERVICES LTD.         : Company
WELL.          14/20-8                                 : Well
FLD .          MORAY FIRTH                             : Field
LOC .          NORTH SEA                               : Location
LOC1.          -                                       : Location (UTM)
CTRY.          UK                                      : Country
PROV.          UKCS                                    : Province
UWI .          865                                     : UWI Number
API .          -                                       : API Number
SECT.          -                                       : Section
TOWN.          -                                       : Township
RNGE.          -                                       : Range
PDAT.          MSL                                     : Perm Datum
EPD .ft        0                                       : Elevation
LMF .          KB                                      : Log Measured From
DMF .          KB                                      : Drill Measured From
APD .ft        78.00                                   : Above Perm Datum
EKB .ft        78.00                                   : Elev-Kelly Bushing
EDF .ft        -                                       : Elev-Drill Floor
EGL .ft        -447.00                                 : Elev-Ground Level (Water Depth)
TDD .ft        10560.00                                : Total Depth (Driller)
TDL .ft        -                                       : Total Depth (Logger)
SRVC.          SCHLUMBERGER                            : Service Company
LATI.          58 24 41.3" N                           : Latitude
LONG.          00 06 20.9" W                           : Longitude
DATE.          JUN-AUG-1976                            : Logging Date
PROJ.          UKCS                                    : Project
SET .          COMP_WIRE                               : Set
~Curve Information Section
DEPTH.ft                                               : Depth Curve
CALI.in                                                : Caliper (FDC/CNL/GR)
DRHO.g/cc                                              : Delta Rho
DT.us/ft                                               : Delta T
GR.gAPI                                                : Gamma Ray (ISF/BHC/GR)
GRD.gAPI                                               : Gamma Ray (FDC/CNL/GR)
ILD.Ohmm                                               : Deep Induction Standard Processed Resistivity
NPHI.LPU                                               : Neutron Porosity
RHOB.g/cc                                              : Bulk Density
SFLU.Ohmm                                              : Spherically Focussed Log
SP.mV                                                  : Spontaneous Potential
~ASCII Log Data Section
# ...
 5127.0000      -999.2500      -999.2500       125.2245        25.1633      -999.2500         0.4444      -999.2500      -999.2500         0.3858        57.2569     
 5127.5000      -999.2500      -999.2500       119.4268        26.2982      -999.2500         0.4420      -999.2500      -999.2500         0.3966        56.9387     
 5128.0000      -999.2500      -999.2500       115.0745        27.6507      -999.2500         0.4496      -999.2500      -999.2500         0.4100        56.6195     
 5128.5000      -999.2500      -999.2500       110.2749        29.4148      -999.2500         0.4578      -999.2500      -999.2500         0.4196        56.2499     
 5129.0000      -999.2500      -999.2500       115.6839        31.6580      -999.2500         0.4718      -999.2500      -999.2500         0.4173        55.8269     
 5129.5000      -999.2500      -999.2500       123.8517        32.0937      -999.2500         0.4858      -999.2500      -999.2500         0.4185        55.4043     
 5130.0000      -999.2500      -999.2500       124.9793        32.6616      -999.2500         0.4936      -999.2500      -999.2500         0.4221        55.3913     
 5130.5000      -999.2500      -999.2500       124.1359        33.5451      -999.2500         0.4966      -999.2500      -999.2500         0.4292        55.5918     
 5131.0000      -999.2500      -999.2500       121.3488        34.8589      -999.2500         0.4997      -999.2500      -999.2500         0.4412        55.7925     
 5131.5000      -999.2500      -999.2500       118.9726        36.3959      -999.2500         0.5071      -999.2500      -999.2500         0.4505        55.9931     
 5132.0000      -999.2500      -999.2500       117.5012        38.2883      -999.2500         0.5306      -999.2500      -999.2500         0.4631        56.1938     
 5132.5000      -999.2500      -999.2500       116.8498        40.1791      -999.2500         0.5895      -999.2500      -999.2500         0.4903        56.3943     
 5133.0000      -999.2500      -999.2500       112.3943        42.6086      -999.2500         0.6270      -999.2500      -999.2500         0.5217        56.5950     
 5133.5000      -999.2500      -999.2500       117.0597        45.5165      -999.2500         0.6715      -999.2500      -999.2500         0.5549        57.0819     
 5134.0000      -999.2500      -999.2500       123.4353        48.9513      -999.2500         0.7187      -999.2500      -999.2500         0.5884        57.7269     
 5134.5000      -999.2500      -999.2500       124.7369        52.9989      -999.2500         0.7845      -999.2500      -999.2500         0.6219        58.3508     
 5135.0000      -999.2500      -999.2500       127.4852        57.9263      -999.2500         0.8436      -999.2500      -999.2500         0.7010        58.9498     
 5135.5000      -999.2500      -999.2500       130.9010        62.5442      -999.2500         0.8866      -999.2500      -999.2500         0.7493        59.5493     
 5136.0000      -999.2500      -999.2500       131.0027        66.0691      -999.2500         0.9140      -999.2500      -999.2500         0.7822        60.1481     
 5136.5000      -999.2500      -999.2500       128.6888        64.5426      -999.2500         0.9411      -999.2500      -999.2500         0.7863        60.2229     
 5137.0000      -999.2500      -999.2500       125.3316        62.5704      -999.2500         0.9675      -999.2500      -999.2500         0.7830        60.1608     
 5137.5000      -999.2500      -999.2500       123.5202        58.7219      -999.2500         0.9710      -999.2500      -999.2500         0.7647        60.0987     
 5138.0000      -999.2500      -999.2500       123.6273        54.9732      -999.2500         0.9477      -999.2500      -999.2500         0.7335        60.0226     
 5138.5000      -999.2500      -999.2500       125.1918        51.6740      -999.2500         0.9126      -999.2500      -999.2500         0.7161        59.9379     
 5139.0000      -999.2500      -999.2500       123.8167        48.5658      -999.2500         0.8790      -999.2500      -999.2500         0.6999        59.8532     
 5139.5000      -999.2500      -999.2500       120.3855        46.4790      -999.2500         0.7932      -999.2500      -999.2500         0.6660        59.7685     
 5140.0000      -999.2500      -999.2500       117.0013        46.6758      -999.2500         0.7338      -999.2500      -999.2500         0.6212        59.6839     
 5140.5000      -999.2500      -999.2500       113.7352        46.6914      -999.2500         0.6974      -999.2500      -999.2500         0.5705        59.4118     
 5141.0000      -999.2500      -999.2500       110.2709        44.1549      -999.2500         0.6636      -999.2500      -999.2500         0.5206        59.1304     
 5141.5000      -999.2500      -999.2500       113.0321        40.2382      -999.2500         0.6423      -999.2500      -999.2500         0.4994        58.8352     
 5142.0000      -999.2500      -999.2500       118.5294        36.9084      -999.2500         0.6384      -999.2500      -999.2500         0.4889        58.4359     
 5142.5000      -999.2500      -999.2500       126.0759        36.1803      -999.2500         0.6441      -999.2500      -999.2500         0.4813        58.2319     
 5143.0000      -999.2500      -999.2500       132.6967        36.0997      -999.2500         0.6544      -999.2500      -999.2500         0.4760        58.1472     
 5143.5000      -999.2500      -999.2500       135.2130        36.9537      -999.2500         0.6774      -999.2500      -999.2500         0.5026        58.0870     
 5144.0000      -999.2500      -999.2500       127.5140        40.2027      -999.2500         0.7008      -999.2500      -999.2500         0.5786        58.0880     
 5144.5000      -999.2500      -999.2500       119.1617        44.0668      -999.2500         0.7365      -999.2500      -999.2500         0.6618        58.0890     
 5145.0000      -999.2500      -999.2500       115.7553        48.1669      -999.2500         0.7704      -999.2500      -999.2500         0.6876        57.5579     
 5145.5000      -999.2500      -999.2500       112.8097        51.2986      -999.2500         0.7966      -999.2500      -999.2500         0.7055        56.9986     
 5146.0000      -999.2500      -999.2500       108.2416        52.8945      -999.2500         0.7967      -999.2500      -999.2500         0.6675        56.7693     
 5146.5000      -999.2500      -999.2500       110.3908        50.2897      -999.2500         0.7854      -999.2500      -999.2500         0.6314        56.9414     
 5147.0000      -999.2500      -999.2500       108.2993        45.0654      -999.2500         0.7527      -999.2500      -999.2500         0.6055        57.0682     
 5147.5000      -999.2500      -999.2500       108.8988        38.6380      -999.2500         0.6927      -999.2500      -999.2500         0.5845        56.8444     
 5148.0000      -999.2500      -999.2500       107.6010        37.2316      -999.2500         0.6530      -999.2500      -999.2500         0.5636        56.6206     
 5148.5000      -999.2500      -999.2500       105.7623        36.9834      -999.2500         0.6143      -999.2500      -999.2500         0.5425        56.4272     
 5149.0000      -999.2500      -999.2500       106.6618        35.9874      -999.2500         0.5889      -999.2500      -999.2500         0.5209        56.2719     
 5149.5000      -999.2500      -999.2500       108.0511        35.3012      -999.2500         0.5781      -999.2500      -999.2500         0.5019        56.1164     
 5150.0000      -999.2500      -999.2500       109.4458        35.6470      -999.2500         0.5722      -999.2500      -999.2500         0.5019        55.9611     
 5150.5000      -999.2500      -999.2500       108.6326        36.0970      -999.2500         0.5746      -999.2500      -999.2500         0.5019        56.0430     
 5151.0000      -999.2500      -999.2500       109.0453        36.5764      -999.2500         0.5782      -999.2500      -999.2500         0.5064        56.2769     
