~Version Information Section
VERS.          2.0                                     : CWLS LOG ASCII Standard
WRAP.          NO                                      : One line per depth step
CREA.          03/08/17                                : LAS Creation Date
~Well Information Section
STRT.ft        521.0000                                : Start Depth
STOP.ft        10547.0000                              : Stop Depth
STEP.ft        0.5000                                  : Step
NULL.          -999.2500                               : Null Value
COMP.          TEXACO PRODUCTION SERVICES LTD.         : Company
WELL.          14/20-8                                 : Well
FLD .          MORAY FIRTH                             : Field
LOC .          NORTH SEA                               : Location
LOC1.          -                                       : Location (UTM)
CTRY.          UK                                      : Country
PROV.          UKCS                                    : Province
UWI .          865                                     : UWI Number
API .          -                                       : API Number
SECT.          -                                       : Section
TOWN.          -                                       : Township
RNGE.          -                                       : Range
PDAT.          MSL                                     : Perm Datum
EPD .ft        0                                       : Elevation
LMF .          KB                                      : Log Measured From
DMF .          KB                                      : Drill Measured From
APD .ft        78.00                                   : Above Perm Datum
EKB .ft        78.00                                   : Elev-Kelly Bushing
EDF .ft        -                                       : Elev-Drill Floor
EGL .ft        -447.00                                 : Elev-Ground Level (Water Depth)
TDD .ft        10560.00                                : Total Depth (Driller)
TDL .ft        -                                       : Total Depth (Logger)
SRVC.          SCHLUMBERGER                            : Service Company
LATI.          58 24 41.3" N                           : Latitude
LONG.          00 06 20.9" W                           : Longitude
DATE.          JUN-AUG-1976                            : Logging Date
PROJ.          UKCS                                    : Project
SET .          COMP_WIRE                               : Set
~Curve Information Section
DEPTH.ft                                               : Depth Curve
CALI.in                                                : Caliper (FDC/CNL/GR)
DRHO.g/cc                                              : Delta Rho
DT.us/ft                                               : Delta T
GR.gAPI                                                : Gamma Ray (ISF/BHC/GR)
GRD.gAPI                                               : Gamma Ray (FDC/CNL/GR)
ILD.Ohmm                                               : Deep Induction Standard Processed Resistivity
NPHI.LPU                                               : Neutron Porosity
RHOB.g/cc                                              : Bulk Density
SFLU.Ohmm                                              : Spherically Focussed Log
SP.mV                                                  : Spontaneous Potential
~ASCII Log Data Section
# ...
 9929.0000        10.4542         0.0448        77.4263        81.8020        92.2278         3.3477        20.5184         2.5772         3.2971        18.6020     
 9929.5000        10.4471         0.0476        76.6693        80.2256        91.3372         3.3787        19.5676         2.5915         3.4331        19.2031     
 9930.0000        10.4369         0.0218        75.2260        77.1830        90.5760         3.3104        18.0103         2.5883         3.5834        19.8246     
 9930.5000        10.4198         0.0010        72.7630        74.1388        90.4337         3.2250        16.4204         2.5835         3.5946        19.2737     
 9931.0000        10.4029         0.0038        70.4572        71.1373        93.4828         3.2057        17.4738         2.5879         3.4779        18.9412     
 9931.5000        10.4339         0.0294        70.5832        72.1796        95.8189         3.1440        18.6304         2.5818         3.2978        18.9386     
 9932.0000        10.4877         0.0481        72.5656        75.9999        95.9213         3.0619        18.5070         2.5972         3.1914        18.9361     
 9932.5000        10.5415         0.0317        75.7595        79.0752        94.2710         3.0125        18.2069         2.5818         3.1184        19.4421     
 9933.0000        10.5719         0.0183        78.1545        81.5632        93.4096         2.9660        18.6271         2.5555         3.0731        20.3208     
 9933.5000        10.5589         0.0320        79.6125        83.8996        94.8043         2.9386        18.9738         2.5435         3.0939        21.0793     
 9934.0000        10.5456         0.0404        80.3053        86.2200        92.8596         3.0254        19.3310         2.5538         3.1305        21.1287     
 9934.5000        10.5200         0.0176        80.0762        87.7267        91.5255         3.1212        19.7121         2.5106         3.1797        20.4173     
 9935.0000        10.4723         0.0193        79.2797        87.6923        90.5411         3.2143        19.5022         2.4951         3.2470        19.3130     
 9935.5000        10.6632         0.0664        77.4601        87.4016        91.0622         3.3066        18.8496         2.5021         3.3658        19.1185     
 9936.0000        10.7163         0.0733        76.3457        87.6405        93.2311         3.3992        18.7761         2.5143         3.5006        19.2641     
 9936.5000        10.5307         0.0284        76.4199        86.6525        98.3368         3.4916        18.5053         2.5095         3.6437        19.8086     
 9937.0000        10.5294         0.0037        76.1800        84.7887       102.4443         3.5799        18.4493         2.5515         3.7932        20.3528     
 9937.5000        10.5423        -0.0023        75.7791        83.9681       103.5255         3.6630        18.2211         2.5875         3.9453        20.8968     
 9938.0000        10.5550        -0.0069        75.3880        82.5030       101.9379         3.7464        18.2226         2.6001         4.0318        20.7918     
 9938.5000        10.5678         0.0001        75.4315        81.3705       101.0620         3.7792        18.5374         2.6151         4.0313        20.3227     
 9939.0000        10.5783         0.0018        75.5742        82.4106       100.2635         3.7787        18.4583         2.6210         4.0308        19.5491     
 9939.5000        10.5847         0.0034        75.5875        82.5130       100.9904         3.7677        18.0827         2.6170         4.0302        18.8978     
 9940.0000        10.5909        -0.0035        75.1817        81.9698       103.2669         3.6689        17.6417         2.6058         4.0140        19.3538     
 9940.5000        10.5972        -0.0003        74.7293        81.2729       105.1137         3.5526        17.6647         2.6166         3.8707        20.3381     
 9941.0000        10.6035        -0.0038        74.3302        81.8127       103.7242         3.4034        17.6003         2.6190         3.7031        20.5214     
 9941.5000        10.6097        -0.0060        74.5914        82.0394       102.1250         3.2340        17.2191         2.6208         3.5982        20.3124     
 9942.0000        10.6153         0.0018        75.8721        82.6089       101.0110         3.0643        17.1627         2.6308         3.5188        20.4241     
 9942.5000        10.6160         0.0030        76.6428        84.0929       100.9152         2.9137        17.4580         2.6220         3.3713        20.5424     
 9943.0000        10.6159         0.0010        77.7149        87.2035       101.7724         2.8686        18.1665         2.6042         3.2221        20.6276     
 9943.5000        10.6159         0.0026        78.2752        89.6030       103.5627         2.8267        19.5841         2.5946         3.0418        20.2549     
 9944.0000        10.6158         0.0121        79.7440        90.6874       104.8160         2.7929        20.9768         2.5792         2.9190        21.0934     
 9944.5000        10.6158         0.0225        82.1587        90.7118       102.2409         2.8215        21.8855         2.5439         2.8721        22.0071     
 9945.0000        10.6157         0.0391        84.2127        90.2669        99.7644         2.8605        19.8739         2.4932         2.9716        22.1598     
 9945.5000        10.6157         0.0687        86.1898        88.5780        98.8320         2.9135        18.8848         2.4595         3.2390        21.5166     
 9946.0000        10.6156         0.0278        85.5923        87.0491       100.6858         2.9965        19.6118         2.4624         3.4711        20.6607     
 9946.5000        10.6156         0.0172        83.5658        85.6172        99.7069         3.0796        20.3942         2.5589         3.6439        20.2603     
 9947.0000        10.5931         0.0259        81.4342        84.6493        95.1387         3.1940        20.5202         2.5953         3.6572        20.0159     
 9947.5000        10.6544         0.0293        79.3104        83.7071        91.3149         3.3508        20.0883         2.6280         3.6460        20.1432     
 9948.0000        10.6923         0.0321        78.1876        82.5416        89.1998         3.4636        19.8518         2.6413         3.6397        20.8905     
 9948.5000        10.6860         0.0245        78.0673        80.1546        87.7591         3.5765        19.6997         2.6224         3.6965        21.1054     
 9949.0000        10.6796         0.0156        78.6108        78.9876        86.6201         3.6170        19.6384         2.5997         3.7670        21.6009     
 9949.5000        10.6753         0.0145        78.6475        79.0935        87.3191         3.5867        19.3065         2.5782         3.8313        20.6747     
 9950.0000        10.7083         0.0207        77.5954        77.2028        87.0846         3.5565        19.2751         2.5643         3.8732        19.3126     
 9950.5000        10.8140         0.0742        76.9332        74.0599        88.1833         3.5277        19.4025         2.5505         3.8635        18.2411     
 9951.0000        10.9193         0.1995        76.7813        71.0973        85.2984         3.5051        20.1307         2.5701         3.7916        19.8657     
 9951.5000        11.0249         0.2428        76.4430        71.3049        85.3125         3.4376        21.0221         2.5781         3.7221        21.8678     
 9952.0000        11.1199         0.2505        76.5571        73.6926        86.1417         3.3489        21.6413         2.5775         3.6579        22.0290     
 9952.5000        11.1345         0.2458        77.1794        79.0924        86.7558         3.2603        22.4449         2.5716         3.5893        21.7190     
 9953.0000        11.1367         0.2485        76.5591        82.3044        88.9484         3.1705        23.1679         2.5783         3.4915        21.3113     
