~Version Information Section
VERS.          2.0                                     : CWLS LOG ASCII Standard
WRAP.          NO                                      : One line per depth step
CREA.          03/08/17                                : LAS Creation Date
~Well Information Section
STRT.ft        521.0000                                : Start Depth
STOP.ft        10547.0000                              : Stop Depth
STEP.ft        0.5000                                  : Step
NULL.          -999.2500                               : Null Value
COMP.          TEXACO PRODUCTION SERVICES LTD.         : Company
WELL.          14/20-8                                 : Well
FLD .          MORAY FIRTH                             : Field
LOC .          NORTH SEA                               : Location
LOC1.          -                                       : Location (UTM)
CTRY.          UK                                      : Country
PROV.          UKCS                                    : Province
UWI .          865                                     : UWI Number
API .          -                                       : API Number
SECT.          -                                       : Section
TOWN.          -                                       : Township
RNGE.          -                                       : Range
PDAT.          MSL                                     : Perm Datum
EPD .ft        0                                       : Elevation
LMF .          KB                                      : Log Measured From
DMF .          KB                                      : Drill Measured From
APD .ft        78.00                                   : Above Perm Datum
EKB .ft        78.00                                   : Elev-Kelly Bushing
EDF .ft        -                                       : Elev-Drill Floor
EGL .ft        -447.00                                 : Elev-Ground Level (Water Depth)
TDD .ft        10560.00                                : Total Depth (Driller)
TDL .ft        -                                       : Total Depth (Logger)
SRVC.          SCHLUMBERGER                            : Service Company
LATI.          58 24 41.3" N                           : Latitude
LONG.          00 06 20.9" W                           : Longitude
DATE.          JUN-AUG-1976                            : Logging Date
PROJ.          UKCS                                    : Project
SET .          COMP_WIRE                               : Set
~Curve Information Section
DEPTH.ft                                               : Depth Curve
CALI.in                                                : Caliper (FDC/CNL/GR)
DRHO.g/cc                                              : Delta Rho
DT.us/ft                                               : Delta T
GR.gAPI                                                : Gamma Ray (ISF/BHC/GR)
GRD.gAPI                                               : Gamma Ray (FDC/CNL/GR)
ILD.Ohmm                                               : Deep Induction Standard Processed Resistivity
NPHI.LPU                                               : Neutron Porosity
RHOB.g/cc                                              : Bulk Density
SFLU.Ohmm                                              : Spherically Focussed Log
SP.mV                                                  : Spontaneous Potential
~ASCII Log Data Section
# ...
 6940.0000      -999.2500      -999.2500        71.0679        17.5413      -999.2500         5.3593      -999.2500      -999.2500         4.0987        -1.1513     
 6940.5000      -999.2500      -999.2500        69.1984        17.0817      -999.2500         5.3709      -999.2500      -999.2500         4.3834        -0.9663     
 6941.0000      -999.2500      -999.2500        68.1698        16.6625      -999.2500         5.3824      -999.2500      -999.2500         4.1866        -0.7961     
 6941.5000      -999.2500      -999.2500        69.3661        16.4022      -999.2500         5.3855      -999.2500      -999.2500         3.9535        -0.6623     
 6942.0000      -999.2500      -999.2500        69.4479        16.1034      -999.2500         5.3855      -999.2500      -999.2500         3.9483        -0.3365     
 6942.5000      -999.2500      -999.2500        69.3444        15.6833      -999.2500         5.3099      -999.2500      -999.2500         4.0267         0.0387     
 6943.0000      -999.2500      -999.2500        69.4948        15.4437      -999.2500         5.2260      -999.2500      -999.2500         3.9075         0.3468     
 6943.5000      -999.2500      -999.2500        70.3656        15.5045      -999.2500         5.1363      -999.2500      -999.2500         3.6444         0.1868     
 6944.0000      -999.2500      -999.2500        71.4729        15.6844      -999.2500         5.0422      -999.2500      -999.2500         3.5724         0.0269     
 6944.5000      -999.2500      -999.2500        72.3734        15.9067      -999.2500         4.9923      -999.2500      -999.2500         3.6501        -0.2212     
 6945.0000      -999.2500      -999.2500        72.0778        15.9076      -999.2500         4.9750      -999.2500      -999.2500         3.7240        -0.5219     
 6945.5000      -999.2500      -999.2500        71.9585        16.0082      -999.2500         4.9579      -999.2500      -999.2500         3.7519        -0.8220     
 6946.0000      -999.2500      -999.2500        72.3633        15.7719      -999.2500         4.9925      -999.2500      -999.2500         3.7797        -1.0256     
 6946.5000      -999.2500      -999.2500        71.5978        15.9283      -999.2500         5.0322      -999.2500      -999.2500         3.8050        -1.2255     
 6947.0000      -999.2500      -999.2500        71.4528        16.1700      -999.2500         5.0615      -999.2500      -999.2500         3.8186        -1.2047     
 6947.5000      -999.2500      -999.2500        72.6612        16.3121      -999.2500         5.0832      -999.2500      -999.2500         3.7149        -1.1757     
 6948.0000      -999.2500      -999.2500        72.8180        16.4894      -999.2500         5.0805      -999.2500      -999.2500         3.6357        -1.1468     
 6948.5000      -999.2500      -999.2500        72.4449        17.0314      -999.2500         5.0432      -999.2500      -999.2500         3.5912        -1.1179     
 6949.0000      -999.2500      -999.2500        72.3783        17.2739      -999.2500         5.0060      -999.2500      -999.2500         3.7518        -1.0890     
 6949.5000      -999.2500      -999.2500        72.4981        17.5167      -999.2500         5.0029      -999.2500      -999.2500         3.8768        -1.0601     
 6950.0000      -999.2500      -999.2500        72.5743        17.9825      -999.2500         5.0029      -999.2500      -999.2500         3.7401        -1.0312     
 6950.5000      -999.2500      -999.2500        73.9428        18.9658      -999.2500         4.9608      -999.2500      -999.2500         3.6957        -1.0023     
 6951.0000      -999.2500      -999.2500        74.1317        19.7506      -999.2500         4.8201      -999.2500      -999.2500         3.6884        -0.9734     
 6951.5000      -999.2500      -999.2500        73.0980        20.1225      -999.2500         4.6016      -999.2500      -999.2500         3.5379        -0.9444     
 6952.0000      -999.2500      -999.2500        71.9013        20.0661      -999.2500         4.2877      -999.2500      -999.2500         3.4576        -0.9155     
 6952.5000      -999.2500      -999.2500        72.3976        20.0456      -999.2500         3.9739      -999.2500      -999.2500         3.4376        -0.8866     
 6953.0000      -999.2500      -999.2500        74.5575        20.5532      -999.2500         3.6794      -999.2500      -999.2500         3.2435        -0.8577     
 6953.5000      -999.2500      -999.2500        76.7173        21.6271      -999.2500         3.4116      -999.2500      -999.2500         2.9287        -0.8288     
 6954.0000      -999.2500      -999.2500        78.8817        22.5319      -999.2500         3.1869      -999.2500      -999.2500         2.6582        -0.5171     
 6954.5000      -999.2500      -999.2500        82.2249        23.7486      -999.2500         3.0024      -999.2500      -999.2500         2.5168        -0.1965     
 6955.0000      -999.2500      -999.2500        85.8683        24.2549      -999.2500         2.9139      -999.2500      -999.2500         2.3898        -0.0263     
 6955.5000      -999.2500      -999.2500        84.9102        24.4327      -999.2500         2.8393      -999.2500      -999.2500         2.3038        -0.0260     
 6956.0000      -999.2500      -999.2500        84.5365        24.4334      -999.2500         2.8046      -999.2500      -999.2500         2.2637        -0.2328     
 6956.5000      -999.2500      -999.2500        85.1802        24.3457      -999.2500         2.8539      -999.2500      -999.2500         2.3535        -0.4898     
 6957.0000      -999.2500      -999.2500        84.4530        24.6463      -999.2500         2.9297      -999.2500      -999.2500         2.4301        -0.6047     
 6957.5000      -999.2500      -999.2500        82.8146        24.7360      -999.2500         3.0055      -999.2500      -999.2500         2.5397        -0.5599     
 6958.0000      -999.2500      -999.2500        81.1728        24.4587      -999.2500         3.2310      -999.2500      -999.2500         2.7537        -0.5151     
 6958.5000      -999.2500      -999.2500        77.4342        23.5201      -999.2500         3.4675      -999.2500      -999.2500         2.8403        -0.4703     
 6959.0000      -999.2500      -999.2500        76.4923        23.0703      -999.2500         3.6672      -999.2500      -999.2500         2.9519        -0.4255     
 6959.5000      -999.2500      -999.2500        75.9937        22.8375      -999.2500         3.8557      -999.2500      -999.2500         3.0805        -0.4783     
 6960.0000      -999.2500      -999.2500        74.9833        22.8933      -999.2500         3.9679      -999.2500      -999.2500         3.2160        -0.5339     
 6960.5000      -999.2500      -999.2500        73.8271        22.5167      -999.2500         4.0571      -999.2500      -999.2500         3.3609        -0.5895     
 6961.0000      -999.2500      -999.2500        70.6948        21.6379      -999.2500         4.1377      -999.2500      -999.2500         3.5008        -0.6451     
 6961.5000      -999.2500      -999.2500        70.5750        20.5388      -999.2500         4.1954      -999.2500      -999.2500         3.5849        -0.7007     
 6962.0000      -999.2500      -999.2500        70.9573        19.5476      -999.2500         4.1720      -999.2500      -999.2500         3.4698        -0.7562     
 6962.5000      -999.2500      -999.2500        71.8512        19.1454      -999.2500         4.0898      -999.2500      -999.2500         3.1603        -0.8119     
 6963.0000      -999.2500      -999.2500        73.7684        19.2961      -999.2500         3.9727      -999.2500      -999.2500         3.0151        -0.8794     
 6963.5000      -999.2500      -999.2500        76.1659        19.5413      -999.2500         3.8555      -999.2500      -999.2500         2.9597        -0.9497     
 6964.0000      -999.2500      -999.2500        77.6075        19.7638      -999.2500         3.7495      -999.2500      -999.2500         2.7316        -1.0201     
