~Version Information Section
VERS.          2.0                                     : CWLS LOG ASCII Standard
WRAP.          NO                                      : One line per depth step
CREA.          03/08/17                                : LAS Creation Date
~Well Information Section
STRT.ft        521.0000                                : Start Depth
STOP.ft        10547.0000                              : Stop Depth
STEP.ft        0.5000                                  : Step
NULL.          -999.2500                               : Null Value
COMP.          TEXACO PRODUCTION SERVICES LTD.         : Company
WELL.          14/20-8                                 : Well
FLD .          MORAY FIRTH                             : Field
LOC .          NORTH SEA                               : Location
LOC1.          -                                       : Location (UTM)
CTRY.          UK                                      : Country
PROV.          UKCS                                    : Province
UWI .          865                                     : UWI Number
API .          -                                       : API Number
SECT.          -                                       : Section
TOWN.          -                                       : Township
RNGE.          -                                       : Range
PDAT.          MSL                                     : Perm Datum
EPD .ft        0                                       : Elevation
LMF .          KB                                      : Log Measured From
DMF .          KB                                      : Drill Measured From
APD .ft        78.00                                   : Above Perm Datum
EKB .ft        78.00                                   : Elev-Kelly Bushing
EDF .ft        -                                       : Elev-Drill Floor
EGL .ft        -447.00                                 : Elev-Ground Level (Water Depth)
TDD .ft        10560.00                                : Total Depth (Driller)
TDL .ft        -                                       : Total Depth (Logger)
SRVC.          SCHLUMBERGER                            : Service Company
LATI.          58 24 41.3" N                           : Latitude
LONG.          00 06 20.9" W                           : Longitude
DATE.          JUN-AUG-1976                            : Logging Date
PROJ.          UKCS                                    : Project
SET .          COMP_WIRE                               : Set
~Curve Information Section
DEPTH.ft                                               : Depth Curve
CALI.in                                                : Caliper (FDC/CNL/GR)
DRHO.g/cc                                              : Delta Rho
DT.us/ft                                               : Delta T
GR.gAPI                                                : Gamma Ray (ISF/BHC/GR)
GRD.gAPI                                               : Gamma Ray (FDC/CNL/GR)
ILD.Ohmm                                               : Deep Induction Standard Processed Resistivity
NPHI.LPU                                               : Neutron Porosity
RHOB.g/cc                                              : Bulk Density
SFLU.Ohmm                                              : Spherically Focussed Log
SP.mV                                                  : Spontaneous Potential
~ASCII Log Data Section
# ...
 3951.0000      -999.2500      -999.2500       135.9224        37.8836      -999.2500         0.7289      -999.2500      -999.2500         0.5453        60.4956     
 3951.5000      -999.2500      -999.2500       134.8222        35.6638      -999.2500         0.7208      -999.2500      -999.2500         0.5337        60.2091     
 3952.0000      -999.2500      -999.2500       133.9978        33.9884      -999.2500         0.7142      -999.2500      -999.2500         0.5491        59.9228     
 3952.5000      -999.2500      -999.2500       132.7351        35.0080      -999.2500         0.7089      -999.2500      -999.2500         0.5715        59.6362     
 3953.0000      -999.2500      -999.2500       132.7180        37.6614      -999.2500         0.7059      -999.2500      -999.2500         0.5850        59.6436     
 3953.5000      -999.2500      -999.2500       134.6645        40.6551      -999.2500         0.7055      -999.2500      -999.2500         0.5970        59.6907     
 3954.0000      -999.2500      -999.2500       134.4869        41.5095      -999.2500         0.7127      -999.2500      -999.2500         0.6026        59.7379     
 3954.5000      -999.2500      -999.2500       133.9790        41.3462      -999.2500         0.7207      -999.2500      -999.2500         0.6063        59.7851     
 3955.0000      -999.2500      -999.2500       132.8196        40.0309      -999.2500         0.7409      -999.2500      -999.2500         0.5924        59.8323     
 3955.5000      -999.2500      -999.2500       128.8252        39.2237      -999.2500         0.7482      -999.2500      -999.2500         0.5530        59.8794     
 3956.0000      -999.2500      -999.2500       131.8371        38.2855      -999.2500         0.7358      -999.2500      -999.2500         0.5369        59.9266     
 3956.5000      -999.2500      -999.2500       134.7992        37.9836      -999.2500         0.7076      -999.2500      -999.2500         0.5412        59.9737     
 3957.0000      -999.2500      -999.2500       137.5559        37.8914      -999.2500         0.6910      -999.2500      -999.2500         0.5531        60.0209     
 3957.5000      -999.2500      -999.2500       141.3088        37.9836      -999.2500         0.6764      -999.2500      -999.2500         0.5476        60.0681     
 3958.0000      -999.2500      -999.2500       141.9507        38.0815      -999.2500         0.6640      -999.2500      -999.2500         0.5305        60.1153     
 3958.5000      -999.2500      -999.2500       138.0731        37.8256      -999.2500         0.6525      -999.2500      -999.2500         0.5186        60.1624     
 3959.0000      -999.2500      -999.2500       136.0589        37.0033      -999.2500         0.6411      -999.2500      -999.2500         0.5186        60.2096     
 3959.5000      -999.2500      -999.2500       130.8107        36.4242      -999.2500         0.6432      -999.2500      -999.2500         0.5105        60.2568     
 3960.0000      -999.2500      -999.2500       128.5350        36.1327      -999.2500         0.6576      -999.2500      -999.2500         0.5046        60.3039     
 3960.5000      -999.2500      -999.2500       132.4333        36.4760      -999.2500         0.6927      -999.2500      -999.2500         0.5160        60.3511     
 3961.0000      -999.2500      -999.2500       135.3499        37.0936      -999.2500         0.7314      -999.2500      -999.2500         0.5503        60.3983     
 3961.5000      -999.2500      -999.2500       135.3604        37.4812      -999.2500         0.7812      -999.2500      -999.2500         0.5848        60.4455     
 3962.0000      -999.2500      -999.2500       136.6101        38.1040      -999.2500         0.8283      -999.2500      -999.2500         0.6227        60.4926     
 3962.5000      -999.2500      -999.2500       133.5886        40.8232      -999.2500         0.8539      -999.2500      -999.2500         0.6759        60.5398     
 3963.0000      -999.2500      -999.2500       126.6671        43.7248      -999.2500         0.8741      -999.2500      -999.2500         0.7284        60.5870     
 3963.5000      -999.2500      -999.2500       124.8718        45.6017      -999.2500         0.8839      -999.2500      -999.2500         0.7793        60.6142     
 3964.0000      -999.2500      -999.2500       122.5623        45.5825      -999.2500         0.8727      -999.2500      -999.2500         0.7633        60.5576     
 3964.5000      -999.2500      -999.2500       121.5711        44.2967      -999.2500         0.8499      -999.2500      -999.2500         0.7165        60.5009     
 3965.0000      -999.2500      -999.2500       125.1499        43.1678      -999.2500         0.8209      -999.2500      -999.2500         0.6707        60.4443     
 3965.5000      -999.2500      -999.2500       129.3214        41.1553      -999.2500         0.7897      -999.2500      -999.2500         0.5844        60.3877     
 3966.0000      -999.2500      -999.2500       134.4041        39.6405      -999.2500         0.7736      -999.2500      -999.2500         0.5381        60.3311     
 3966.5000      -999.2500      -999.2500       139.2273        38.1825      -999.2500         0.7651      -999.2500      -999.2500         0.5289        60.2745     
 3967.0000      -999.2500      -999.2500       143.6482        38.4266      -999.2500         0.7675      -999.2500      -999.2500         0.5601        60.2376     
 3967.5000      -999.2500      -999.2500       145.7480        40.7767      -999.2500         0.7952      -999.2500      -999.2500         0.6020        60.2867     
 3968.0000      -999.2500      -999.2500       145.6935        43.5660      -999.2500         0.8228      -999.2500      -999.2500         0.6338        60.3357     
 3968.5000      -999.2500      -999.2500       138.8310        48.3650      -999.2500         0.8505      -999.2500      -999.2500         0.6646        60.3848     
 3969.0000      -999.2500      -999.2500       135.3287        50.9432      -999.2500         0.8665      -999.2500      -999.2500         0.6910        60.4323     
 3969.5000      -999.2500      -999.2500       132.4655        53.1940      -999.2500         0.8471      -999.2500      -999.2500         0.7069        60.3867     
 3970.0000      -999.2500      -999.2500       133.1956        54.5985      -999.2500         0.8110      -999.2500      -999.2500         0.6876        60.3411     
 3970.5000      -999.2500      -999.2500       134.4843        54.5720      -999.2500         0.7673      -999.2500      -999.2500         0.6227        60.2955     
 3971.0000      -999.2500      -999.2500       132.9785        51.3940      -999.2500         0.7083      -999.2500      -999.2500         0.5793        60.2499     
 3971.5000      -999.2500      -999.2500       132.4238        46.8968      -999.2500         0.6495      -999.2500      -999.2500         0.5347        60.1494     
 3972.0000      -999.2500      -999.2500       132.5092        42.9185      -999.2500         0.6074      -999.2500      -999.2500         0.5126        60.0231     
 3972.5000      -999.2500      -999.2500       131.8919        39.3619      -999.2500         0.5907      -999.2500      -999.2500         0.5044        59.8969     
 3973.0000      -999.2500      -999.2500       134.2141        37.6672      -999.2500         0.5907      -999.2500      -999.2500         0.4818        59.7474     
 3973.5000      -999.2500      -999.2500       141.7442        36.4911      -999.2500         0.5921      -999.2500      -999.2500         0.4771        59.5756     
 3974.0000      -999.2500      -999.2500       150.4545        35.9064      -999.2500         0.5948      -999.2500      -999.2500         0.4725        59.4724     
 3974.5000      -999.2500      -999.2500       155.0869        35.6042      -999.2500         0.6078      -999.2500      -999.2500         0.4698        59.6828     
 3975.0000      -999.2500      -999.2500       155.1836        35.2797      -999.2500         0.6309      -999.2500      -999.2500         0.4954        59.8932     
