~Version Information Section
VERS.          2.0                                     : CWLS LOG ASCII Standard
WRAP.          NO                                      : One line per depth step
CREA.          03/08/17                                : LAS Creation Date
~Well Information Section
STRT.ft        521.0000                                : Start Depth
STOP.ft        10547.0000                              : Stop Depth
STEP.ft        0.5000                                  : Step
NULL.          -999.2500                               : Null Value
COMP.          TEXACO PRODUCTION SERVICES LTD.         : Company
WELL.          14/20-8                                 : Well
FLD .          MORAY FIRTH                             : Field
LOC .          NORTH SEA                               : Location
LOC1.          -                                       : Location (UTM)
CTRY.          UK                                      : Country
PROV.          UKCS                                    : Province
UWI .          865                                     : UWI Number
API .          -                                       : API Number
SECT.          -                                       : Section
TOWN.          -                                       : Township
RNGE.          -                                       : Range
PDAT.          MSL                                     : Perm Datum
EPD .ft        0                                       : Elevation
LMF .          KB                                      : Log Measured From
DMF .          KB                                      : Drill Measured From
APD .ft        78.00                                   : Above Perm Datum
EKB .ft        78.00                                   : Elev-Kelly Bushing
EDF .ft        -                                       : Elev-Drill Floor
EGL .ft        -447.00                                 : Elev-Ground Level (Water Depth)
TDD .ft        10560.00                                : Total Depth (Driller)
TDL .ft        -                                       : Total Depth (Logger)
SRVC.          SCHLUMBERGER                            : Service Company
LATI.          58 24 41.3" N                           : Latitude
LONG.          00 06 20.9" W                           : Longitude
DATE.          JUN-AUG-1976                            : Logging Date
PROJ.          UKCS                                    : Project
SET .          COMP_WIRE                               : Set
~Curve Information Section
DEPTH.ft                                               : Depth Curve
CALI.in                                                : Caliper (FDC/CNL/GR)
DRHO.g/cc                                              : Delta Rho
DT.us/ft                                               : Delta T
GR.gAPI                                                : Gamma Ray (ISF/BHC/GR)
GRD.gAPI                                               : Gamma Ray (FDC/CNL/GR)
ILD.Ohmm                                               : Deep Induction Standard Processed Resistivity
NPHI.LPU                                               : Neutron Porosity
RHOB.g/cc                                              : Bulk Density
SFLU.Ohmm                                              : Spherically Focussed Log
SP.mV                                                  : Spontaneous Potential
~ASCII Log Data Section
# ...
10517.0000         8.9148         0.1462      -999.2500       128.5443       138.2269         8.0455        21.6419         2.4614         6.0651        12.8178     
10517.5000         9.3196         0.2279      -999.2500       122.5072       134.3748         9.4198        20.7659         2.4712         6.5217        12.2200     
10518.0000         9.8373         0.2168      -999.2500       117.8296       136.3506        10.1828        21.8338         2.4340         7.2726        12.2205     
10518.5000         9.9061         0.2213      -999.2500       115.0097       139.3790        10.0221        27.1623         2.4122         8.0235        12.5659     
10519.0000         9.9674         0.2408      -999.2500       115.7198       143.8696         9.4492        32.6535         2.4136         8.5353        13.0691     
10519.5000        10.0020         0.2293      -999.2500       117.2892       147.7066         8.8533        36.7480         2.3857         8.3034        13.6900     
10520.0000        10.0367         0.2206      -999.2500       114.4765       149.5934         8.7204        36.0348         2.3509         7.4379        14.1814     
10520.5000        10.0788         0.2073      -999.2500       109.9864       147.7592         8.8423        33.7454         2.3151         6.8080        13.9962     
10521.0000        10.1220         0.1815      -999.2500       105.1656       141.1157         9.3665        33.5893         2.2730         6.3886        13.7683     
10521.5000        10.1716         0.1407      -999.2500       100.8759       132.8189        10.1548        35.3092         2.1947         6.5212        12.8616     
10522.0000        10.2264         0.0762      -999.2500      -999.2500       120.1441        10.5295        38.2283         2.0691         6.7287        12.4461     
10522.5000        10.1878         0.0241      -999.2500      -999.2500       111.8282        10.0579        45.7886         1.8694         6.5555        12.2928     
10523.0000         9.5682         0.0024      -999.2500      -999.2500       107.8057         9.1761        49.5164         1.8404         6.4303        13.1234     
10523.5000         8.8255        -0.0077      -999.2500      -999.2500       111.9035        10.8861        50.2764         1.9480         8.3424        13.9554     
10524.0000         8.6832        -0.0157      -999.2500      -999.2500       127.0256        13.8262        47.4808         2.1734        10.7933        14.0948     
10524.5000         8.7634        -0.0068      -999.2500      -999.2500       152.7592        18.5996        42.7406         2.3278        12.1831        13.3668     
10525.0000         8.8057         0.0047      -999.2500      -999.2500       179.6953        37.0540        40.2808         2.3896        12.8731      -999.2500     
10525.5000         8.9190         0.0074      -999.2500      -999.2500       195.7209        60.9598        40.8062         2.4316        13.8246      -999.2500     
10526.0000         8.8932         0.0162      -999.2500      -999.2500       201.3524        73.5790        40.8065         2.4042        15.0350      -999.2500     
10526.5000         8.7978         0.0523      -999.2500      -999.2500       200.8291        49.4155        38.8388         2.3962        16.6876      -999.2500     
10527.0000         8.6487         0.0245      -999.2500      -999.2500       196.1762        31.2071        34.2205         2.3969        17.7634      -999.2500     
10527.5000         8.6054         0.0106      -999.2500      -999.2500       192.3421        23.9828        28.3756         2.4523        17.5049      -999.2500     
10528.0000         8.5981         0.0019      -999.2500      -999.2500       190.7691        20.5692        23.6474         2.5137        16.6453      -999.2500     
10528.5000         8.6536        -0.0039      -999.2500      -999.2500       190.4216        19.6451        22.4528         2.5657        15.7901      -999.2500     
10529.0000         8.7917         0.0020      -999.2500      -999.2500       191.0250        19.4223        24.1577         2.5878        14.9490      -999.2500     
10529.5000         8.7920         0.0143      -999.2500      -999.2500       192.5498        19.5192        25.6972         2.5746        14.0769      -999.2500     
10530.0000         8.7400         0.0180      -999.2500      -999.2500       195.1840        18.4208        25.3907         2.5486        13.0718      -999.2500     
10530.5000         8.7638         0.0251      -999.2500      -999.2500       200.2236        16.8825        27.1139         2.5108        12.9620      -999.2500     
10531.0000         8.7984         0.0845      -999.2500      -999.2500      -999.2500        14.8936        31.8859         2.4736        13.7122      -999.2500     
10531.5000         8.8580         0.0970      -999.2500      -999.2500      -999.2500        14.4242        39.3113         2.3990        14.6208      -999.2500     
10532.0000         8.9247         0.0573      -999.2500      -999.2500      -999.2500        14.7770        43.2785         2.2916        14.5711      -999.2500     
10532.5000         8.9013         0.0047      -999.2500      -999.2500      -999.2500        15.8504        37.7498         2.3059        14.1673      -999.2500     
10533.0000         8.8339        -0.0064      -999.2500      -999.2500      -999.2500        16.9883        28.5724         2.4614        13.7795      -999.2500     
10533.5000         8.8061         0.0047      -999.2500      -999.2500      -999.2500        18.7887        27.8077         2.5258        13.5341      -999.2500     
10534.0000         8.7950         0.0282      -999.2500      -999.2500      -999.2500        19.8850        32.2861         2.5036        13.7019      -999.2500     
10534.5000         8.7726         0.0137      -999.2500      -999.2500      -999.2500        20.2336        39.5739         2.4387        14.2836      -999.2500     
10535.0000         8.7481         0.0029      -999.2500      -999.2500      -999.2500        20.2317        41.8282         2.4338        15.3250      -999.2500     
10535.5000         8.7242         0.0078      -999.2500      -999.2500      -999.2500        20.2298        41.4112         2.4843        17.1232      -999.2500     
10536.0000         8.7462         0.0060      -999.2500      -999.2500      -999.2500        20.3622        40.0147         2.5404        18.2475      -999.2500     
10536.5000         8.7891         0.0056      -999.2500      -999.2500      -999.2500        21.1272        39.0175         2.5650        18.1225      -999.2500     
10537.0000         8.8317        -0.0016      -999.2500      -999.2500      -999.2500        20.7761        38.4952         2.5468        17.6192      -999.2500     
10537.5000         8.8271         0.0026      -999.2500      -999.2500      -999.2500        20.4370        37.7588         2.5098        16.9836      -999.2500     
10538.0000         8.8151         0.0032      -999.2500      -999.2500      -999.2500        20.1933        37.3577         2.4769        16.3068      -999.2500     
10538.5000         8.8030         0.0074      -999.2500      -999.2500      -999.2500        20.1114      -999.2500         2.4864        15.5902      -999.2500     
10539.0000         8.7995         0.0069      -999.2500      -999.2500      -999.2500        20.0532      -999.2500         2.5002        15.1807      -999.2500     
10539.5000         8.8000         0.0030      -999.2500      -999.2500      -999.2500        21.2232      -999.2500         2.5015        14.8279      -999.2500     
10540.0000         8.7875         0.0113      -999.2500      -999.2500      -999.2500        22.9518      -999.2500         2.4746        14.7771      -999.2500     
10540.5000         8.7314         0.0091      -999.2500      -999.2500      -999.2500        26.5109      -999.2500         2.4644        15.1369      -999.2500     
10541.0000         8.7484         0.0051      -999.2500      -999.2500      -999.2500        36.5931      -999.2500         2.4728        15.6519      -999.2500     
