~Version Information Section
VERS.          2.0                                     : CWLS LOG ASCII Standard
WRAP.          NO                                      : One line per depth step
CREA.          03/08/17                                : LAS Creation Date
~Well Information Section
STRT.ft        521.0000                                : Start Depth
STOP.ft        10547.0000                              : Stop Depth
STEP.ft        0.5000                                  : Step
NULL.          -999.2500                               : Null Value
COMP.          TEXACO PRODUCTION SERVICES LTD.         : Company
WELL.          14/20-8                                 : Well
FLD .          MORAY FIRTH                             : Field
LOC .          NORTH SEA                               : Location
LOC1.          -                                       : Location (UTM)
CTRY.          UK                                      : Country
PROV.          UKCS                                    : Province
UWI .          865                                     : UWI Number
API .          -                                       : API Number
SECT.          -                                       : Section
TOWN.          -                                       : Township
RNGE.          -                                       : Range
PDAT.          MSL                                     : Perm Datum
EPD .ft        0                                       : Elevation
LMF .          KB                                      : Log Measured From
DMF .          KB                                      : Drill Measured From
APD .ft        78.00                                   : Above Perm Datum
EKB .ft        78.00                                   : Elev-Kelly Bushing
EDF .ft        -                                       : Elev-Drill Floor
EGL .ft        -447.00                                 : Elev-Ground Level (Water Depth)
TDD .ft        10560.00                                : Total Depth (Driller)
TDL .ft        -                                       : Total Depth (Logger)
SRVC.          SCHLUMBERGER                            : Service Company
LATI.          58 24 41.3" N                           : Latitude
LONG.          00 06 20.9" W                           : Longitude
DATE.          JUN-AUG-1976                            : Logging Date
PROJ.          UKCS                                    : Project
SET .          COMP_WIRE                               : Set
~Curve Information Section
DEPTH.ft                                               : Depth Curve
CALI.in                                                : Caliper (FDC/CNL/GR)
DRHO.g/cc                                              : Delta Rho
DT.us/ft                                               : Delta T
GR.gAPI                                                : Gamma Ray (ISF/BHC/GR)
GRD.gAPI                                               : Gamma Ray (FDC/CNL/GR)
ILD.Ohmm                                               : Deep Induction Standard Processed Resistivity
NPHI.LPU                                               : Neutron Porosity
RHOB.g/cc                                              : Bulk Density
SFLU.Ohmm                                              : Spherically Focussed Log
SP.mV                                                  : Spontaneous Potential
~ASCII Log Data Section
# ...
 7528.0000      -999.2500      -999.2500        73.1369        18.3177      -999.2500         5.2806      -999.2500      -999.2500         4.1039         2.0030     
 7528.5000      -999.2500      -999.2500        72.6797        18.9393      -999.2500         5.2973      -999.2500      -999.2500         4.1712         1.9683     
 7529.0000      -999.2500      -999.2500        72.4782        18.3260      -999.2500         5.3432      -999.2500      -999.2500         4.1927         1.9336     
 7529.5000      -999.2500      -999.2500        72.0771        18.0259      -999.2500         5.4147      -999.2500      -999.2500         4.2058         1.9122     
 7530.0000      -999.2500      -999.2500        71.9331        17.3950      -999.2500         5.4860      -999.2500      -999.2500         4.1850         2.0403     
 7530.5000      -999.2500      -999.2500        71.0770        16.4826      -999.2500         5.5574      -999.2500      -999.2500         4.1566         2.1685     
 7531.0000      -999.2500      -999.2500        71.1330        16.0611      -999.2500         5.6288      -999.2500      -999.2500         4.1152         2.2966     
 7531.5000      -999.2500      -999.2500        71.8549        15.3823      -999.2500         5.7003      -999.2500      -999.2500         4.0659         2.3091     
 7532.0000      -999.2500      -999.2500        71.9239        15.1841      -999.2500         5.7734      -999.2500      -999.2500         4.0832         2.3005     
 7532.5000      -999.2500      -999.2500        71.4676        15.0921      -999.2500         5.8896      -999.2500      -999.2500         4.3903         2.2845     
 7533.0000      -999.2500      -999.2500        69.3610        15.8435      -999.2500         6.0058      -999.2500      -999.2500         4.6974         2.2686     
 7533.5000      -999.2500      -999.2500        68.7892        15.9333      -999.2500         6.1220      -999.2500      -999.2500         4.8286         2.2527     
 7534.0000      -999.2500      -999.2500        69.1841        15.9789      -999.2500         6.2253      -999.2500      -999.2500         4.5482         2.2367     
 7534.5000      -999.2500      -999.2500        70.0621        15.6180      -999.2500         6.2794      -999.2500      -999.2500         4.3497         2.2208     
 7535.0000      -999.2500      -999.2500        70.7156        15.5032      -999.2500         6.3279      -999.2500      -999.2500         4.4486         2.2049     
 7535.5000      -999.2500      -999.2500        70.2599        15.6542      -999.2500         6.2541      -999.2500      -999.2500         4.5681         2.1889     
 7536.0000      -999.2500      -999.2500        69.5167        15.4928      -999.2500         6.1802      -999.2500      -999.2500         4.5127         2.1730     
 7536.5000      -999.2500      -999.2500        69.5420        15.1114      -999.2500         6.0932      -999.2500      -999.2500         4.4444         2.1570     
 7537.0000      -999.2500      -999.2500        69.7657        14.9981      -999.2500         6.0009      -999.2500      -999.2500         4.3696         2.1411     
 7537.5000      -999.2500      -999.2500        70.3683        15.6771      -999.2500         5.9085      -999.2500      -999.2500         4.2638         2.1554     
 7538.0000      -999.2500      -999.2500        71.0486        15.9237      -999.2500         5.7506      -999.2500      -999.2500         4.1601         2.2573     
 7538.5000      -999.2500      -999.2500        72.0929        16.6076      -999.2500         5.5666      -999.2500      -999.2500         4.0636         2.3591     
 7539.0000      -999.2500      -999.2500        72.0906        17.0584      -999.2500         5.3291      -999.2500      -999.2500         4.0866         2.4609     
 7539.5000      -999.2500      -999.2500        71.4698        17.5094      -999.2500         5.1381      -999.2500      -999.2500         4.0649         2.5576     
 7540.0000      -999.2500      -999.2500        71.6240        17.3943      -999.2500         5.0580      -999.2500      -999.2500         3.9502         2.6395     
 7540.5000      -999.2500      -999.2500        72.8598        17.3951      -999.2500         4.9770      -999.2500      -999.2500         3.7663         2.7214     
 7541.0000      -999.2500      -999.2500        74.0718        17.9420      -999.2500         4.8786      -999.2500      -999.2500         3.5918         2.6460     
 7541.5000      -999.2500      -999.2500        75.0227        19.0873      -999.2500         4.7926      -999.2500      -999.2500         3.5214         2.5213     
 7542.0000      -999.2500      -999.2500        75.6583        19.0663      -999.2500         4.7523      -999.2500      -999.2500         3.6178         2.3965     
 7542.5000      -999.2500      -999.2500        75.0073        18.0201      -999.2500         4.7184      -999.2500      -999.2500         3.6890         2.3009     
 7543.0000      -999.2500      -999.2500        74.8586        16.6325      -999.2500         4.8085      -999.2500      -999.2500         3.7061         2.2251     
 7543.5000      -999.2500      -999.2500        75.6524        15.8927      -999.2500         4.8987      -999.2500      -999.2500         3.6692         2.1493     
 7544.0000      -999.2500      -999.2500        75.0754        15.5190      -999.2500         4.9890      -999.2500      -999.2500         3.6945         2.0736     
 7544.5000      -999.2500      -999.2500        73.5780        14.8291      -999.2500         5.0832      -999.2500      -999.2500         3.9405         1.9977     
 7545.0000      -999.2500      -999.2500        72.1082        14.7032      -999.2500         5.1386      -999.2500      -999.2500         4.3069         1.9555     
 7545.5000      -999.2500      -999.2500        70.7631        14.7044      -999.2500         5.1629      -999.2500      -999.2500         4.3215         1.9572     
 7546.0000      -999.2500      -999.2500        70.4661        14.8285      -999.2500         5.1389      -999.2500      -999.2500         3.9850         1.9589     
 7546.5000      -999.2500      -999.2500        71.9054        15.1256      -999.2500         5.0685      -999.2500      -999.2500         3.8308         1.9607     
 7547.0000      -999.2500      -999.2500        72.2527        16.3464      -999.2500         4.8722      -999.2500      -999.2500         3.7776         1.9624     
 7547.5000      -999.2500      -999.2500        72.0006        16.9082      -999.2500         4.7087      -999.2500      -999.2500         3.6963         1.9641     
 7548.0000      -999.2500      -999.2500        71.6005        18.0935      -999.2500         4.5494      -999.2500      -999.2500         3.5890         1.9658     
 7548.5000      -999.2500      -999.2500        71.5002        18.8439      -999.2500         4.3736      -999.2500      -999.2500         3.5028         1.9787     
 7549.0000      -999.2500      -999.2500        72.0951        19.1125      -999.2500         4.2775      -999.2500      -999.2500         3.3839         2.0220     
 7549.5000      -999.2500      -999.2500        72.4899        18.8638      -999.2500         4.3181      -999.2500      -999.2500         3.3012         2.0651     
 7550.0000      -999.2500      -999.2500        72.6368        17.9006      -999.2500         4.3586      -999.2500      -999.2500         3.2946         2.1083     
 7550.5000      -999.2500      -999.2500        73.0570        16.7356      -999.2500         4.3992      -999.2500      -999.2500         3.3875         2.1515     
 7551.0000      -999.2500      -999.2500        73.2541        15.7180      -999.2500         4.4548      -999.2500      -999.2500         3.7569         2.2095     
 7551.5000      -999.2500      -999.2500        73.4259        15.7923      -999.2500         4.5338      -999.2500      -999.2500         3.8461         2.2864     
 7552.0000      -999.2500      -999.2500        73.3260        16.0279      -999.2500         4.6128      -999.2500      -999.2500         3.8240         2.3633     
