~Version Information Section
VERS.          2.0                                     : CWLS LOG ASCII Standard
WRAP.          NO                                      : One line per depth step
CREA.          03/08/17                                : LAS Creation Date
~Well Information Section
STRT.ft        521.0000                                : Start Depth
STOP.ft        10547.0000                              : Stop Depth
STEP.ft        0.5000                                  : Step
NULL.          -999.2500                               : Null Value
COMP.          TEXACO PRODUCTION SERVICES LTD.         : Company
WELL.          14/20-8                                 : Well
FLD .          MORAY FIRTH                             : Field
LOC .          NORTH SEA                               : Location
LOC1.          -                                       : Location (UTM)
CTRY.          UK                                      : Country
PROV.          UKCS                                    : Province
UWI .          865                                     : UWI Number
API .          -                                       : API Number
SECT.          -                                       : Section
TOWN.          -                                       : Township
RNGE.          -                                       : Range
PDAT.          MSL                                     : Perm Datum
EPD .ft        0                                       : Elevation
LMF .          KB                                      : Log Measured From
DMF .          KB                                      : Drill Measured From
APD .ft        78.00                                   : Above Perm Datum
EKB .ft        78.00                                   : Elev-Kelly Bushing
EDF .ft        -                                       : Elev-Drill Floor
EGL .ft        -447.00                                 : Elev-Ground Level (Water Depth)
TDD .ft        10560.00                                : Total Depth (Driller)
TDL .ft        -                                       : Total Depth (Logger)
SRVC.          SCHLUMBERGER                            : Service Company
LATI.          58 24 41.3" N                           : Latitude
LONG.          00 06 20.9" W                           : Longitude
DATE.          JUN-AUG-1976                            : Logging Date
PROJ.          UKCS                                    : Project
SET .          COMP_WIRE                               : Set
~Curve Information Section
DEPTH.ft                                               : Depth Curve
CALI.in                                                : Caliper (FDC/CNL/GR)
DRHO.g/cc                                              : Delta Rho
DT.us/ft                                               : Delta T
GR.gAPI                                                : Gamma Ray (ISF/BHC/GR)
GRD.gAPI                                               : Gamma Ray (FDC/CNL/GR)
ILD.Ohmm                                               : Deep Induction Standard Processed Resistivity
NPHI.LPU                                               : Neutron Porosity
RHOB.g/cc                                              : Bulk Density
SFLU.Ohmm                                              : Spherically Focussed Log
SP.mV                                                  : Spontaneous Potential
~ASCII Log Data Section
# ...
 4539.0000      -999.2500      -999.2500       170.1041        54.8157      -999.2500         0.7622      -999.2500      -999.2500         0.5079        68.0559     
 4539.5000      -999.2500      -999.2500       171.1782        54.5265      -999.2500         0.7672      -999.2500      -999.2500         0.5079        67.9421     
 4540.0000      -999.2500      -999.2500       171.1982        53.4739      -999.2500         0.7653      -999.2500      -999.2500         0.5089        67.8202     
 4540.5000      -999.2500      -999.2500       171.7541        53.8203      -999.2500         0.7539      -999.2500      -999.2500         0.5123        67.6983     
 4541.0000      -999.2500      -999.2500       172.0499        53.7719      -999.2500         0.7439      -999.2500      -999.2500         0.5158        67.5762     
 4541.5000      -999.2500      -999.2500       170.5464        53.1230      -999.2500         0.7349      -999.2500      -999.2500         0.5193        67.4543     
 4542.0000      -999.2500      -999.2500       169.5916        53.7921      -999.2500         0.7259      -999.2500      -999.2500         0.5220        67.3323     
 4542.5000      -999.2500      -999.2500       168.0686        53.7622      -999.2500         0.7256      -999.2500      -999.2500         0.5173        67.3219     
 4543.0000      -999.2500      -999.2500       167.5838        53.4364      -999.2500         0.7320      -999.2500      -999.2500         0.5130        67.5717     
 4543.5000      -999.2500      -999.2500       167.9387        51.4359      -999.2500         0.7393      -999.2500      -999.2500         0.5130        67.8215     
 4544.0000      -999.2500      -999.2500       169.0804        49.9814      -999.2500         0.7466      -999.2500      -999.2500         0.5148        68.0714     
 4544.5000      -999.2500      -999.2500       170.6038        47.8754      -999.2500         0.7563      -999.2500      -999.2500         0.5342        68.3212     
 4545.0000      -999.2500      -999.2500       169.2735        47.6334      -999.2500         0.7677      -999.2500      -999.2500         0.5537        68.5253     
 4545.5000      -999.2500      -999.2500       164.7571        48.0384      -999.2500         0.7787      -999.2500      -999.2500         0.5726        68.6767     
 4546.0000      -999.2500      -999.2500       152.8885        48.7360      -999.2500         0.7861      -999.2500      -999.2500         0.5902        68.8283     
 4546.5000      -999.2500      -999.2500       141.9504        47.9944      -999.2500         0.7928      -999.2500      -999.2500         0.6074        68.5794     
 4547.0000      -999.2500      -999.2500       138.7091        47.9755      -999.2500         0.7928      -999.2500      -999.2500         0.6159        68.2302     
 4547.5000      -999.2500      -999.2500       141.6859        48.6918      -999.2500         0.7929      -999.2500      -999.2500         0.6043        67.8807     
 4548.0000      -999.2500      -999.2500       139.6571        48.5412      -999.2500         0.7930      -999.2500      -999.2500         0.5860        67.5315     
 4548.5000      -999.2500      -999.2500       138.3916        47.6052      -999.2500         0.7910      -999.2500      -999.2500         0.5820        67.5006     
 4549.0000      -999.2500      -999.2500       136.6344        47.4520      -999.2500         0.7830      -999.2500      -999.2500         0.5794        67.5481     
 4549.5000      -999.2500      -999.2500       134.2174        49.4000      -999.2500         0.7749      -999.2500      -999.2500         0.5713        67.5957     
 4550.0000      -999.2500      -999.2500       131.3308        51.2908      -999.2500         0.7669      -999.2500      -999.2500         0.5652        67.6432     
 4550.5000      -999.2500      -999.2500       126.6534        51.3734      -999.2500         0.7591      -999.2500      -999.2500         0.5852        67.6300     
 4551.0000      -999.2500      -999.2500       122.5279        49.8529      -999.2500         0.7513      -999.2500      -999.2500         0.5918        67.5484     
 4551.5000      -999.2500      -999.2500       119.3505        47.0953      -999.2500         0.7438      -999.2500      -999.2500         0.5938        67.4669     
 4552.0000      -999.2500      -999.2500       118.1152        45.2103      -999.2500         0.7362      -999.2500      -999.2500         0.5855        67.3854     
 4552.5000      -999.2500      -999.2500       125.1649        44.3820      -999.2500         0.7263      -999.2500      -999.2500         0.5660        67.3038     
 4553.0000      -999.2500      -999.2500       136.5920        44.0113      -999.2500         0.7164      -999.2500      -999.2500         0.5465        67.3451     
 4553.5000      -999.2500      -999.2500       142.4662        43.7726      -999.2500         0.7065      -999.2500      -999.2500         0.5289        67.4556     
 4554.0000      -999.2500      -999.2500       145.6572        44.2668      -999.2500         0.6973      -999.2500      -999.2500         0.5140        67.6820     
 4554.5000      -999.2500      -999.2500       145.8709        45.5128      -999.2500         0.6948      -999.2500      -999.2500         0.5141        67.9361     
 4555.0000      -999.2500      -999.2500       146.6125        46.9803      -999.2500         0.6923      -999.2500      -999.2500         0.5165        68.1903     
 4555.5000      -999.2500      -999.2500       149.3212        47.6941      -999.2500         0.6963      -999.2500      -999.2500         0.5199        68.3851     
 4556.0000      -999.2500      -999.2500       161.7407        47.8661      -999.2500         0.7053      -999.2500      -999.2500         0.5322        68.5467     
 4556.5000      -999.2500      -999.2500       164.3038        48.0457      -999.2500         0.7142      -999.2500      -999.2500         0.5438        68.6559     
 4557.0000      -999.2500      -999.2500       164.1285        49.0965      -999.2500         0.7231      -999.2500      -999.2500         0.5464        68.4425     
 4557.5000      -999.2500      -999.2500       162.3211        51.0682      -999.2500         0.7320      -999.2500      -999.2500         0.5484        68.2293     
 4558.0000      -999.2500      -999.2500       160.8802        52.1013      -999.2500         0.7409      -999.2500      -999.2500         0.5438        68.0159     
 4558.5000      -999.2500      -999.2500       160.3865        51.8786      -999.2500         0.7447      -999.2500      -999.2500         0.5392        67.8028     
 4559.0000      -999.2500      -999.2500       160.1088        52.7167      -999.2500         0.7448      -999.2500      -999.2500         0.5366        67.8058     
 4559.5000      -999.2500      -999.2500       159.2042        52.6337      -999.2500         0.7449      -999.2500      -999.2500         0.5342        68.0473     
 4560.0000      -999.2500      -999.2500       157.3770        51.4841      -999.2500         0.7442      -999.2500      -999.2500         0.5302        68.2887     
 4560.5000      -999.2500      -999.2500       155.3803        50.5565      -999.2500         0.7426      -999.2500      -999.2500         0.5260        68.4961     
 4561.0000      -999.2500      -999.2500       155.3904        51.0081      -999.2500         0.7409      -999.2500      -999.2500         0.5232        68.4974     
 4561.5000      -999.2500      -999.2500       156.1877        51.7508      -999.2500         0.7393      -999.2500      -999.2500         0.5213        68.4987     
 4562.0000      -999.2500      -999.2500       158.0101        53.0819      -999.2500         0.7389      -999.2500      -999.2500         0.5200        68.3196     
 4562.5000      -999.2500      -999.2500       158.8774        53.6213      -999.2500         0.7404      -999.2500      -999.2500         0.5266        68.1360     
 4563.0000      -999.2500      -999.2500       158.3123        54.1146      -999.2500         0.7419      -999.2500      -999.2500         0.5350        68.1024     
