~Version Information Section
VERS.          2.0                                     : CWLS LOG ASCII Standard
WRAP.          NO                                      : One line per depth step
CREA.          03/08/17                                : LAS Creation Date
~Well Information Section
STRT.ft        521.0000                                : Start Depth
STOP.ft        10547.0000                              : Stop Depth
STEP.ft        0.5000                                  : Step
NULL.          -999.2500                               : Null Value
COMP.          TEXACO PRODUCTION SERVICES LTD.         : Company
WELL.          14/20-8                                 : Well
FLD .          MORAY FIRTH                             : Field
LOC .          NORTH SEA                               : Location
LOC1.          -                                       : Location (UTM)
CTRY.          UK                                      : Country
PROV.          UKCS                                    : Province
UWI .          865                                     : UWI Number
API .          -                                       : API Number
SECT.          -                                       : Section
TOWN.          -                                       : Township
RNGE.          -                                       : Range
PDAT.          MSL                                     : Perm Datum
EPD .ft        0                                       : Elevation
LMF .          KB                                      : Log Measured From
DMF .          KB                                      : Drill Measured From
APD .ft        78.00                                   : Above Perm Datum
EKB .ft        78.00                                   : Elev-Kelly Bushing
EDF .ft        -                                       : Elev-Drill Floor
EGL .ft        -447.00                                 : Elev-Ground Level (Water Depth)
TDD .ft        10560.00                                : Total Depth (Driller)
TDL .ft        -                                       : Total Depth (Logger)
SRVC.          SCHLUMBERGER                            : Service Company
LATI.          58 24 41.3" N                           : Latitude
LONG.          00 06 20.9" W                           : Longitude
DATE.          JUN-AUG-1976                            : Logging Date
PROJ.          UKCS                                    : Project
SET .          COMP_WIRE                               : Set
~Curve Information Section
DEPTH.ft                                               : Depth Curve
CALI.in                                                : Caliper (FDC/CNL/GR)
DRHO.g/cc                                              : Delta Rho
DT.us/ft                                               : Delta T
GR.gAPI                                                : Gamma Ray (ISF/BHC/GR)
GRD.gAPI                                               : Gamma Ray (FDC/CNL/GR)
ILD.Ohmm                                               : Deep Induction Standard Processed Resistivity
NPHI.LPU                                               : Neutron Porosity
RHOB.g/cc                                              : Bulk Density
SFLU.Ohmm                                              : Spherically Focussed Log
SP.mV                                                  : Spontaneous Potential
~ASCII Log Data Section
# ...
 9316.5000         9.5862         0.0023        87.1775        47.0905        49.7440         1.5715        14.3194         2.5461         2.7762        17.9450     
 9317.0000         9.5796         0.0125        84.2611        47.9413        49.0151         1.6000        15.7157         2.5747         2.8298        18.9554     
 9317.5000         9.5765         0.0121        82.2537        46.7718        47.7684         1.6221        18.2776         2.5801         2.9508        19.2893     
 9318.0000         9.5767         0.0099        81.8383        43.0188        43.1417         1.6311        19.0428         2.5874         3.1038        19.0636     
 9318.5000         9.5770         0.0086        83.8427        39.7793        40.1459         1.6548        20.1602         2.5704         3.0738        18.1833     
 9319.0000         9.5772         0.0045        87.8131        37.7876        37.7013         1.6856        21.5311         2.5503         2.9684        17.2894     
 9319.5000         9.5774         0.0027        89.5253        37.9684        40.8554         1.7106        21.8456         2.5304         2.8949        16.6182     
 9320.0000         9.5777         0.0069        89.1986        38.6298        43.5579         1.7105        20.3988         2.5338         2.8472        17.3695     
 9320.5000         9.5779         0.0122        89.2748        38.5009        43.5475         1.7104        18.8773         2.5332         2.7069        18.8721     
 9321.0000         9.5781         0.0220        87.9423        39.0802        43.2116         1.7093        18.8310         2.5428         2.5477        19.4000     
 9321.5000         9.5784         0.0445        86.4955        38.6959        44.8920         1.6990        18.8077         2.5640         2.5195        19.6628     
 9322.0000         9.5821         0.0575        85.4708        37.1951        43.7600         1.6862        17.6036         2.5697         2.9238        19.4878     
 9322.5000         9.6067         0.0290        85.8314        35.6164        41.4633         1.6877        16.8889         2.5461         3.3207        19.1346     
 9323.0000         9.6313         0.0216        85.8449        34.0719        38.8554         1.7262        17.4086         2.5493         3.3790        18.8485     
 9323.5000         9.6551         0.0356        84.9421        32.9860        39.3531         1.8332        18.1503         2.5614         3.1962        18.6221     
 9324.0000         9.6496         0.0591        85.3469        33.2282        39.7569         1.8746        19.2496         2.5836         3.1732        18.9051     
 9324.5000         9.6382         0.0251        87.4448        32.8797        38.9053         1.8880        19.5755         2.5643         3.4466        19.1987     
 9325.0000         9.6268        -0.0004        87.5668        32.7533        40.7999         1.8815        18.8578         2.5437         3.5429        19.3463     
 9325.5000         9.6183        -0.0082        87.0598        32.7500        42.6004         1.8751        18.4578         2.5350         3.5238        19.4773     
 9326.0000         9.6138        -0.0109        86.7628        33.0543        43.6536         1.8686        18.6752         2.5311         3.4036        19.2510     
 9326.5000         9.6094        -0.0043        86.5320        34.0139        44.3534         1.8620        18.9027         2.5266         3.3630        18.8710     
 9327.0000         9.6049         0.0063        85.5293        34.4518        42.5831         1.8580        19.3646         2.5176         3.3119        18.4083     
 9327.5000         9.6011         0.0255        86.0546        34.3363        41.1694         1.8676        20.1973         2.5188         3.2212        18.0507     
 9328.0000         9.6014         0.0417        87.6455        34.5086        40.5793         1.8889        20.5376         2.5460         3.1614        18.5110     
 9328.5000         9.6016         0.0114        88.5473        35.4739        41.6461         1.9234        18.8986         2.5295         3.2710        18.1147     
 9329.0000         9.6018         0.0110        87.8612        37.3876        42.6018         1.9579        17.5371         2.5503         3.3817        17.0329     
 9329.5000         9.6010         0.0193        87.5381        38.9094        42.6055         1.9923        17.4557         2.5732         3.3904        17.4621     
 9330.0000         9.5918         0.0271        86.3903        39.6414        42.2655         2.0286        18.0334         2.5780         3.3632        18.3678     
 9330.5000         9.5818         0.0229        83.2747        38.1941        40.1930         2.0691        18.8862         2.5651         3.4315        19.1280     
 9331.0000         9.5719         0.0324        82.8674        35.5472        36.4258         2.1095        20.0544         2.5587         3.6052        19.2111     
 9331.5000         9.5791         0.0515        80.9955        33.9842        34.1021         2.1453        19.9480         2.5538         3.7754        19.2363     
 9332.0000         9.6968         0.0683        78.8722        33.5060        33.4787         2.1496        19.4495         2.5330         3.8981        18.8453     
 9332.5000         9.7835         0.0493        81.0128        33.0104        34.5016         2.1467        18.8995         2.4865         3.8249        18.0223     
 9333.0000         9.7838         0.0169        82.6443        32.4522        37.6124         2.1110        18.2674         2.4622         3.6370        17.0149     
 9333.5000         9.7834        -0.0015        85.5573        33.3593        40.4245         2.0657        18.0111         2.4729         3.4729        16.8144     
 9334.0000         9.7751         0.0039        88.2887        35.6517        43.2382         2.0202        18.0875         2.4954         3.3154        17.0013     
 9334.5000         9.7669         0.0131        88.1982        38.2562        46.2411         1.9719        17.9978         2.5060         3.2773        17.1887     
 9335.0000         9.7754         0.0048        86.3502        40.8355        49.2331         1.9227        17.6632         2.5023         3.3728        17.1777     
 9335.5000         9.7863         0.0174        88.1422        42.1501        48.8849         1.8736        17.9652         2.5194         3.2384        16.9893     
 9336.0000         9.7971         0.0247        88.2494        43.3223        47.4516         1.8292        18.2789         2.5217         2.9650        16.6855     
 9336.5000         9.8053         0.0234        88.0090        43.6714        46.2445         1.8313        18.5776         2.5053         2.8249        16.1858     
 9337.0000         9.8056         0.0008        89.2670        43.6507        45.8122         1.8448        18.8092         2.4913         2.8222        15.6845     
 9337.5000         9.8058        -0.0099        89.5981        43.9554        46.1557         1.8728        17.8358         2.4868         2.8954        16.0578     
 9338.0000         9.8060         0.0015        88.1436        43.4108        46.5023         1.9215        17.2786         2.5240         2.9387        17.1228     
 9338.5000         9.8062         0.0091        86.6225        42.7386        44.6951         1.9509        17.9776         2.5548         2.9384        18.1873     
 9339.0000         9.8040         0.0051        85.5378        42.2127        44.7331         1.9133        18.7239         2.5512         2.9876        18.9646     
 9339.5000         9.8004         0.0146        85.2234        42.1710        46.0639         1.8685        19.6600         2.5273         3.0967        19.5190     
 9340.0000         9.7969         0.0292        83.6483        43.1031        46.3469         1.8239        21.5769         2.5045         3.0058        19.5015     
 9340.5000         9.7933         0.0241        84.8242        43.7689        49.5134         1.7783        24.3939         2.4608         2.8421        18.6413     
