~Version Information Section
VERS.          2.0                                     : CWLS LOG ASCII Standard
WRAP.          NO                                      : One line per depth step
CREA.          03/08/17                                : LAS Creation Date
~Well Information Section
STRT.ft        521.0000                                : Start Depth
STOP.ft        10547.0000                              : Stop Depth
STEP.ft        0.5000                                  : Step
NULL.          -999.2500                               : Null Value
COMP.          TEXACO PRODUCTION SERVICES LTD.         : Company
WELL.          14/20-8                                 : Well
FLD .          MORAY FIRTH                             : Field
LOC .          NORTH SEA                               : Location
LOC1.          -                                       : Location (UTM)
CTRY.          UK                                      : Country
PROV.          UKCS                                    : Province
UWI .          865                                     : UWI Number
API .          -                                       : API Number
SECT.          -                                       : Section
TOWN.          -                                       : Township
RNGE.          -                                       : Range
PDAT.          MSL                                     : Perm Datum
EPD .ft        0                                       : Elevation
LMF .          KB                                      : Log Measured From
DMF .          KB                                      : Drill Measured From
APD .ft        78.00                                   : Above Perm Datum
EKB .ft        78.00                                   : Elev-Kelly Bushing
EDF .ft        -                                       : Elev-Drill Floor
EGL .ft        -447.00                                 : Elev-Ground Level (Water Depth)
TDD .ft        10560.00                                : Total Depth (Driller)
TDL .ft        -                                       : Total Depth (Logger)
SRVC.          SCHLUMBERGER                            : Service Company
LATI.          58 24 41.3" N                           : Latitude
LONG.          00 06 20.9" W                           : Longitude
DATE.          JUN-AUG-1976                            : Logging Date
PROJ.          UKCS                                    : Project
SET .          COMP_WIRE                               : Set
~Curve Information Section
DEPTH.ft                                               : Depth Curve
CALI.in                                                : Caliper (FDC/CNL/GR)
DRHO.g/cc                                              : Delta Rho
DT.us/ft                                               : Delta T
GR.gAPI                                                : Gamma Ray (ISF/BHC/GR)
GRD.gAPI                                               : Gamma Ray (FDC/CNL/GR)
ILD.Ohmm                                               : Deep Induction Standard Processed Resistivity
NPHI.LPU                                               : Neutron Porosity
RHOB.g/cc                                              : Bulk Density
SFLU.Ohmm                                              : Spherically Focussed Log
SP.mV                                                  : Spontaneous Potential
~ASCII Log Data Section
# ...
 3338.5000      -999.2500      -999.2500       124.4173        27.1988      -999.2500         1.0140      -999.2500      -999.2500         0.3712        59.2502     
 3339.0000      -999.2500      -999.2500       126.9130        26.1476      -999.2500         1.0104      -999.2500      -999.2500         0.3564        59.0180     
 3339.5000      -999.2500      -999.2500       130.4223        24.9651      -999.2500         1.0002      -999.2500      -999.2500         0.3489        59.0172     
 3340.0000      -999.2500      -999.2500       130.9773        24.1003      -999.2500         0.9750      -999.2500      -999.2500         0.3454        59.0164     
 3340.5000      -999.2500      -999.2500       130.3269        24.3947      -999.2500         0.9498      -999.2500      -999.2500         0.3431        59.0156     
 3341.0000      -999.2500      -999.2500       129.4967        24.5272      -999.2500         0.9336      -999.2500      -999.2500         0.3409        59.0148     
 3341.5000      -999.2500      -999.2500       127.7162        24.4604      -999.2500         0.9195      -999.2500      -999.2500         0.3356        59.0139     
 3342.0000      -999.2500      -999.2500       126.9603        24.4327      -999.2500         0.9253      -999.2500      -999.2500         0.3323        59.0131     
 3342.5000      -999.2500      -999.2500       128.3264        24.0994      -999.2500         0.9316      -999.2500      -999.2500         0.3285        59.0123     
 3343.0000      -999.2500      -999.2500       129.6917        23.5782      -999.2500         0.9322      -999.2500      -999.2500         0.3243        59.0115     
 3343.5000      -999.2500      -999.2500       130.2622        23.1277      -999.2500         0.9195      -999.2500      -999.2500         0.3200        59.0107     
 3344.0000      -999.2500      -999.2500       129.8557        22.4245      -999.2500         0.9091      -999.2500      -999.2500         0.3177        59.0098     
 3344.5000      -999.2500      -999.2500       127.3186        20.7715      -999.2500         0.9043      -999.2500      -999.2500         0.3164        59.0090     
 3345.0000      -999.2500      -999.2500       124.1442        19.6618      -999.2500         0.8995      -999.2500      -999.2500         0.3151        59.0082     
 3345.5000      -999.2500      -999.2500       122.5608        19.2513      -999.2500         0.8947      -999.2500      -999.2500         0.3140        59.0074     
 3346.0000      -999.2500      -999.2500       123.7594        19.7300      -999.2500         0.9055      -999.2500      -999.2500         0.3129        59.0066     
 3346.5000      -999.2500      -999.2500       125.7510        19.9278      -999.2500         0.9203      -999.2500      -999.2500         0.3145        59.0057     
 3347.0000      -999.2500      -999.2500       127.7433        20.0459      -999.2500         0.9350      -999.2500      -999.2500         0.3167        59.0049     
 3347.5000      -999.2500      -999.2500       125.8166        20.8013      -999.2500         0.9588      -999.2500      -999.2500         0.3192        59.0041     
 3348.0000      -999.2500      -999.2500       124.2794        21.4738      -999.2500         0.9830      -999.2500      -999.2500         0.3237        59.0033     
 3348.5000      -999.2500      -999.2500       123.3704        22.1869      -999.2500         1.0072      -999.2500      -999.2500         0.3295        59.0025     
 3349.0000      -999.2500      -999.2500       123.2587        22.5342      -999.2500         1.0314      -999.2500      -999.2500         0.3427        59.0016     
 3349.5000      -999.2500      -999.2500       124.5476        22.8615      -999.2500         1.0675      -999.2500      -999.2500         0.3560        59.0008     
 3350.0000      -999.2500      -999.2500       124.6309        23.1351      -999.2500         1.1187      -999.2500      -999.2500         0.3692        59.0000     
 3350.5000      -999.2500      -999.2500       121.2223        23.5451      -999.2500         1.1758      -999.2500      -999.2500         0.3825        58.9992     
 3351.0000      -999.2500      -999.2500       117.8136        24.0147      -999.2500         1.2491      -999.2500      -999.2500         0.4070        58.9984     
 3351.5000      -999.2500      -999.2500       115.2192        24.1370      -999.2500         1.3223      -999.2500      -999.2500         0.4317        58.9975     
 3352.0000      -999.2500      -999.2500       113.7065        24.2858      -999.2500         1.3726      -999.2500      -999.2500         0.4564        58.9967     
 3352.5000      -999.2500      -999.2500       112.8137        24.2502      -999.2500         1.3917      -999.2500      -999.2500         0.4812        58.9959     
 3353.0000      -999.2500      -999.2500       113.9306        24.5498      -999.2500         1.4107      -999.2500      -999.2500         0.5107        58.9951     
 3353.5000      -999.2500      -999.2500       114.7963        25.6876      -999.2500         1.4244      -999.2500      -999.2500         0.5415        58.9943     
 3354.0000      -999.2500      -999.2500       113.4143        26.5900      -999.2500         1.4362      -999.2500      -999.2500         0.5723        58.9934     
 3354.5000      -999.2500      -999.2500       113.6497        26.6307      -999.2500         1.4480      -999.2500      -999.2500         0.5719        58.9926     
 3355.0000      -999.2500      -999.2500       113.1302        25.8503      -999.2500         1.4653      -999.2500      -999.2500         0.5698        58.9918     
 3355.5000      -999.2500      -999.2500       113.7076        24.3374      -999.2500         1.4903      -999.2500      -999.2500         0.5676        58.9946     
 3356.0000      -999.2500      -999.2500       113.8167        23.0597      -999.2500         1.5006      -999.2500      -999.2500         0.5654        59.0105     
 3356.5000      -999.2500      -999.2500       113.4750        22.8207      -999.2500         1.4642      -999.2500      -999.2500         0.5627        58.9893     
 3357.0000      -999.2500      -999.2500       112.4832        23.1515      -999.2500         1.4096      -999.2500      -999.2500         0.5571        58.9885     
 3357.5000      -999.2500      -999.2500       111.2925        23.8402      -999.2500         1.3487      -999.2500      -999.2500         0.5507        58.9877     
 3358.0000      -999.2500      -999.2500       110.6596        23.9875      -999.2500         1.2903      -999.2500      -999.2500         0.5411        58.9869     
 3358.5000      -999.2500      -999.2500       111.5636        24.3279      -999.2500         1.2400      -999.2500      -999.2500         0.5243        58.9861     
 3359.0000      -999.2500      -999.2500       112.7040        24.4566      -999.2500         1.1898      -999.2500      -999.2500         0.5049        58.9852     
 3359.5000      -999.2500      -999.2500       115.0785        23.5472      -999.2500         1.1403      -999.2500      -999.2500         0.4853        58.9844     
 3360.0000      -999.2500      -999.2500       120.7875        22.1470      -999.2500         1.0910      -999.2500      -999.2500         0.4658        58.9836     
 3360.5000      -999.2500      -999.2500       126.3051        21.4370      -999.2500         1.0442      -999.2500      -999.2500         0.4448        58.9828     
 3361.0000      -999.2500      -999.2500       128.5261        21.5655      -999.2500         1.0055      -999.2500      -999.2500         0.4350        58.9819     
 3361.5000      -999.2500      -999.2500       129.6702        21.5524      -999.2500         0.9677      -999.2500      -999.2500         0.4291        58.9811     
 3362.0000      -999.2500      -999.2500       130.0736        21.0437      -999.2500         0.9415      -999.2500      -999.2500         0.4219        59.1762     
 3362.5000      -999.2500      -999.2500       130.7696        19.7035      -999.2500         0.9241      -999.2500      -999.2500         0.4146        59.1796     
