~Version Information Section
VERS.          2.0                                     : CWLS LOG ASCII Standard
WRAP.          NO                                      : One line per depth step
CREA.          03/08/17                                : LAS Creation Date
~Well Information Section
STRT.ft        521.0000                                : Start Depth
STOP.ft        10547.0000                              : Stop Depth
STEP.ft        0.5000                                  : Step
NULL.          -999.2500                               : Null Value
COMP.          TEXACO PRODUCTION SERVICES LTD.         : Company
WELL.          14/20-8                                 : Well
FLD .          MORAY FIRTH                             : Field
LOC .          NORTH SEA                               : Location
LOC1.          -                                       : Location (UTM)
CTRY.          UK                                      : Country
PROV.          UKCS                                    : Province
UWI .          865                                     : UWI Number
API .          -                                       : API Number
SECT.          -                                       : Section
TOWN.          -                                       : Township
RNGE.          -                                       : Range
PDAT.          MSL                                     : Perm Datum
EPD .ft        0                                       : Elevation
LMF .          KB                                      : Log Measured From
DMF .          KB                                      : Drill Measured From
APD .ft        78.00                                   : Above Perm Datum
EKB .ft        78.00                                   : Elev-Kelly Bushing
EDF .ft        -                                       : Elev-Drill Floor
EGL .ft        -447.00                                 : Elev-Ground Level (Water Depth)
TDD .ft        10560.00                                : Total Depth (Driller)
TDL .ft        -                                       : Total Depth (Logger)
SRVC.          SCHLUMBERGER                            : Service Company
LATI.          58 24 41.3" N                           : Latitude
LONG.          00 06 20.9" W                           : Longitude
DATE.          JUN-AUG-1976                            : Logging Date
PROJ.          UKCS                                    : Project
SET .          COMP_WIRE                               : Set
~Curve Information Section
DEPTH.ft                                               : Depth Curve
CALI.in                                                : Caliper (FDC/CNL/GR)
DRHO.g/cc                                              : Delta Rho
DT.us/ft                                               : Delta T
GR.gAPI                                                : Gamma Ray (ISF/BHC/GR)
GRD.gAPI                                               : Gamma Ray (FDC/CNL/GR)
ILD.Ohmm                                               : Deep Induction Standard Processed Resistivity
NPHI.LPU                                               : Neutron Porosity
RHOB.g/cc                                              : Bulk Density
SFLU.Ohmm                                              : Spherically Focussed Log
SP.mV                                                  : Spontaneous Potential
~ASCII Log Data Section
# ...
 5739.5000      -999.2500      -999.2500       117.2895        37.8272      -999.2500         0.7759      -999.2500      -999.2500         0.5597        42.4415     
 5740.0000      -999.2500      -999.2500       109.4157        37.6081      -999.2500         0.7674      -999.2500      -999.2500         0.5593        42.2984     
 5740.5000      -999.2500      -999.2500       102.9745        36.5570      -999.2500         0.7624      -999.2500      -999.2500         0.5529        42.1553     
 5741.0000      -999.2500      -999.2500       105.8651        34.9854      -999.2500         0.7624      -999.2500      -999.2500         0.5427        42.0882     
 5741.5000      -999.2500      -999.2500       112.3133        33.7841      -999.2500         0.7755      -999.2500      -999.2500         0.5257        42.1411     
 5742.0000      -999.2500      -999.2500       127.1243        33.6542      -999.2500         0.7898      -999.2500      -999.2500         0.5093        42.1941     
 5742.5000      -999.2500      -999.2500       131.6105        34.4993      -999.2500         0.7939      -999.2500      -999.2500         0.5080        42.2471     
 5743.0000      -999.2500      -999.2500       132.5786        34.0830      -999.2500         0.7971      -999.2500      -999.2500         0.5205        42.2714     
 5743.5000      -999.2500      -999.2500       126.6172        32.2485      -999.2500         0.8012      -999.2500      -999.2500         0.5420        42.2489     
 5744.0000      -999.2500      -999.2500       117.0732        32.1439      -999.2500         0.8054      -999.2500      -999.2500         0.5636        42.1882     
 5744.5000      -999.2500      -999.2500       109.7519        33.3997      -999.2500         0.7995      -999.2500      -999.2500         0.5840        42.1275     
 5745.0000      -999.2500      -999.2500       104.2161        34.7382      -999.2500         0.7936      -999.2500      -999.2500         0.6035        42.0668     
 5745.5000      -999.2500      -999.2500       100.7278        36.4403      -999.2500         0.7870      -999.2500      -999.2500         0.6287        42.0061     
 5746.0000      -999.2500      -999.2500       104.6626        38.3036      -999.2500         0.7765      -999.2500      -999.2500         0.6398        41.9454     
 5746.5000      -999.2500      -999.2500       104.7009        39.1402      -999.2500         0.7637      -999.2500      -999.2500         0.6200        41.8848     
 5747.0000      -999.2500      -999.2500       103.8100        39.1315      -999.2500         0.7378      -999.2500      -999.2500         0.5866        41.5639     
 5747.5000      -999.2500      -999.2500       102.5389        38.5524      -999.2500         0.7118      -999.2500      -999.2500         0.5591        41.2046     
 5748.0000      -999.2500      -999.2500       105.3213        37.7519      -999.2500         0.6880      -999.2500      -999.2500         0.5393        40.8455     
 5748.5000      -999.2500      -999.2500       106.8764        35.7380      -999.2500         0.6642      -999.2500      -999.2500         0.5357        40.7304     
 5749.0000      -999.2500      -999.2500       107.6969        33.8168      -999.2500         0.6519      -999.2500      -999.2500         0.5403        40.8271     
 5749.5000      -999.2500      -999.2500       103.0490        33.2997      -999.2500         0.6489      -999.2500      -999.2500         0.5189        40.9239     
 5750.0000      -999.2500      -999.2500       106.7513        33.4998      -999.2500         0.6624      -999.2500      -999.2500         0.5047        41.0206     
 5750.5000      -999.2500      -999.2500       110.6108        34.5337      -999.2500         0.6892      -999.2500      -999.2500         0.5033        40.9088     
 5751.0000      -999.2500      -999.2500       114.4879        35.6320      -999.2500         0.7016      -999.2500      -999.2500         0.5184        40.4293     
 5751.5000      -999.2500      -999.2500       116.5929        36.7942      -999.2500         0.7016      -999.2500      -999.2500         0.5620        40.2926     
 5752.0000      -999.2500      -999.2500       113.0390        38.7888      -999.2500         0.7088      -999.2500      -999.2500         0.6062        40.6264     
 5752.5000      -999.2500      -999.2500       108.9199        40.7573      -999.2500         0.7272      -999.2500      -999.2500         0.6109        40.9604     
 5753.0000      -999.2500      -999.2500       107.8308        42.1258      -999.2500         0.7383      -999.2500      -999.2500         0.6008        41.2835     
 5753.5000      -999.2500      -999.2500       107.0285        42.6820      -999.2500         0.7231      -999.2500      -999.2500         0.5803        41.1207     
 5754.0000      -999.2500      -999.2500       108.3487        42.3071      -999.2500         0.6941      -999.2500      -999.2500         0.5821        40.9578     
 5754.5000      -999.2500      -999.2500       109.5142        39.1153      -999.2500         0.6645      -999.2500      -999.2500         0.5834        40.7950     
 5755.0000      -999.2500      -999.2500       106.8360        36.5310      -999.2500         0.6394      -999.2500      -999.2500         0.5251        40.7037     
 5755.5000      -999.2500      -999.2500       106.0673        34.6856      -999.2500         0.6206      -999.2500      -999.2500         0.4903        40.7445     
 5756.0000      -999.2500      -999.2500       109.9986        33.7271      -999.2500         0.6069      -999.2500      -999.2500         0.4504        40.7853     
 5756.5000      -999.2500      -999.2500       112.4097        33.7000      -999.2500         0.5988      -999.2500      -999.2500         0.4476        40.8261     
 5757.0000      -999.2500      -999.2500       115.4929        34.1150      -999.2500         0.5972      -999.2500      -999.2500         0.4633        40.8669     
 5757.5000      -999.2500      -999.2500       117.5749        35.1884      -999.2500         0.6049      -999.2500      -999.2500         0.4896        40.8481     
 5758.0000      -999.2500      -999.2500       113.4184        35.6291      -999.2500         0.6167      -999.2500      -999.2500         0.5143        40.7155     
 5758.5000      -999.2500      -999.2500       111.4492        36.2713      -999.2500         0.6439      -999.2500      -999.2500         0.5389        40.5830     
 5759.0000      -999.2500      -999.2500       111.3486        36.2428      -999.2500         0.6575      -999.2500      -999.2500         0.5566        40.4505     
 5759.5000      -999.2500      -999.2500       112.7772        36.3716      -999.2500         0.6613      -999.2500      -999.2500         0.5732        40.3180     
 5760.0000      -999.2500      -999.2500       110.4402        36.5978      -999.2500         0.6493      -999.2500      -999.2500         0.5872        40.5845     
 5760.5000      -999.2500      -999.2500       114.0321        37.8636      -999.2500         0.6407      -999.2500      -999.2500         0.5816        41.1365     
 5761.0000      -999.2500      -999.2500       112.9837        38.3598      -999.2500         0.6337      -999.2500      -999.2500         0.5397        41.7909     
 5761.5000      -999.2500      -999.2500       109.6690        38.4473      -999.2500         0.6293      -999.2500      -999.2500         0.5078        41.6079     
 5762.0000      -999.2500      -999.2500       115.6854        36.9221      -999.2500         0.6375      -999.2500      -999.2500         0.4868        41.2559     
 5762.5000      -999.2500      -999.2500       111.6909        35.7896      -999.2500         0.6552      -999.2500      -999.2500         0.4753        40.9035     
 5763.0000      -999.2500      -999.2500       114.5549        36.0538      -999.2500         0.6728      -999.2500      -999.2500         0.4830        41.1020     
 5763.5000      -999.2500      -999.2500       119.1130        37.5014      -999.2500         0.6904      -999.2500      -999.2500         0.5107        41.3029     
