~Version Information Section
VERS.          2.0                                     : CWLS LOG ASCII Standard
WRAP.          NO                                      : One line per depth step
CREA.          03/08/17                                : LAS Creation Date
~Well Information Section
STRT.ft        521.0000                                : Start Depth
STOP.ft        10547.0000                              : Stop Depth
STEP.ft        0.5000                                  : Step
NULL.          -999.2500                               : Null Value
COMP.          TEXACO PRODUCTION SERVICES LTD.         : Company
WELL.          14/20-8                                 : Well
FLD .          MORAY FIRTH                             : Field
LOC .          NORTH SEA                               : Location
LOC1.          -                                       : Location (UTM)
CTRY.          UK                                      : Country
PROV.          UKCS                                    : Province
UWI .          865                                     : UWI Number
API .          -                                       : API Number
SECT.          -                                       : Section
TOWN.          -                                       : Township
RNGE.          -                                       : Range
PDAT.          MSL                                     : Perm Datum
EPD .ft        0                                       : Elevation
LMF .          KB                                      : Log Measured From
DMF .          KB                                      : Drill Measured From
APD .ft        78.00                                   : Above Perm Datum
EKB .ft        78.00                                   : Elev-Kelly Bushing
EDF .ft        -                                       : Elev-Drill Floor
EGL .ft        -447.00                                 : Elev-Ground Level (Water Depth)
TDD .ft        10560.00                                : Total Depth (Driller)
TDL .ft        -                                       : Total Depth (Logger)
SRVC.          SCHLUMBERGER                            : Service Company
LATI.          58 24 41.3" N                           : Latitude
LONG.          00 06 20.9" W                           : Longitude
DATE.          JUN-AUG-1976                            : Logging Date
PROJ.          UKCS                                    : Project
SET .          COMP_WIRE                               : Set
~Curve Information Section
DEPTH.ft                                               : Depth Curve
CALI.in                                                : Caliper (FDC/CNL/GR)
DRHO.g/cc                                              : Delta Rho
DT.us/ft                                               : Delta T
GR.gAPI                                                : Gamma Ray (ISF/BHC/GR)
GRD.gAPI                                               : Gamma Ray (FDC/CNL/GR)
ILD.Ohmm                                               : Deep Induction Standard Processed Resistivity
NPHI.LPU                                               : Neutron Porosity
RHOB.g/cc                                              : Bulk Density
SFLU.Ohmm                                              : Spherically Focussed Log
SP.mV                                                  : Spontaneous Potential
~ASCII Log Data Section
# ...
 1550.0000      -999.2500      -999.2500       130.9158        23.9160      -999.2500         1.2957      -999.2500      -999.2500         0.8358        51.9299     
 1550.5000      -999.2500      -999.2500       130.9158        24.7011      -999.2500         1.2925      -999.2500      -999.2500         0.8340        51.8581     
 1551.0000      -999.2500      -999.2500       130.9158        25.6253      -999.2500         1.2893      -999.2500      -999.2500         0.8323        51.7863     
 1551.5000      -999.2500      -999.2500       130.9158        26.2236      -999.2500         1.2954      -999.2500      -999.2500         0.8305        51.7145     
 1552.0000      -999.2500      -999.2500        98.8145        26.7448      -999.2500         1.3348      -999.2500      -999.2500         0.8288        51.6411     
 1552.5000      -999.2500      -999.2500        98.8145        26.8228      -999.2500         1.3742      -999.2500      -999.2500         0.8270        51.5672     
 1553.0000      -999.2500      -999.2500        92.7084        27.1771      -999.2500         1.4132      -999.2500      -999.2500         0.8260        51.4933     
 1553.5000      -999.2500      -999.2500        92.7084        28.0734      -999.2500         1.4467      -999.2500      -999.2500         0.8260        51.4193     
 1554.0000      -999.2500      -999.2500        92.7084        28.9262      -999.2500         1.4801      -999.2500      -999.2500         0.8260        51.3454     
 1554.5000      -999.2500      -999.2500        92.7084        30.2727      -999.2500         1.5135      -999.2500      -999.2500         0.8260        51.2480     
 1555.0000      -999.2500      -999.2500        92.7084        31.6190      -999.2500         1.5391      -999.2500      -999.2500         0.8261        51.0865     
 1555.5000      -999.2500      -999.2500       100.1183        32.2890      -999.2500         1.5523      -999.2500      -999.2500         0.8261        50.9251     
 1556.0000      -999.2500      -999.2500       100.1183        31.9480      -999.2500         1.5606      -999.2500      -999.2500         0.8218        50.7636     
 1556.5000      -999.2500      -999.2500       100.1183        30.9411      -999.2500         1.5520      -999.2500      -999.2500         0.8143        50.6021     
 1557.0000      -999.2500      -999.2500        70.6954        30.6860      -999.2500         1.5353      -999.2500      -999.2500         0.8087        50.4551     
 1557.5000      -999.2500      -999.2500        70.6954        30.4512      -999.2500         1.5122      -999.2500      -999.2500         0.8047        50.3447     
 1558.0000      -999.2500      -999.2500        70.6954        30.2840      -999.2500         1.4762      -999.2500      -999.2500         0.7986        50.2343     
 1558.5000      -999.2500      -999.2500        70.6954        30.0464      -999.2500         1.4346      -999.2500      -999.2500         0.7918        50.1239     
 1559.0000      -999.2500      -999.2500        70.6954        29.3524      -999.2500         1.3829      -999.2500      -999.2500         0.7584        50.1802     
 1559.5000      -999.2500      -999.2500        70.6954        29.4408      -999.2500         1.3396      -999.2500      -999.2500         0.7054        50.3361     
 1560.0000      -999.2500      -999.2500        70.6954        29.3685      -999.2500         1.3027      -999.2500      -999.2500         0.6702        50.4919     
 1560.5000      -999.2500      -999.2500        74.9558        29.4790      -999.2500         1.2516      -999.2500      -999.2500         0.6602        50.6478     
 1561.0000      -999.2500      -999.2500        74.9558        29.2469      -999.2500         1.2085      -999.2500      -999.2500         0.6202        50.9987     
 1561.5000      -999.2500      -999.2500        74.9558        29.0137      -999.2500         1.1723      -999.2500      -999.2500         0.5481        51.3982     
 1562.0000      -999.2500      -999.2500        80.3860        28.8352      -999.2500         1.1101      -999.2500      -999.2500         0.5008        51.7440     
 1562.5000      -999.2500      -999.2500        80.3860        29.5319      -999.2500         1.0651      -999.2500      -999.2500         0.4872        52.0768     
 1563.0000      -999.2500      -999.2500        80.1645        30.1383      -999.2500         1.0411      -999.2500      -999.2500         0.4728        52.4096     
 1563.5000      -999.2500      -999.2500        80.3860        29.9424      -999.2500         1.0412      -999.2500      -999.2500         0.4509        52.5752     
 1564.0000      -999.2500      -999.2500        80.1645        29.1045      -999.2500         1.0412      -999.2500      -999.2500         0.4417        52.7008     
 1564.5000      -999.2500      -999.2500        80.3860        28.5710      -999.2500         1.0518      -999.2500      -999.2500         0.4363        52.8264     
 1565.0000      -999.2500      -999.2500        80.3860        28.2354      -999.2500         1.0659      -999.2500      -999.2500         0.4311        52.9277     
 1565.5000      -999.2500      -999.2500        83.7648        28.1690      -999.2500         1.0800      -999.2500      -999.2500         0.4291        53.0157     
 1566.0000      -999.2500      -999.2500        88.5575        28.3312      -999.2500         1.0939      -999.2500      -999.2500         0.4291        53.1038     
 1566.5000      -999.2500      -999.2500       111.5850        29.2932      -999.2500         1.1072      -999.2500      -999.2500         0.4290        53.1919     
 1567.0000      -999.2500      -999.2500       121.8417        29.2591      -999.2500         1.1205      -999.2500      -999.2500         0.4278        53.3132     
 1567.5000      -999.2500      -999.2500       127.4210        28.9788      -999.2500         1.1338      -999.2500      -999.2500         0.4265        53.6126     
 1568.0000      -999.2500      -999.2500       133.8831        28.8371      -999.2500         1.1471      -999.2500      -999.2500         0.4253        53.8283     
 1568.5000      -999.2500      -999.2500       165.9197        29.2233      -999.2500         1.1604      -999.2500      -999.2500         0.4426        53.6044     
 1569.0000      -999.2500      -999.2500       183.2013        29.7358      -999.2500         1.1965      -999.2500      -999.2500         0.4611        53.3804     
 1569.5000      -999.2500      -999.2500       182.0809        29.9482      -999.2500         1.2398      -999.2500      -999.2500         0.4796        53.1565     
 1570.0000      -999.2500      -999.2500       178.0344        30.2536      -999.2500         1.2831      -999.2500      -999.2500         0.5005        52.9325     
 1570.5000      -999.2500      -999.2500       175.1764        30.8837      -999.2500         1.3264      -999.2500      -999.2500         0.5280        52.7236     
 1571.0000      -999.2500      -999.2500       174.3391        32.4286      -999.2500         1.3366      -999.2500      -999.2500         0.5555        52.5220     
 1571.5000      -999.2500      -999.2500       175.1764        34.4395      -999.2500         1.3366      -999.2500      -999.2500         0.5794        52.3204     
 1572.0000      -999.2500      -999.2500       171.3069        36.1853      -999.2500         1.3252      -999.2500      -999.2500         0.5988        52.2560     
 1572.5000      -999.2500      -999.2500       182.8109        37.6028      -999.2500         1.3130      -999.2500      -999.2500         0.6011        52.2550     
 1573.0000      -999.2500      -999.2500       190.4251        38.4317      -999.2500         1.3168      -999.2500      -999.2500         0.6033        52.2540     
 1573.5000      -999.2500      -999.2500       173.0040        38.8387      -999.2500         1.3217      -999.2500      -999.2500         0.6056        52.2530     
 1574.0000      -999.2500      -999.2500       162.1234        39.4570      -999.2500         1.3295      -999.2500      -999.2500         0.6079        52.2520     
