~Version Information Section
VERS.          2.0                                     : CWLS LOG ASCII Standard
WRAP.          NO                                      : One line per depth step
CREA.          03/08/17                                : LAS Creation Date
~Well Information Section
STRT.ft        521.0000                                : Start Depth
STOP.ft        10547.0000                              : Stop Depth
STEP.ft        0.5000                                  : Step
NULL.          -999.2500                               : Null Value
COMP.          TEXACO PRODUCTION SERVICES LTD.         : Company
WELL.          14/20-8                                 : Well
FLD .          MORAY FIRTH                             : Field
LOC .          NORTH SEA                               : Location
LOC1.          -                                       : Location (UTM)
CTRY.          UK                                      : Country
PROV.          UKCS                                    : Province
UWI .          865                                     : UWI Number
API .          -                                       : API Number
SECT.          -                                       : Section
TOWN.          -                                       : Township
RNGE.          -                                       : Range
PDAT.          MSL                                     : Perm Datum
EPD .ft        0                                       : Elevation
LMF .          KB                                      : Log Measured From
DMF .          KB                                      : Drill Measured From
APD .ft        78.00                                   : Above Perm Datum
EKB .ft        78.00                                   : Elev-Kelly Bushing
EDF .ft        -                                       : Elev-Drill Floor
EGL .ft        -447.00                                 : Elev-Ground Level (Water Depth)
TDD .ft        10560.00                                : Total Depth (Driller)
TDL .ft        -                                       : Total Depth (Logger)
SRVC.          SCHLUMBERGER                            : Service Company
LATI.          58 24 41.3" N                           : Latitude
LONG.          00 06 20.9" W                           : Longitude
DATE.          JUN-AUG-1976                            : Logging Date
PROJ.          UKCS                                    : Project
SET .          COMP_WIRE                               : Set
~Curve Information Section
DEPTH.ft                                               : Depth Curve
CALI.in                                                : Caliper (FDC/CNL/GR)
DRHO.g/cc                                              : Delta Rho
DT.us/ft                                               : Delta T
GR.gAPI                                                : Gamma Ray (ISF/BHC/GR)
GRD.gAPI                                               : Gamma Ray (FDC/CNL/GR)
ILD.Ohmm                                               : Deep Induction Standard Processed Resistivity
NPHI.LPU                                               : Neutron Porosity
RHOB.g/cc                                              : Bulk Density
SFLU.Ohmm                                              : Spherically Focussed Log
SP.mV                                                  : Spontaneous Potential
~ASCII Log Data Section
# ...
 8116.0000      -999.2500      -999.2500        72.7627        21.6891      -999.2500         3.7520      -999.2500      -999.2500         2.7927         8.1138     
 8116.5000      -999.2500      -999.2500        73.4649        21.9839      -999.2500         3.8483      -999.2500      -999.2500         2.7815         8.0282     
 8117.0000      -999.2500      -999.2500        73.4691        21.7451      -999.2500         3.9160      -999.2500      -999.2500         2.7813         7.6656     
 8117.5000      -999.2500      -999.2500        73.8226        20.7097      -999.2500         3.9101      -999.2500      -999.2500         2.7817         7.3860     
 8118.0000      -999.2500      -999.2500        73.8757        20.0674      -999.2500         3.8804      -999.2500      -999.2500         2.8124         7.2199     
 8118.5000      -999.2500      -999.2500        73.6063        20.2220      -999.2500         3.8508      -999.2500      -999.2500         2.8216         7.2630     
 8119.0000      -999.2500      -999.2500        73.6842        20.0859      -999.2500         3.8212      -999.2500      -999.2500         2.7768         7.3243     
 8119.5000      -999.2500      -999.2500        73.8876        19.4458      -999.2500         3.7915      -999.2500      -999.2500         2.7323         7.3857     
 8120.0000      -999.2500      -999.2500        74.6842        19.3586      -999.2500         3.7717      -999.2500      -999.2500         2.7510         7.4471     
 8120.5000      -999.2500      -999.2500        74.7447        19.1074      -999.2500         3.7713      -999.2500      -999.2500         2.8516         7.5084     
 8121.0000      -999.2500      -999.2500        73.3558        19.2043      -999.2500         3.7710      -999.2500      -999.2500         2.9569         7.5697     
 8121.5000      -999.2500      -999.2500        72.3973        19.2011      -999.2500         3.7706      -999.2500      -999.2500         3.0201         7.6310     
 8122.0000      -999.2500      -999.2500        70.8677        18.7427      -999.2500         3.7079      -999.2500      -999.2500         2.9910         7.6924     
 8122.5000      -999.2500      -999.2500        71.7080        18.2049      -999.2500         3.5793      -999.2500      -999.2500         2.9002         7.7537     
 8123.0000      -999.2500      -999.2500        73.3284        18.1249      -999.2500         3.4724      -999.2500      -999.2500         2.8317         7.8080     
 8123.5000      -999.2500      -999.2500        73.4821        18.3871      -999.2500         3.3777      -999.2500      -999.2500         2.8081         7.8550     
 8124.0000      -999.2500      -999.2500        74.0780        18.7938      -999.2500         3.3112      -999.2500      -999.2500         2.7297         7.9021     
 8124.5000      -999.2500      -999.2500        75.1756        18.9396      -999.2500         3.3109      -999.2500      -999.2500         2.6249         7.9491     
 8125.0000      -999.2500      -999.2500        76.7774        18.9368      -999.2500         3.3203      -999.2500      -999.2500         2.5348         7.9961     
 8125.5000      -999.2500      -999.2500        78.3260        18.3182      -999.2500         3.3323      -999.2500      -999.2500         2.5551         8.0431     
 8126.0000      -999.2500      -999.2500        80.1537        18.5965      -999.2500         3.3526      -999.2500      -999.2500         2.7329         8.0902     
 8126.5000      -999.2500      -999.2500        79.8753        19.5496      -999.2500         3.3941      -999.2500      -999.2500         3.0196         8.1372     
 8127.0000      -999.2500      -999.2500        76.8733        20.4696      -999.2500         3.4355      -999.2500      -999.2500         3.3063         8.1417     
 8127.5000      -999.2500      -999.2500        73.8713        20.4637      -999.2500         3.4657      -999.2500      -999.2500         3.4193         8.1190     
 8128.0000      -999.2500      -999.2500        70.8981        20.1620      -999.2500         3.4653      -999.2500      -999.2500         3.3147         8.0962     
 8128.5000      -999.2500      -999.2500        70.9837        20.1578      -999.2500         3.4604      -999.2500      -999.2500         3.0959         8.0735     
 8129.0000      -999.2500      -999.2500        72.5450        20.2524      -999.2500         3.4129      -999.2500      -999.2500         2.8643         8.0507     
 8129.5000      -999.2500      -999.2500        74.5647        20.8445      -999.2500         3.3443      -999.2500      -999.2500         2.6952         8.0280     
 8130.0000      -999.2500      -999.2500        76.8128        21.4227      -999.2500         3.0924      -999.2500      -999.2500         2.5202         8.0052     
 8130.5000      -999.2500      -999.2500        79.4395        21.5596      -999.2500         2.9455      -999.2500      -999.2500         2.3916         7.9825     
 8131.0000      -999.2500      -999.2500        80.3085        21.7211      -999.2500         2.8288      -999.2500      -999.2500         2.3545         7.9597     
 8131.5000      -999.2500      -999.2500        80.8256        22.4686      -999.2500         2.7215      -999.2500      -999.2500         2.3781         7.9370     
 8132.0000      -999.2500      -999.2500        81.0538        23.2074      -999.2500         2.6998      -999.2500      -999.2500         2.3921         7.9128     
 8132.5000      -999.2500      -999.2500        81.4556        23.3129      -999.2500         2.7338      -999.2500      -999.2500         2.3919         7.8571     
 8133.0000      -999.2500      -999.2500        81.5646        23.3462      -999.2500         2.7741      -999.2500      -999.2500         2.4238         7.8013     
 8133.5000      -999.2500      -999.2500        80.1694        23.0296      -999.2500         2.8191      -999.2500      -999.2500         2.5050         7.7456     
 8134.0000      -999.2500      -999.2500        78.3657        22.1695      -999.2500         2.8716      -999.2500      -999.2500         2.6487         7.7156     
 8134.5000      -999.2500      -999.2500        75.6965        21.8218      -999.2500         2.9240      -999.2500      -999.2500         2.6788         7.7971     
 8135.0000      -999.2500      -999.2500        75.0505        21.3980      -999.2500         2.9748      -999.2500      -999.2500         2.6144         7.8786     
 8135.5000      -999.2500      -999.2500        75.6747        20.8475      -999.2500         3.0253      -999.2500      -999.2500         2.5441         7.9601     
 8136.0000      -999.2500      -999.2500        77.4337        20.7105      -999.2500         3.0302      -999.2500      -999.2500         2.5128         8.0415     
 8136.5000      -999.2500      -999.2500        78.4309        20.6139      -999.2500         3.0160      -999.2500      -999.2500         2.5032         8.0645     
 8137.0000      -999.2500      -999.2500        78.6524        20.3234      -999.2500         3.0038      -999.2500      -999.2500         2.5520         8.0265     
 8137.5000      -999.2500      -999.2500        77.9800        20.3713      -999.2500         2.9925      -999.2500      -999.2500         2.6085         7.9886     
 8138.0000      -999.2500      -999.2500        77.0801        20.2972      -999.2500         2.9832      -999.2500      -999.2500         2.6405         7.9507     
 8138.5000      -999.2500      -999.2500        75.6944        21.6218      -999.2500         2.9829      -999.2500      -999.2500         2.5693         7.9128     
 8139.0000      -999.2500      -999.2500        75.0881        21.6925      -999.2500         2.9827      -999.2500      -999.2500         2.4990         7.8749     
 8139.5000      -999.2500      -999.2500        75.7440        21.5649      -999.2500         2.9936      -999.2500      -999.2500         2.4494         7.8936     
 8140.0000      -999.2500      -999.2500        76.6973        21.3391      -999.2500         3.0099      -999.2500      -999.2500         2.4108         7.9466     
