~Version Information Section
VERS.          2.0                                     : CWLS LOG ASCII Standard
WRAP.          NO                                      : One line per depth step
CREA.          03/08/17                                : LAS Creation Date
~Well Information Section
STRT.ft        521.0000                                : Start Depth
STOP.ft        10547.0000                              : Stop Depth
STEP.ft        0.5000                                  : Step
NULL.          -999.2500                               : Null Value
COMP.          TEXACO PRODUCTION SERVICES LTD.         : Company
WELL.          14/20-8                                 : Well
FLD .          MORAY FIRTH                             : Field
LOC .          NORTH SEA                               : Location
LOC1.          -                                       : Location (UTM)
CTRY.          UK                                      : Country
PROV.          UKCS                                    : Province
UWI .          865                                     : UWI Number
API .          -                                       : API Number
SECT.          -                                       : Section
TOWN.          -                                       : Township
RNGE.          -                                       : Range
PDAT.          MSL                                     : Perm Datum
EPD .ft        0                                       : Elevation
LMF .          KB                                      : Log Measured From
DMF .          KB                                      : Drill Measured From
APD .ft        78.00                                   : Above Perm Datum
EKB .ft        78.00                                   : Elev-Kelly Bushing
EDF .ft        -                                       : Elev-Drill Floor
EGL .ft        -447.00                                 : Elev-Ground Level (Water Depth)
TDD .ft        10560.00                                : Total Depth (Driller)
TDL .ft        -                                       : Total Depth (Logger)
SRVC.          SCHLUMBERGER                            : Service Company
LATI.          58 24 41.3" N                           : Latitude
LONG.          00 06 20.9" W                           : Longitude
DATE.          JUN-AUG-1976                            : Logging Date
PROJ.          UKCS                                    : Project
SET .          COMP_WIRE                               : Set
~Curve Information Section
DEPTH.ft                                               : Depth Curve
CALI.in                                                : Caliper (FDC/CNL/GR)
DRHO.g/cc                                              : Delta Rho
DT.us/ft                                               : Delta T
GR.gAPI                                                : Gamma Ray (ISF/BHC/GR)
GRD.gAPI                                               : Gamma Ray (FDC/CNL/GR)
ILD.Ohmm                                               : Deep Induction Standard Processed Resistivity
NPHI.LPU                                               : Neutron Porosity
RHOB.g/cc                                              : Bulk Density
SFLU.Ohmm                                              : Spherically Focussed Log
SP.mV                                                  : Spontaneous Potential
~ASCII Log Data Section
# ...
 8728.5000      -999.2500      -999.2500       103.6360        47.7775      -999.2500         1.0076      -999.2500      -999.2500         1.2702        13.2058     
 8729.0000      -999.2500      -999.2500       104.4855        48.4903      -999.2500         1.0006      -999.2500      -999.2500         1.2753        13.5657     
 8729.5000      -999.2500      -999.2500       103.8661        50.2220      -999.2500         0.9982      -999.2500      -999.2500         1.2847        14.1333     
 8730.0000      -999.2500      -999.2500       104.2232        51.9745      -999.2500         1.0005      -999.2500      -999.2500         1.2990        14.7981     
 8730.5000      -999.2500      -999.2500       105.3291        52.0310      -999.2500         1.0027      -999.2500      -999.2500         1.2875        15.0652     
 8731.0000      -999.2500      -999.2500       105.6818        51.3114      -999.2500         1.0050      -999.2500      -999.2500         1.2725        15.0662     
 8731.5000      -999.2500      -999.2500       105.7508        50.3302      -999.2500         0.9962      -999.2500      -999.2500         1.2969        15.0181     
 8732.0000      -999.2500      -999.2500       104.7554        49.3585      -999.2500         0.9655      -999.2500      -999.2500         1.3307        14.9387     
 8732.5000      -999.2500      -999.2500       102.9044        48.4223      -999.2500         0.9363      -999.2500      -999.2500         1.2994        14.8488     
 8733.0000      -999.2500      -999.2500       100.9163        47.4880      -999.2500         0.9169      -999.2500      -999.2500         1.2549        14.7015     
 8733.5000      -999.2500      -999.2500       100.3159        46.6695      -999.2500         0.8990      -999.2500      -999.2500         1.1879        14.5519     
 8734.0000      -999.2500      -999.2500       101.0338        47.3936      -999.2500         0.8918      -999.2500      -999.2500         1.1296        14.4722     
 8734.5000      -999.2500      -999.2500       103.8519        48.9945      -999.2500         0.8898      -999.2500      -999.2500         1.0799        14.4732     
 8735.0000      -999.2500      -999.2500       107.9987        50.6019      -999.2500         0.8878      -999.2500      -999.2500         1.0643        14.4742     
 8735.5000      -999.2500      -999.2500       110.7580        51.6195      -999.2500         0.8859      -999.2500      -999.2500         1.0676        14.4752     
 8736.0000      -999.2500      -999.2500       112.3280        52.6280      -999.2500         0.8887      -999.2500      -999.2500         1.1060        14.4538     
 8736.5000      -999.2500      -999.2500       109.9196        53.5482      -999.2500         0.8937      -999.2500      -999.2500         1.1608        14.4085     
 8737.0000      -999.2500      -999.2500       105.9994        53.6184      -999.2500         0.8988      -999.2500      -999.2500         1.2256        14.3632     
 8737.5000      -999.2500      -999.2500       102.9166        53.7190      -999.2500         0.9038      -999.2500      -999.2500         1.2416        14.3179     
 8738.0000      -999.2500      -999.2500       102.4378        55.6440      -999.2500         0.9083      -999.2500      -999.2500         1.2026        14.2907     
 8738.5000      -999.2500      -999.2500       104.0041        57.2889      -999.2500         0.8941      -999.2500      -999.2500         1.1724        14.3551     
 8739.0000      -999.2500      -999.2500       104.4717        58.6917      -999.2500         0.8721      -999.2500      -999.2500         1.1494        14.4195     
 8739.5000      -999.2500      -999.2500       107.3344        59.3455      -999.2500         0.8537      -999.2500      -999.2500         1.1025        14.5389     
 8740.0000      -999.2500      -999.2500       109.7342        59.1891      -999.2500         0.8361      -999.2500      -999.2500         1.0258        15.0381     
 8740.5000      -999.2500      -999.2500       111.2785        59.3132      -999.2500         0.8200      -999.2500      -999.2500         1.0150        15.6521     
 8741.0000      -999.2500      -999.2500       112.8018        58.3221      -999.2500         0.8097      -999.2500      -999.2500         1.0551        16.5359     
 8741.5000      -999.2500      -999.2500       111.1972        57.3106      -999.2500         0.8078      -999.2500      -999.2500         1.0833        17.4024     
 8742.0000      -999.2500      -999.2500       110.4383        56.2975      -999.2500         0.8078      -999.2500      -999.2500         1.0755        17.1995     
 8742.5000      -999.2500      -999.2500       110.0443        55.6332      -999.2500         0.8095      -999.2500      -999.2500         1.0420        16.4958     
 8743.0000      -999.2500      -999.2500       108.7515        56.3365      -999.2500         0.8161      -999.2500      -999.2500         1.0300        15.7942     
 8743.5000      -999.2500      -999.2500       109.7093        56.8152      -999.2500         0.8248      -999.2500      -999.2500         1.0592        15.1046     
 8744.0000      -999.2500      -999.2500       110.4027        56.4545      -999.2500         0.8528      -999.2500      -999.2500         1.0831        14.8922     
 8744.5000      -999.2500      -999.2500       111.3165        56.6271      -999.2500         0.8849      -999.2500      -999.2500         1.0765        14.8932     
 8745.0000      -999.2500      -999.2500       112.1076        57.1048      -999.2500         0.9167      -999.2500      -999.2500         1.0686        14.8942     
 8745.5000      -999.2500      -999.2500       111.3885        56.3534      -999.2500         0.9481      -999.2500      -999.2500         1.1111        14.8952     
 8746.0000      -999.2500      -999.2500       109.2908        54.6511      -999.2500         0.9779      -999.2500      -999.2500         1.1846        14.9116     
 8746.5000      -999.2500      -999.2500       104.8138        50.5063      -999.2500         0.9954      -999.2500      -999.2500         1.2415        14.9796     
 8747.0000      -999.2500      -999.2500       102.8020        46.9690      -999.2500         1.0082      -999.2500      -999.2500         1.2793        15.0477     
 8747.5000      -999.2500      -999.2500       100.3977        46.3009      -999.2500         1.0086      -999.2500      -999.2500         1.3109        14.9855     
 8748.0000      -999.2500      -999.2500       100.0303        45.7727      -999.2500         0.9782      -999.2500      -999.2500         1.2918        14.5236     
 8748.5000      -999.2500      -999.2500       100.2958        45.7093      -999.2500         0.8989      -999.2500      -999.2500         1.1843        14.1814     
 8749.0000      -999.2500      -999.2500       100.6921        47.4319      -999.2500         0.8444      -999.2500      -999.2500         1.0692        14.6535     
 8749.5000      -999.2500      -999.2500       104.0168        51.3240      -999.2500         0.8048      -999.2500      -999.2500         0.9924        15.6657     
 8750.0000      -999.2500      -999.2500       108.2916        54.2324      -999.2500         0.7781      -999.2500      -999.2500         0.9203        15.8507     
 8750.5000      -999.2500      -999.2500       111.5504        56.4452      -999.2500         0.7553      -999.2500      -999.2500         0.8881        15.9855     
 8751.0000      -999.2500      -999.2500       115.9863        58.5328      -999.2500         0.7595      -999.2500      -999.2500         0.9014        16.1306     
 8751.5000      -999.2500      -999.2500       119.3354        60.6138      -999.2500         0.7739      -999.2500      -999.2500         0.9478        16.3299     
 8752.0000      -999.2500      -999.2500       119.9446        62.2355      -999.2500         0.8006      -999.2500      -999.2500         1.0006        16.5316     
 8752.5000      -999.2500      -999.2500       116.7471        62.5795      -999.2500         0.8276      -999.2500      -999.2500         1.0554        16.7331     
