~Version Information Section
VERS.          2.0                                     : CWLS LOG ASCII Standard
WRAP.          NO                                      : One line per depth step
CREA.          03/08/17                                : LAS Creation Date
~Well Information Section
STRT.ft        521.0000                                : Start Depth
STOP.ft        10547.0000                              : Stop Depth
STEP.ft        0.5000                                  : Step
NULL.          -999.2500                               : Null Value
COMP.          TEXACO PRODUCTION SERVICES LTD.         : Company
WELL.          14/20-8                                 : Well
FLD .          MORAY FIRTH                             : Field
LOC .          NORTH SEA                               : Location
LOC1.          -                                       : Location (UTM)
CTRY.          UK                                      : Country
PROV.          UKCS                                    : Province
UWI .          865                                     : UWI Number
API .          -                                       : API Number
SECT.          -                                       : Section
TOWN.          -                                       : Township
RNGE.          -                                       : Range
PDAT.          MSL                                     : Perm Datum
EPD .ft        0                                       : Elevation
LMF .          KB                                      : Log Measured From
DMF .          KB                                      : Drill Measured From
APD .ft        78.00                                   : Above Perm Datum
EKB .ft        78.00                                   : Elev-Kelly Bushing
EDF .ft        -                                       : Elev-Drill Floor
EGL .ft        -447.00                                 : Elev-Ground Level (Water Depth)
TDD .ft        10560.00                                : Total Depth (Driller)
TDL .ft        -                                       : Total Depth (Logger)
SRVC.          SCHLUMBERGER                            : Service Company
LATI.          58 24 41.3" N                           : Latitude
LONG.          00 06 20.9" W                           : Longitude
DATE.          JUN-AUG-1976                            : Logging Date
PROJ.          UKCS                                    : Project
SET .          COMP_WIRE                               : Set
~Curve Information Section
DEPTH.ft                                               : Depth Curve
CALI.in                                                : Caliper (FDC/CNL/GR)
DRHO.g/cc                                              : Delta Rho
DT.us/ft                                               : Delta T
GR.gAPI                                                : Gamma Ray (ISF/BHC/GR)
GRD.gAPI                                               : Gamma Ray (FDC/CNL/GR)
ILD.Ohmm                                               : Deep Induction Standard Processed Resistivity
NPHI.LPU                                               : Neutron Porosity
RHOB.g/cc                                              : Bulk Density
SFLU.Ohmm                                              : Spherically Focussed Log
SP.mV                                                  : Spontaneous Potential
~ASCII Log Data Section
# ...
 2750.5000      -999.2500      -999.2500       105.5585        41.0326      -999.2500         1.3891      -999.2500      -999.2500         1.0043        62.5109     
 2751.0000      -999.2500      -999.2500       130.8833        40.9600      -999.2500         1.3759      -999.2500      -999.2500         0.7554        62.7834     
 2751.5000      -999.2500      -999.2500       149.4858        41.4958      -999.2500         1.3532      -999.2500      -999.2500         0.6953        63.0593     
 2752.0000      -999.2500      -999.2500       168.0722        43.5426      -999.2500         1.3311      -999.2500      -999.2500         0.6953        63.2787     
 2752.5000      -999.2500      -999.2500       177.5327        45.5894      -999.2500         1.3175      -999.2500      -999.2500         0.6927        63.3376     
 2753.0000      -999.2500      -999.2500       178.6545        47.8884      -999.2500         1.3346      -999.2500      -999.2500         0.6824        63.2217     
 2753.5000      -999.2500      -999.2500       177.9146        50.0961      -999.2500         1.3670      -999.2500      -999.2500         0.6808        63.1058     
 2754.0000      -999.2500      -999.2500       174.0055        50.9569      -999.2500         1.3994      -999.2500      -999.2500         0.6917        62.9899     
 2754.5000      -999.2500      -999.2500       174.4941        50.2360      -999.2500         1.4262      -999.2500      -999.2500         0.7070        62.8740     
 2755.0000      -999.2500      -999.2500       178.2385        48.1431      -999.2500         1.5488      -999.2500      -999.2500         0.7753        62.8037     
 2755.5000      -999.2500      -999.2500       178.0474        44.6539      -999.2500         1.6697      -999.2500      -999.2500         0.8436        62.8330     
 2756.0000      -999.2500      -999.2500       170.3972        40.9937      -999.2500         1.6470      -999.2500      -999.2500         0.9093        62.8623     
 2756.5000      -999.2500      -999.2500       150.9962        38.2783      -999.2500         1.6243      -999.2500      -999.2500         0.9714        62.8916     
 2757.0000      -999.2500      -999.2500       139.1965        35.8631      -999.2500         1.6021      -999.2500      -999.2500         1.0013        62.9209     
 2757.5000      -999.2500      -999.2500       138.5196        33.9943      -999.2500         1.5775      -999.2500      -999.2500         0.9292        62.9502     
 2758.0000      -999.2500      -999.2500       143.5002        33.3052      -999.2500         1.5169      -999.2500      -999.2500         0.7969        62.9795     
 2758.5000      -999.2500      -999.2500       163.6845        34.3688      -999.2500         1.4104      -999.2500      -999.2500         0.7756        63.0610     
 2759.0000      -999.2500      -999.2500       182.5927        36.4005      -999.2500         1.3270      -999.2500      -999.2500         0.7478        63.2558     
 2759.5000      -999.2500      -999.2500       186.1913        38.4204      -999.2500         1.2611      -999.2500      -999.2500         0.6943        63.4505     
 2760.0000      -999.2500      -999.2500       184.7335        40.2478      -999.2500         1.2109      -999.2500      -999.2500         0.6454        63.6453     
 2760.5000      -999.2500      -999.2500       184.0896        41.7434      -999.2500         1.1844      -999.2500      -999.2500         0.6353        63.8401     
 2761.0000      -999.2500      -999.2500       183.0805        42.4739      -999.2500         1.1903      -999.2500      -999.2500         0.6253        64.0139     
 2761.5000      -999.2500      -999.2500       182.7275        41.7363      -999.2500         1.2081      -999.2500      -999.2500         0.6226        64.0669     
 2762.0000      -999.2500      -999.2500       185.5149        41.8704      -999.2500         1.2217      -999.2500      -999.2500         0.6227        64.1199     
 2762.5000      -999.2500      -999.2500       186.8587        41.9285      -999.2500         1.2218      -999.2500      -999.2500         0.6303        64.1729     
 2763.0000      -999.2500      -999.2500       187.5395        41.1761      -999.2500         1.2218      -999.2500      -999.2500         0.6497        64.1278     
 2763.5000      -999.2500      -999.2500       186.4178        40.7007      -999.2500         1.2228      -999.2500      -999.2500         0.6674        63.8703     
 2764.0000      -999.2500      -999.2500       184.2083        40.8407      -999.2500         1.2373      -999.2500      -999.2500         0.6822        63.6128     
 2764.5000      -999.2500      -999.2500       183.5099        42.2390      -999.2500         1.2519      -999.2500      -999.2500         0.6690        63.3553     
 2765.0000      -999.2500      -999.2500       184.0527        43.5913      -999.2500         1.2664      -999.2500      -999.2500         0.6558        63.0979     
 2765.5000      -999.2500      -999.2500       184.1532        44.1127      -999.2500         1.2765      -999.2500      -999.2500         0.6522        62.9504     
 2766.0000      -999.2500      -999.2500       181.7750        44.5491      -999.2500         1.2860      -999.2500      -999.2500         0.6522        62.8619     
 2766.5000      -999.2500      -999.2500       180.8607        44.7502      -999.2500         1.2878      -999.2500      -999.2500         0.6526        62.7733     
 2767.0000      -999.2500      -999.2500       180.9559        44.5452      -999.2500         1.2778      -999.2500      -999.2500         0.6595        62.6847     
 2767.5000      -999.2500      -999.2500       180.5454        44.3781      -999.2500         1.2672      -999.2500      -999.2500         0.6664        62.6212     
 2768.0000      -999.2500      -999.2500       179.6780        44.7123      -999.2500         1.2492      -999.2500      -999.2500         0.6641        62.6971     
 2768.5000      -999.2500      -999.2500       179.6890        44.5208      -999.2500         1.2312      -999.2500      -999.2500         0.6475        62.7730     
 2769.0000      -999.2500      -999.2500       180.7152        44.0731      -999.2500         1.2132      -999.2500      -999.2500         0.6327        62.8490     
 2769.5000      -999.2500      -999.2500       181.1101        43.0113      -999.2500         1.2019      -999.2500      -999.2500         0.6247        62.9249     
 2770.0000      -999.2500      -999.2500       181.5917        41.8696      -999.2500         1.1915      -999.2500      -999.2500         0.6173        63.0008     
 2770.5000      -999.2500      -999.2500       180.8884        40.5800      -999.2500         1.1811      -999.2500      -999.2500         0.6196        63.0767     
 2771.0000      -999.2500      -999.2500       180.7759        39.8302      -999.2500         1.1716      -999.2500      -999.2500         0.6219        63.1526     
 2771.5000      -999.2500      -999.2500       181.1913        39.3349      -999.2500         1.1915      -999.2500      -999.2500         0.6302        63.2285     
 2772.0000      -999.2500      -999.2500       178.5823        39.1202      -999.2500         1.2356      -999.2500      -999.2500         0.6436        63.3044     
 2772.5000      -999.2500      -999.2500       171.4355        38.6948      -999.2500         1.2797      -999.2500      -999.2500         0.6569        63.3803     
 2773.0000      -999.2500      -999.2500       175.3435        37.1078      -999.2500         1.3188      -999.2500      -999.2500         0.6702        63.4562     
 2773.5000      -999.2500      -999.2500       175.7281        36.5070      -999.2500         1.3560      -999.2500      -999.2500         0.6835        63.5321     
 2774.0000      -999.2500      -999.2500       174.8277        37.0015      -999.2500         1.3916      -999.2500      -999.2500         0.7085        63.6080     
 2774.5000      -999.2500      -999.2500       172.2798        37.5223      -999.2500         1.3917      -999.2500      -999.2500         0.7431        63.6927     
