~Version Information Section
VERS.          2.0                                     : CWLS LOG ASCII Standard
WRAP.          NO                                      : One line per depth step
CREA.          03/08/17                                : LAS Creation Date
~Well Information Section
STRT.ft        521.0000                                : Start Depth
STOP.ft        10547.0000                              : Stop Depth
STEP.ft        0.5000                                  : Step
NULL.          -999.2500                               : Null Value
COMP.          TEXACO PRODUCTION SERVICES LTD.         : Company
WELL.          14/20-8                                 : Well
FLD .          MORAY FIRTH                             : Field
LOC .          NORTH SEA                               : Location
LOC1.          -                                       : Location (UTM)
CTRY.          UK                                      : Country
PROV.          UKCS                                    : Province
UWI .          865                                     : UWI Number
API .          -                                       : API Number
SECT.          -                                       : Section
TOWN.          -                                       : Township
RNGE.          -                                       : Range
PDAT.          MSL                                     : Perm Datum
EPD .ft        0                                       : Elevation
LMF .          KB                                      : Log Measured From
DMF .          KB                                      : Drill Measured From
APD .ft        78.00                                   : Above Perm Datum
EKB .ft        78.00                                   : Elev-Kelly Bushing
EDF .ft        -                                       : Elev-Drill Floor
EGL .ft        -447.00                                 : Elev-Ground Level (Water Depth)
TDD .ft        10560.00                                : Total Depth (Driller)
TDL .ft        -                                       : Total Depth (Logger)
SRVC.          SCHLUMBERGER                            : Service Company
LATI.          58 24 41.3" N                           : Latitude
LONG.          00 06 20.9" W                           : Longitude
DATE.          JUN-AUG-1976                            : Logging Date
PROJ.          UKCS                                    : Project
SET .          COMP_WIRE                               : Set
~Curve Information Section
DEPTH.ft                                               : Depth Curve
CALI.in                                                : Caliper (FDC/CNL/GR)
DRHO.g/cc                                              : Delta Rho
DT.us/ft                                               : Delta T
GR.gAPI                                                : Gamma Ray (ISF/BHC/GR)
GRD.gAPI                                               : Gamma Ray (FDC/CNL/GR)
ILD.Ohmm                                               : Deep Induction Standard Processed Resistivity
NPHI.LPU                                               : Neutron Porosity
RHOB.g/cc                                              : Bulk Density
SFLU.Ohmm                                              : Spherically Focussed Log
SP.mV                                                  : Spontaneous Potential
~ASCII Log Data Section
# ...
 2138.0000      -999.2500      -999.2500       156.6019        23.5776      -999.2500         1.0305      -999.2500      -999.2500         0.4173        58.6955     
 2138.5000      -999.2500      -999.2500       156.7981        23.6062      -999.2500         1.0476      -999.2500      -999.2500         0.4274        58.6490     
 2139.0000      -999.2500      -999.2500       155.6033        23.2541      -999.2500         1.0647      -999.2500      -999.2500         0.4374        58.6025     
 2139.5000      -999.2500      -999.2500       154.0698        22.5388      -999.2500         1.0818      -999.2500      -999.2500         0.4475        58.5307     
 2140.0000      -999.2500      -999.2500       152.5630        22.8710      -999.2500         1.0989      -999.2500      -999.2500         0.4576        58.3804     
 2140.5000      -999.2500      -999.2500       152.3048        23.9458      -999.2500         1.1144      -999.2500      -999.2500         0.4680        58.2302     
 2141.0000      -999.2500      -999.2500       153.4475        25.0385      -999.2500         1.1299      -999.2500      -999.2500         0.4803        58.2018     
 2141.5000      -999.2500      -999.2500       154.7783        25.0378      -999.2500         1.1454      -999.2500      -999.2500         0.4925        58.2644     
 2142.0000      -999.2500      -999.2500       156.1352        25.1504      -999.2500         1.1474      -999.2500      -999.2500         0.5047        58.3271     
 2142.5000      -999.2500      -999.2500       156.8190        24.3418      -999.2500         1.1429      -999.2500      -999.2500         0.5129        58.3898     
 2143.0000      -999.2500      -999.2500       156.6129        23.7915      -999.2500         1.1334      -999.2500      -999.2500         0.5173        58.4525     
 2143.5000      -999.2500      -999.2500       155.0424        23.5976      -999.2500         1.1141      -999.2500      -999.2500         0.5169        58.5151     
 2144.0000      -999.2500      -999.2500       153.4503        23.4334      -999.2500         1.0948      -999.2500      -999.2500         0.5075        58.5778     
 2144.5000      -999.2500      -999.2500       153.8400        23.2782      -999.2500         1.0733      -999.2500      -999.2500         0.4988        58.6405     
 2145.0000      -999.2500      -999.2500       155.5207        22.5776      -999.2500         1.0506      -999.2500      -999.2500         0.4915        58.7031     
 2145.5000      -999.2500      -999.2500       157.6704        22.3550      -999.2500         1.0279      -999.2500      -999.2500         0.4842        58.7658     
 2146.0000      -999.2500      -999.2500       159.2303        22.2805      -999.2500         1.0144      -999.2500      -999.2500         0.4824        58.8285     
 2146.5000      -999.2500      -999.2500       159.6861        23.2147      -999.2500         1.0057      -999.2500      -999.2500         0.4816        58.8911     
 2147.0000      -999.2500      -999.2500       158.8322        23.8747      -999.2500         0.9968      -999.2500      -999.2500         0.4808        58.9538     
 2147.5000      -999.2500      -999.2500       158.0332        24.2280      -999.2500         0.9877      -999.2500      -999.2500         0.4800        58.9457     
 2148.0000      -999.2500      -999.2500       158.1198        24.5663      -999.2500         0.9890      -999.2500      -999.2500         0.4793        58.9279     
 2148.5000      -999.2500      -999.2500       158.5362        25.4709      -999.2500         1.0016      -999.2500      -999.2500         0.4785        58.9102     
 2149.0000      -999.2500      -999.2500       158.3309        26.5634      -999.2500         1.0155      -999.2500      -999.2500         0.4906        58.8924     
 2149.5000      -999.2500      -999.2500       158.2000        27.5426      -999.2500         1.0323      -999.2500      -999.2500         0.5053        58.8746     
 2150.0000      -999.2500      -999.2500       158.3492        28.2264      -999.2500         1.0490      -999.2500      -999.2500         0.5336        58.8568     
 2150.5000      -999.2500      -999.2500       158.8817        28.9103      -999.2500         1.0806      -999.2500      -999.2500         0.5618        58.8390     
 2151.0000      -999.2500      -999.2500       160.2004        29.5944      -999.2500         1.1288      -999.2500      -999.2500         0.5900        58.8212     
 2151.5000      -999.2500      -999.2500       161.2886        29.7276      -999.2500         1.1756      -999.2500      -999.2500         0.6183        58.8034     
 2152.0000      -999.2500      -999.2500       161.8924        29.6268      -999.2500         1.2123      -999.2500      -999.2500         0.6439        58.7857     
 2152.5000      -999.2500      -999.2500       162.0000        29.2970      -999.2500         1.2122      -999.2500      -999.2500         0.6529        58.7679     
 2153.0000      -999.2500      -999.2500       162.5449        29.2250      -999.2500         1.1899      -999.2500      -999.2500         0.6619        58.7677     
 2153.5000      -999.2500      -999.2500       164.0668        29.2243      -999.2500         1.1655      -999.2500      -999.2500         0.6583        58.7992     
 2154.0000      -999.2500      -999.2500       165.0479        28.6359      -999.2500         1.1398      -999.2500      -999.2500         0.6403        58.8308     
 2154.5000      -999.2500      -999.2500       165.6653        26.6798      -999.2500         1.1172      -999.2500      -999.2500         0.6264        58.8624     
 2155.0000      -999.2500      -999.2500       165.7196        25.5949      -999.2500         1.0941      -999.2500      -999.2500         0.6135        58.8939     
 2155.5000      -999.2500      -999.2500       164.9227        25.6393      -999.2500         1.0671      -999.2500      -999.2500         0.6011        58.9255     
 2156.0000      -999.2500      -999.2500       164.4813        26.5079      -999.2500         1.0417      -999.2500      -999.2500         0.5917        58.9570     
 2156.5000      -999.2500      -999.2500       166.2300        26.7172      -999.2500         1.0202      -999.2500      -999.2500         0.5823        58.9886     
 2157.0000      -999.2500      -999.2500       168.5047        26.4868      -999.2500         1.0483      -999.2500      -999.2500         0.5846        59.0202     
 2157.5000      -999.2500      -999.2500       168.5777        26.5736      -999.2500         1.0794      -999.2500      -999.2500         0.5900        59.0517     
 2158.0000      -999.2500      -999.2500       168.0926        26.8467      -999.2500         1.1102      -999.2500      -999.2500         0.6027        59.0833     
 2158.5000      -999.2500      -999.2500       167.0478        27.1519      -999.2500         1.1396      -999.2500      -999.2500         0.6170        59.1148     
 2159.0000      -999.2500      -999.2500       162.9862        27.3981      -999.2500         1.1691      -999.2500      -999.2500         0.6304        59.1464     
 2159.5000      -999.2500      -999.2500       160.2456        28.0020      -999.2500         1.1900      -999.2500      -999.2500         0.6419        59.1514     
 2160.0000      -999.2500      -999.2500       158.0315        28.4091      -999.2500         1.2052      -999.2500      -999.2500         0.6391        59.1510     
 2160.5000      -999.2500      -999.2500       156.5959        28.9326      -999.2500         1.2087      -999.2500      -999.2500         0.6364        59.1506     
 2161.0000      -999.2500      -999.2500       155.0345        27.5994      -999.2500         1.1966      -999.2500      -999.2500         0.6269        59.1502     
 2161.5000      -999.2500      -999.2500       154.6000        26.3989      -999.2500         1.1826      -999.2500      -999.2500         0.6170        59.1497     
 2162.0000      -999.2500      -999.2500       153.0358        24.8231      -999.2500         1.1673      -999.2500      -999.2500         0.6131        59.1493     
