~Version Information Section
VERS.          2.0                                     : CWLS LOG ASCII Standard
WRAP.          NO                                      : One line per depth step
CREA.          03/08/17                                : LAS Creation Date
~Well Information Section
STRT.ft        448.0000                                : Start Depth
STOP.ft        10248.0000                              : Stop Depth
STEP.ft        0.5000                                  : Step
NULL.          -999.2500                               : Null Value
COMP.          TEXACO PRODUCTION SERVICES LTD          : Company
WELL.          14/20-9                                 : Well
FLD .          MORAY FIRTH                             : Field
LOC .          NORTH SEA                               : Location
LOC1.          -                                       : Location (UTM)
CTRY.          UK                                      : Country
PROV.          UKCS                                    : Province
UWI .          866                                     : UWI Number
API .          -                                       : API Number
SECT.          -                                       : Section
TOWN.          -                                       : Township
RNGE.          -                                       : Range
PDAT.          MSL                                     : Perm Datum
EPD .ft        0                                       : Elevation
LMF .          KB                                      : Log Measured From
DMF .          KB                                      : Drill Measured From
APD .ft        86.0                                    : Above Perm Datum
EKB .ft        86.0                                    : Elev-Kelly Bushing
EDF .ft        84.0                                    : Elev-Drill Floor
EGL .ft        478.0                                   : Elev-Ground Level (Water Depth)
TDD .ft        10260.0                                 : Total Depth (Driller)
TDL .ft        10248.0                                 : Total Depth (Logger)
SRVC.          SCHLUMBERGER                            : Service Company
LATI.          58 29 47.7" N                           : Latitude
LONG.          00 01 07.0" W                           : Longitude
DATE.          27-NOV-1978 - 03-FEB-1979               : Logging Date
PROJ.          UKCS                                    : Project
SET .          COMP_WIRE                               : Set
~Curve Information Section
DEPTH.ft                                               : Depth Curve
CALI.in                                                : Caliper (FDC/CNL/GR)
DRHO.g/cc                                              : Delta Rho
DT.us/ft                                               : Delta-T
GR.gAPI                                                : Gamma Ray (ISF/BHC/GR)
GRD.gAPI                                               : Gamma Ray (FDC/CNL/GR)
ILD.Ohmm                                               : Deep Induction Standard Processed Resistivity
NPHI.LPU                                               : Neutron Porosity
RHOB.g/cc                                              : Bulk Density
SFL.Ohmm                                               : Spherically Focussed log Resistivity
SP.mV                                                  : Spontaneous Potential
~ASCII Log Data Section
# ...
 2677.5000      -999.2500      -999.2500       135.9680        51.6000      -999.2500         2.0893      -999.2500      -999.2500         1.3183        16.5000     
 2678.0000      -999.2500      -999.2500       121.7600        49.9000      -999.2500         2.0893      -999.2500      -999.2500         1.3183        17.0000     
 2678.5000      -999.2500      -999.2500       120.2240        48.1000      -999.2500         2.1086      -999.2500      -999.2500         1.3677        17.2500     
 2679.0000      -999.2500      -999.2500       112.9760        47.0000      -999.2500         2.1281      -999.2500      -999.2500         1.4454        17.2500     
 2679.5000      -999.2500      -999.2500       115.8080        46.0000      -999.2500         2.1281      -999.2500      -999.2500         1.5276        17.5000     
 2680.0000      -999.2500      -999.2500       126.2720        46.3000      -999.2500         2.1086      -999.2500      -999.2500         1.6596        17.2500     
 2680.5000      -999.2500      -999.2500       138.9440        46.4000      -999.2500         2.1086      -999.2500      -999.2500         1.7378        17.2500     
 2681.0000      -999.2500      -999.2500       166.3040        45.5000      -999.2500         2.1086      -999.2500      -999.2500         1.6749        17.5000     
 2681.5000      -999.2500      -999.2500       167.4080        44.5000      -999.2500         2.1086      -999.2500      -999.2500         1.4454        17.0000     
 2682.0000      -999.2500      -999.2500       165.8240        44.0000      -999.2500         2.1086      -999.2500      -999.2500         1.2706        16.7500     
 2682.5000      -999.2500      -999.2500       165.2000        44.9000      -999.2500         2.1281      -999.2500      -999.2500         1.2134        16.2500     
 2683.0000      -999.2500      -999.2500       150.8480        45.7000      -999.2500         2.0701      -999.2500      -999.2500         1.2134        16.2500     
 2683.5000      -999.2500      -999.2500       149.1200        44.9000      -999.2500         1.9231      -999.2500      -999.2500         1.2589        16.2500     
 2684.0000      -999.2500      -999.2500       146.0960        42.6000      -999.2500         1.9055      -999.2500      -999.2500         1.3932        16.2500     
 2684.5000      -999.2500      -999.2500       145.8560        40.3000      -999.2500         1.9231      -999.2500      -999.2500         1.7865        16.7500     
 2685.0000      -999.2500      -999.2500       146.2400        39.4000      -999.2500         1.9055      -999.2500      -999.2500         2.1086        16.7500     
 2685.5000      -999.2500      -999.2500       140.9120        40.1000      -999.2500         1.8707      -999.2500      -999.2500         2.1677        16.5000     
 2686.0000      -999.2500      -999.2500       139.0880        43.3000      -999.2500         1.8365      -999.2500      -999.2500         1.6749        17.0000     
 2686.5000      -999.2500      -999.2500       160.1600        47.0000      -999.2500         1.8030      -999.2500      -999.2500         1.4191        17.0000     
 2687.0000      -999.2500      -999.2500       161.1680        48.8000      -999.2500         1.8030      -999.2500      -999.2500         1.3428        17.2500     
 2687.5000      -999.2500      -999.2500       158.9600        49.3000      -999.2500         1.8030      -999.2500      -999.2500         1.3677        17.2500     
 2688.0000      -999.2500      -999.2500       157.2320        49.1000      -999.2500         1.8030      -999.2500      -999.2500         1.3932        17.0000     
 2688.5000      -999.2500      -999.2500       161.7440        48.1000      -999.2500         1.8030      -999.2500      -999.2500         1.3804        17.2500     
 2689.0000      -999.2500      -999.2500       176.3360        47.9000      -999.2500         1.7701      -999.2500      -999.2500         1.3183        17.2500     
 2689.5000      -999.2500      -999.2500       173.9840        49.6000      -999.2500         1.7701      -999.2500      -999.2500         1.2942        17.2500     
 2690.0000      -999.2500      -999.2500       168.8480        50.9000      -999.2500         1.7539      -999.2500      -999.2500         1.3062        17.5000     
 2690.5000      -999.2500      -999.2500       160.4480        50.7000      -999.2500         1.7539      -999.2500      -999.2500         1.3428        17.7500     
 2691.0000      -999.2500      -999.2500       157.5200        49.5000      -999.2500         1.7378      -999.2500      -999.2500         1.3552        17.5000     
 2691.5000      -999.2500      -999.2500       169.0400        47.9000      -999.2500         1.7378      -999.2500      -999.2500         1.3552        17.2500     
 2692.0000      -999.2500      -999.2500       169.2800        47.2000      -999.2500         1.7539      -999.2500      -999.2500         1.3062        17.2500     
 2692.5000      -999.2500      -999.2500       170.5760        46.9000      -999.2500         1.7539      -999.2500      -999.2500         1.2823        17.2500     
 2693.0000      -999.2500      -999.2500       171.4880        47.4000      -999.2500         1.7539      -999.2500      -999.2500         1.2589        17.2500     
 2693.5000      -999.2500      -999.2500       171.6800        49.9000      -999.2500         1.7539      -999.2500      -999.2500         1.2589        17.2500     
 2694.0000      -999.2500      -999.2500       153.2000        52.7000      -999.2500         1.7539      -999.2500      -999.2500         1.2942        17.0000     
 2694.5000      -999.2500      -999.2500       154.1600        53.3000      -999.2500         1.7539      -999.2500      -999.2500         1.3183        17.0000     
 2695.0000      -999.2500      -999.2500       158.0480        52.9000      -999.2500         1.7539      -999.2500      -999.2500         1.3428        17.2500     
 2695.5000      -999.2500      -999.2500       159.8720        51.1000      -999.2500         1.7865      -999.2500      -999.2500         1.3062        17.2500     
 2696.0000      -999.2500      -999.2500       163.6640        48.5000      -999.2500         1.8707      -999.2500      -999.2500         1.2942        17.5000     
 2696.5000      -999.2500      -999.2500       165.0560        45.1000      -999.2500         1.8707      -999.2500      -999.2500         1.2823        17.7500     
 2697.0000      -999.2500      -999.2500       161.0240        43.2000      -999.2500         1.8880      -999.2500      -999.2500         1.3305        17.5000     
 2697.5000      -999.2500      -999.2500       157.1840        42.9000      -999.2500         1.9409      -999.2500      -999.2500         1.4322        17.2500     
 2698.0000      -999.2500      -999.2500       159.7760        43.0000      -999.2500         1.9409      -999.2500      -999.2500         1.4859        17.0000     
 2698.5000      -999.2500      -999.2500       171.9200        42.7000      -999.2500         1.9409      -999.2500      -999.2500         1.4454        16.7500     
 2699.0000      -999.2500      -999.2500       179.2640        42.6000      -999.2500         1.9409      -999.2500      -999.2500         1.2706        17.0000     
 2699.5000      -999.2500      -999.2500       188.8640        42.9000      -999.2500         1.9409      -999.2500      -999.2500         1.2474        17.0000     
 2700.0000      -999.2500      -999.2500       191.8880        42.6000      -999.2500         1.8365      -999.2500      -999.2500         1.2823        17.5000     
 2700.5000      -999.2500      -999.2500       190.0160        41.1000      -999.2500         1.8365      -999.2500      -999.2500         1.3428        17.7500     
 2701.0000      -999.2500      -999.2500       187.3760        38.5000      -999.2500         1.8535      -999.2500      -999.2500         1.3932        18.2500     
 2701.5000      -999.2500      -999.2500       189.2480        35.7000      -999.2500         1.8535      -999.2500      -999.2500         1.3552        18.5000     
