~Version Information Section
VERS.          2.0                                     : CWLS LOG ASCII Standard
WRAP.          NO                                      : One line per depth step
CREA.          03/08/17                                : LAS Creation Date
~Well Information Section
STRT.ft        448.0000                                : Start Depth
STOP.ft        10248.0000                              : Stop Depth
STEP.ft        0.5000                                  : Step
NULL.          -999.2500                               : Null Value
COMP.          TEXACO PRODUCTION SERVICES LTD          : Company
WELL.          14/20-9                                 : Well
FLD .          MORAY FIRTH                             : Field
LOC .          NORTH SEA                               : Location
LOC1.          -                                       : Location (UTM)
CTRY.          UK                                      : Country
PROV.          UKCS                                    : Province
UWI .          866                                     : UWI Number
API .          -                                       : API Number
SECT.          -                                       : Section
TOWN.          -                                       : Township
RNGE.          -                                       : Range
PDAT.          MSL                                     : Perm Datum
EPD .ft        0                                       : Elevation
LMF .          KB                                      : Log Measured From
DMF .          KB                                      : Drill Measured From
APD .ft        86.0                                    : Above Perm Datum
EKB .ft        86.0                                    : Elev-Kelly Bushing
EDF .ft        84.0                                    : Elev-Drill Floor
EGL .ft        478.0                                   : Elev-Ground Level (Water Depth)
TDD .ft        10260.0                                 : Total Depth (Driller)
TDL .ft        10248.0                                 : Total Depth (Logger)
SRVC.          SCHLUMBERGER                            : Service Company
LATI.          58 29 47.7" N                           : Latitude
LONG.          00 01 07.0" W                           : Longitude
DATE.          27-NOV-1978 - 03-FEB-1979               : Logging Date
PROJ.          UKCS                                    : Project
SET .          COMP_WIRE                               : Set
~Curve Information Section
DEPTH.ft                                               : Depth Curve
CALI.in                                                : Caliper (FDC/CNL/GR)
DRHO.g/cc                                              : Delta Rho
DT.us/ft                                               : Delta-T
GR.gAPI                                                : Gamma Ray (ISF/BHC/GR)
GRD.gAPI                                               : Gamma Ray (FDC/CNL/GR)
ILD.Ohmm                                               : Deep Induction Standard Processed Resistivity
NPHI.LPU                                               : Neutron Porosity
RHOB.g/cc                                              : Bulk Density
SFL.Ohmm                                               : Spherically Focussed log Resistivity
SP.mV                                                  : Spontaneous Potential
~ASCII Log Data Section
# ...
 2114.0000      -999.2500      -999.2500       158.3360        29.8000      -999.2500         1.2023      -999.2500      -999.2500         0.9462        17.2500     
 2114.5000      -999.2500      -999.2500       158.2880        29.4000      -999.2500         1.2023      -999.2500      -999.2500         0.9817        17.0000     
 2115.0000      -999.2500      -999.2500       156.8000        30.1000      -999.2500         1.2023      -999.2500      -999.2500         1.0093        16.7500     
 2115.5000      -999.2500      -999.2500       156.5600        30.6000      -999.2500         1.2246      -999.2500      -999.2500         1.0186        16.2500     
 2116.0000      -999.2500      -999.2500       155.6480        30.0000      -999.2500         1.2474      -999.2500      -999.2500         1.0375        16.0000     
 2116.5000      -999.2500      -999.2500       156.3200        28.8000      -999.2500         1.2474      -999.2500      -999.2500         1.0280        15.7500     
 2117.0000      -999.2500      -999.2500       156.4160        27.1000      -999.2500         1.2706      -999.2500      -999.2500         1.0093        15.7500     
 2117.5000      -999.2500      -999.2500       155.9360        27.2000      -999.2500         1.2823      -999.2500      -999.2500         1.0000        16.0000     
 2118.0000      -999.2500      -999.2500       155.9360        28.9000      -999.2500         1.3428      -999.2500      -999.2500         1.0186        16.2500     
 2118.5000      -999.2500      -999.2500       154.1120        29.4000      -999.2500         1.4322      -999.2500      -999.2500         1.0471        16.2500     
 2119.0000      -999.2500      -999.2500       155.2160        28.6000      -999.2500         1.4454      -999.2500      -999.2500         1.0666        16.5000     
 2119.5000      -999.2500      -999.2500       156.1280        28.5000      -999.2500         1.4588      -999.2500      -999.2500         1.0765        16.7500     
 2120.0000      -999.2500      -999.2500       158.0960        29.1000      -999.2500         1.4454      -999.2500      -999.2500         1.0765        16.7500     
 2120.5000      -999.2500      -999.2500       158.9600        30.1000      -999.2500         1.4588      -999.2500      -999.2500         1.0765        16.7500     
 2121.0000      -999.2500      -999.2500       157.1840        31.3000      -999.2500         1.4588      -999.2500      -999.2500         1.1066        17.2500     
 2121.5000      -999.2500      -999.2500       155.1200        32.4000      -999.2500         1.4060      -999.2500      -999.2500         1.1169        17.2500     
 2122.0000      -999.2500      -999.2500       153.4400        31.5000      -999.2500         1.3428      -999.2500      -999.2500         1.1376        17.7500     
 2122.5000      -999.2500      -999.2500       152.1920        31.2000      -999.2500         1.3428      -999.2500      -999.2500         1.1482        18.2500     
 2123.0000      -999.2500      -999.2500       150.9920        31.9000      -999.2500         1.3305      -999.2500      -999.2500         1.1588        18.2500     
 2123.5000      -999.2500      -999.2500       152.0000        31.7000      -999.2500         1.2823      -999.2500      -999.2500         1.1376        18.7500     
 2124.0000      -999.2500      -999.2500       153.7280        31.6000      -999.2500         1.2706      -999.2500      -999.2500         1.1066        18.5000     
 2124.5000      -999.2500      -999.2500       156.2240        32.3000      -999.2500         1.2706      -999.2500      -999.2500         1.0765        18.2500     
 2125.0000      -999.2500      -999.2500       158.5280        33.1000      -999.2500         1.2706      -999.2500      -999.2500         1.0765        18.2500     
 2125.5000      -999.2500      -999.2500       158.5280        33.1000      -999.2500         1.2706      -999.2500      -999.2500         1.0765        18.0000     
 2126.0000      -999.2500      -999.2500       156.6560        31.9000      -999.2500         1.2706      -999.2500      -999.2500         1.0965        18.2500     
 2126.5000      -999.2500      -999.2500       156.0320        30.4000      -999.2500         1.2474      -999.2500      -999.2500         1.0965        17.7500     
 2127.0000      -999.2500      -999.2500       154.0640        30.0000      -999.2500         1.2246      -999.2500      -999.2500         1.0965        17.5000     
 2127.5000      -999.2500      -999.2500       155.2160        30.8000      -999.2500         1.2134      -999.2500      -999.2500         1.0666        17.2500     
 2128.0000      -999.2500      -999.2500       155.4560        31.1000      -999.2500         1.2134      -999.2500      -999.2500         1.0375        17.0000     
 2128.5000      -999.2500      -999.2500       155.4080        30.3000      -999.2500         1.2023      -999.2500      -999.2500         1.0000        16.7500     
 2129.0000      -999.2500      -999.2500       156.4160        29.5000      -999.2500         1.2023      -999.2500      -999.2500         0.9908        16.2500     
 2129.5000      -999.2500      -999.2500       156.0320        29.4000      -999.2500         1.2023      -999.2500      -999.2500         1.0000        16.5000     
 2130.0000      -999.2500      -999.2500       154.8800        29.7000      -999.2500         1.2023      -999.2500      -999.2500         1.0186        16.2500     
 2130.5000      -999.2500      -999.2500       154.6400        29.4000      -999.2500         1.1912      -999.2500      -999.2500         1.0375        16.5000     
 2131.0000      -999.2500      -999.2500       154.7840        29.5000      -999.2500         1.1803      -999.2500      -999.2500         1.0280        16.7500     
 2131.5000      -999.2500      -999.2500       156.2720        30.3000      -999.2500         1.1803      -999.2500      -999.2500         1.0000        16.5000     
 2132.0000      -999.2500      -999.2500       157.3760        30.7000      -999.2500         1.1803      -999.2500      -999.2500         0.9638        16.2500     
 2132.5000      -999.2500      -999.2500       157.8560        30.9000      -999.2500         1.1803      -999.2500      -999.2500         0.9550        16.7500     
 2133.0000      -999.2500      -999.2500       160.2080        31.3000      -999.2500         1.1803      -999.2500      -999.2500         0.9462        17.2500     
 2133.5000      -999.2500      -999.2500       162.3680        30.7000      -999.2500         1.1803      -999.2500      -999.2500         0.9462        17.7500     
 2134.0000      -999.2500      -999.2500       161.7920        30.4000      -999.2500         1.2023      -999.2500      -999.2500         0.9462        18.2500     
 2134.5000      -999.2500      -999.2500       161.4080        30.2000      -999.2500         1.2246      -999.2500      -999.2500         0.9290        18.0000     
 2135.0000      -999.2500      -999.2500       160.8320        29.9000      -999.2500         1.2246      -999.2500      -999.2500         0.9204        18.2500     
 2135.5000      -999.2500      -999.2500       160.3520        30.8000      -999.2500         1.2246      -999.2500      -999.2500         0.9204        18.2500     
 2136.0000      -999.2500      -999.2500       159.6320        31.5000      -999.2500         1.2246      -999.2500      -999.2500         0.9204        18.2500     
 2136.5000      -999.2500      -999.2500       158.7680        31.6000      -999.2500         1.2246      -999.2500      -999.2500         0.9204        18.2500     
 2137.0000      -999.2500      -999.2500       159.3920        31.7000      -999.2500         1.2246      -999.2500      -999.2500         0.9204        17.7500     
 2137.5000      -999.2500      -999.2500       160.4480        31.5000      -999.2500         1.2246      -999.2500      -999.2500         0.9120        17.5000     
 2138.0000      -999.2500      -999.2500       160.4480        31.7000      -999.2500         1.2246      -999.2500      -999.2500         0.9036        17.0000     
