~Version Information Section
VERS.          2.0                                     : CWLS LOG ASCII Standard
WRAP.          NO                                      : One line per depth step
CREA.          03/08/17                                : LAS Creation Date
~Well Information Section
STRT.ft        448.0000                                : Start Depth
STOP.ft        10248.0000                              : Stop Depth
STEP.ft        0.5000                                  : Step
NULL.          -999.2500                               : Null Value
COMP.          TEXACO PRODUCTION SERVICES LTD          : Company
WELL.          14/20-9                                 : Well
FLD .          MORAY FIRTH                             : Field
LOC .          NORTH SEA                               : Location
LOC1.          -                                       : Location (UTM)
CTRY.          UK                                      : Country
PROV.          UKCS                                    : Province
UWI .          866                                     : UWI Number
API .          -                                       : API Number
SECT.          -                                       : Section
TOWN.          -                                       : Township
RNGE.          -                                       : Range
PDAT.          MSL                                     : Perm Datum
EPD .ft        0                                       : Elevation
LMF .          KB                                      : Log Measured From
DMF .          KB                                      : Drill Measured From
APD .ft        86.0                                    : Above Perm Datum
EKB .ft        86.0                                    : Elev-Kelly Bushing
EDF .ft        84.0                                    : Elev-Drill Floor
EGL .ft        478.0                                   : Elev-Ground Level (Water Depth)
TDD .ft        10260.0                                 : Total Depth (Driller)
TDL .ft        10248.0                                 : Total Depth (Logger)
SRVC.          SCHLUMBERGER                            : Service Company
LATI.          58 29 47.7" N                           : Latitude
LONG.          00 01 07.0" W                           : Longitude
DATE.          27-NOV-1978 - 03-FEB-1979               : Logging Date
PROJ.          UKCS                                    : Project
SET .          COMP_WIRE                               : Set
~Curve Information Section
DEPTH.ft                                               : Depth Curve
CALI.in                                                : Caliper (FDC/CNL/GR)
DRHO.g/cc                                              : Delta Rho
DT.us/ft                                               : Delta-T
GR.gAPI                                                : Gamma Ray (ISF/BHC/GR)
GRD.gAPI                                               : Gamma Ray (FDC/CNL/GR)
ILD.Ohmm                                               : Deep Induction Standard Processed Resistivity
NPHI.LPU                                               : Neutron Porosity
RHOB.g/cc                                              : Bulk Density
SFL.Ohmm                                               : Spherically Focussed log Resistivity
SP.mV                                                  : Spontaneous Potential
~ASCII Log Data Section
# ...
 7308.0000        13.4171         0.0050        71.8216        17.4170        13.1968         4.4873        14.7080         2.4628         4.2034        35.5384     
 7308.5000        13.3502         0.0192        70.2868        16.1839        10.8512         4.5533        12.4805         2.5085         4.3448        34.9307     
 7309.0000        13.3056         0.0364        68.4594        16.2425         8.8848         4.7023        11.8835         2.5519         4.5398        33.5489     
 7309.5000        13.2892         0.0288        67.2872        16.2669         7.6573         4.9574        11.0375         2.5495         4.9951        33.6126     
 7310.0000        13.2113         0.0178        66.3315        15.8300         7.6954         5.1459         9.5921         2.5405         5.3669        33.6227     
 7310.5000        13.2000         0.0213        65.8082        15.4415         8.5709         5.2698         8.5864         2.5398         5.6643        33.6329     
 7311.0000        13.2053         0.0392        64.1066        15.6818         9.4161         5.3927         8.0778         2.5612         5.6630        33.7093     
 7311.5000        13.2549         0.0307        64.0774        16.5559        10.3922         5.5192         7.6757         2.5779         5.2631        34.7425     
 7312.0000        13.3226         0.0520        66.7909        17.0925        11.2432         5.6476         7.9407         2.5944         4.8334        35.3041     
 7312.5000        13.2170         0.0783        68.0676        16.7690        10.8554         5.7757         9.1866         2.6205         4.9727        35.2941     
 7313.0000        13.2209         0.0442        69.0267        15.6190         9.3950         5.8391         9.3303         2.5903         6.7134        34.4501     
 7313.5000        13.3460         0.0107        67.3603        14.6075         9.1632         5.7887         7.0108         2.5572         7.9771        34.2989     
 7314.0000        13.1397         0.0114        65.7513        14.4368         9.5938         5.7435         6.1277         2.5770         7.9665        34.7235     
 7314.5000        13.1546         0.0254        65.5404        14.4732        10.0525         5.7133         6.5091         2.5951         7.8707        35.0224     
 7315.0000        13.2333         0.0241        66.1318        14.5636        10.2393         5.6648         6.8230         2.5922         7.7968        35.1271     
 7315.5000        13.2109         0.0290        65.7370        14.7915        10.6523         5.6319         6.8600         2.5871         7.8524        35.1375     
 7316.0000        13.2391         0.0426        65.5223        15.1231        10.7783         5.6022         6.8703         2.5885         6.9923        35.1431     
 7316.5000        13.2058         0.0471        66.4228        14.8719        10.7218         5.5732         6.9731         2.5940         6.1913        34.9442     
 7317.0000        13.1950         0.0465        67.1058        14.7253        10.8085         5.6946         7.1926         2.5996         5.7029        34.8308     
 7317.5000        13.1558         0.0593        67.1967        15.1059        10.9567         5.8667         7.3525         2.6016         5.8957        35.2319     
 7318.0000        13.1550         0.0406        67.1626        15.3378        10.7836         6.0349         7.1169         2.5917         6.1841        35.0592     
 7318.5000        13.1941         0.0210        67.0762        14.9708        10.4071         6.1874         6.4793         2.5782         6.3755        34.3874     
 7319.0000        13.2000         0.0207        64.7400        14.6177         9.9090         6.3385         5.8348         2.5861         6.7564        33.7807     
 7319.5000        13.2098         0.0139        62.7875        14.6466         8.6463         6.3946         5.0736         2.6040         9.3987        33.3276     
 7320.0000        13.2833         0.0046        61.6604        14.6660         7.6195         6.3703         4.3673         2.6108        10.3472        32.7694     
 7320.5000        13.2510         0.0070        63.2689        14.3715         8.2227         6.3967         4.3995         2.6135         9.9314        32.7313     
 7321.0000        13.2059         0.0201        64.2373        14.2020         9.2381         6.5099         5.7082         2.6001         7.2431        32.6543     
 7321.5000        13.2000         0.0356        65.2269        14.3355         9.1756         6.6516         6.5456         2.5973         6.4392        31.9655     
 7322.0000        13.2048         0.0362        64.9544        14.2874         8.8073         6.8198         5.9505         2.5984         6.8617        31.9738     
 7322.5000        13.2536         0.0429        64.9407        13.9340         9.2641         6.8477         5.6330         2.6033         7.0910        32.8312     
 7323.0000        13.3381         0.0447        65.5717        13.8389        10.4399         6.6561         5.9274         2.6106         6.4990        34.1401     
 7323.5000        13.3500         0.0495        65.8863        13.8552        11.4170         5.9828         6.4465         2.6087         5.7854        34.2626     
 7324.0000        13.3500         0.0430        66.1280        14.1223        11.7864         5.6698         7.0552         2.6048         5.5639        33.7482     
 7324.5000        13.3407         0.0284        66.8599        14.1305        11.2282         5.7208         7.0086         2.6204         5.5900        33.1643     
 7325.0000        13.2574         0.0415        66.7153        13.9725        10.6538         5.7788         7.2286         2.6226         5.7869        32.8300     
 7325.5000        13.2107         0.0351        66.6116        13.9049        10.3490         5.9310         7.5463         2.6113         6.2821        32.7400     
 7326.0000        13.2440         0.0241        66.8171        14.0158         9.6779         6.0963         7.1545         2.5927         6.8298        32.7500     
 7326.5000        13.2546         0.0190        66.9870        14.1410         9.4150         6.2587         6.4104         2.5889         7.3085        32.7603     
 7327.0000        13.2985         0.0138        65.8873        14.1557         9.3030         6.3501         6.1785         2.5858         7.6007        32.7705     
 7327.5000        13.3348         0.0055        65.8859        13.7545         9.2488         6.4370         5.9785         2.5852         8.0461        32.7808     
 7328.0000        13.2577        -0.0002        66.3867        13.2484         9.5692         6.5186         5.7214         2.5768         8.0413        32.6055     
 7328.5000        13.2061         0.0089        67.6380        13.5372         9.8115         6.5145         5.5569         2.5712         7.9011        32.3108     
 7329.0000        13.2044         0.0280        68.9507        14.4168        10.2043         6.4970         5.3776         2.5891         7.4436        31.9188     
 7329.5000        13.2483         0.0208        69.7541        15.5367        10.7885         6.3937         5.4688         2.6121         6.6581        32.1127     
 7330.0000        13.2851         0.0132        69.8966        16.5371        11.4406         5.7949         5.7613         2.6027         5.7679        32.6312     
 7330.5000        13.2210         0.0129        69.6338        16.8474        11.7456         5.2962         6.5092         2.5892         5.7677        31.8193     
 7331.0000        13.2877         0.0045        69.7691        17.1775        11.5457         5.4714         7.1801         2.5716         6.7182        31.2338     
 7331.5000        13.2956        -0.0020        70.2072        17.1101        10.8368         5.6443         6.9485         2.5518         5.6353        31.0983     
 7332.0000        13.2518         0.0077        71.8112        16.7100        10.9802         5.7391         7.6131         2.5456         4.8901        31.1407     
