~Version Information Section
VERS.          2.0                                     : CWLS LOG ASCII Standard
WRAP.          NO                                      : One line per depth step
CREA.          03/08/17                                : LAS Creation Date
~Well Information Section
STRT.ft        448.0000                                : Start Depth
STOP.ft        10248.0000                              : Stop Depth
STEP.ft        0.5000                                  : Step
NULL.          -999.2500                               : Null Value
COMP.          TEXACO PRODUCTION SERVICES LTD          : Company
WELL.          14/20-9                                 : Well
FLD .          MORAY FIRTH                             : Field
LOC .          NORTH SEA                               : Location
LOC1.          -                                       : Location (UTM)
CTRY.          UK                                      : Country
PROV.          UKCS                                    : Province
UWI .          866                                     : UWI Number
API .          -                                       : API Number
SECT.          -                                       : Section
TOWN.          -                                       : Township
RNGE.          -                                       : Range
PDAT.          MSL                                     : Perm Datum
EPD .ft        0                                       : Elevation
LMF .          KB                                      : Log Measured From
DMF .          KB                                      : Drill Measured From
APD .ft        86.0                                    : Above Perm Datum
EKB .ft        86.0                                    : Elev-Kelly Bushing
EDF .ft        84.0                                    : Elev-Drill Floor
EGL .ft        478.0                                   : Elev-Ground Level (Water Depth)
TDD .ft        10260.0                                 : Total Depth (Driller)
TDL .ft        10248.0                                 : Total Depth (Logger)
SRVC.          SCHLUMBERGER                            : Service Company
LATI.          58 29 47.7" N                           : Latitude
LONG.          00 01 07.0" W                           : Longitude
DATE.          27-NOV-1978 - 03-FEB-1979               : Logging Date
PROJ.          UKCS                                    : Project
SET .          COMP_WIRE                               : Set
~Curve Information Section
DEPTH.ft                                               : Depth Curve
CALI.in                                                : Caliper (FDC/CNL/GR)
DRHO.g/cc                                              : Delta Rho
DT.us/ft                                               : Delta-T
GR.gAPI                                                : Gamma Ray (ISF/BHC/GR)
GRD.gAPI                                               : Gamma Ray (FDC/CNL/GR)
ILD.Ohmm                                               : Deep Induction Standard Processed Resistivity
NPHI.LPU                                               : Neutron Porosity
RHOB.g/cc                                              : Bulk Density
SFL.Ohmm                                               : Spherically Focussed log Resistivity
SP.mV                                                  : Spontaneous Potential
~ASCII Log Data Section
# ...
 3265.5000      -999.2500      -999.2500       124.6400        31.0000      -999.2500         1.1376      -999.2500      -999.2500         1.0765        13.7500     
 3266.0000      -999.2500      -999.2500       125.3120        31.2000      -999.2500         1.1376      -999.2500      -999.2500         1.0666        13.5000     
 3266.5000      -999.2500      -999.2500       126.2720        31.2000      -999.2500         1.1376      -999.2500      -999.2500         1.0280        14.0000     
 3267.0000      -999.2500      -999.2500       126.8480        31.2000      -999.2500         1.1272      -999.2500      -999.2500         0.9908        14.0000     
 3267.5000      -999.2500      -999.2500       127.0400        30.6000      -999.2500         1.1272      -999.2500      -999.2500         0.9638        14.2500     
 3268.0000      -999.2500      -999.2500       127.5680        29.4000      -999.2500         1.1272      -999.2500      -999.2500         0.9550        14.5000     
 3268.5000      -999.2500      -999.2500       127.9040        28.7000      -999.2500         1.1376      -999.2500      -999.2500         0.9550        14.7500     
 3269.0000      -999.2500      -999.2500       126.0320        29.3000      -999.2500         1.1588      -999.2500      -999.2500         0.9638        15.0000     
 3269.5000      -999.2500      -999.2500       125.7440        31.7000      -999.2500         1.2023      -999.2500      -999.2500         1.0093        15.2500     
 3270.0000      -999.2500      -999.2500       124.0160        34.3000      -999.2500         1.2474      -999.2500      -999.2500         1.0765        15.5000     
 3270.5000      -999.2500      -999.2500       121.2320        35.8000      -999.2500         1.2359      -999.2500      -999.2500         1.1169        15.7500     
 3271.0000      -999.2500      -999.2500       120.6560        36.3000      -999.2500         1.2134      -999.2500      -999.2500         1.1588        16.0000     
 3271.5000      -999.2500      -999.2500       120.2240        34.7000      -999.2500         1.1912      -999.2500      -999.2500         1.2246        16.2500     
 3272.0000      -999.2500      -999.2500       119.5040        31.0000      -999.2500         1.1912      -999.2500      -999.2500         1.2474        16.2500     
 3272.5000      -999.2500      -999.2500       119.4560        28.6000      -999.2500         1.1588      -999.2500      -999.2500         1.2246        16.2500     
 3273.0000      -999.2500      -999.2500       120.7520        28.7000      -999.2500         1.1272      -999.2500      -999.2500         1.1912        15.7500     
 3273.5000      -999.2500      -999.2500       121.3760        30.2000      -999.2500         1.1272      -999.2500      -999.2500         1.1803        15.2500     
 3274.0000      -999.2500      -999.2500       121.5200        31.2000      -999.2500         1.1272      -999.2500      -999.2500         1.1912        15.2500     
 3274.5000      -999.2500      -999.2500       122.7680        30.5000      -999.2500         1.1272      -999.2500      -999.2500         1.1803        14.7500     
 3275.0000      -999.2500      -999.2500       122.4320        29.6000      -999.2500         1.1272      -999.2500      -999.2500         1.1272        14.5000     
 3275.5000      -999.2500      -999.2500       127.0880        30.3000      -999.2500         1.1272      -999.2500      -999.2500         1.0471        14.2500     
 3276.0000      -999.2500      -999.2500       128.8640        31.1000      -999.2500         1.1272      -999.2500      -999.2500         0.9908        14.2500     
 3276.5000      -999.2500      -999.2500       129.3440        30.5000      -999.2500         1.1376      -999.2500      -999.2500         0.9462        14.2500     
 3277.0000      -999.2500      -999.2500       129.4400        29.9000      -999.2500         1.1588      -999.2500      -999.2500         0.9550        14.5000     
 3277.5000      -999.2500      -999.2500       129.1520        30.1000      -999.2500         1.1588      -999.2500      -999.2500         1.0000        14.5000     
 3278.0000      -999.2500      -999.2500       126.3680        30.8000      -999.2500         1.1588      -999.2500      -999.2500         1.0471        14.7500     
 3278.5000      -999.2500      -999.2500       126.6080        31.7000      -999.2500         1.1588      -999.2500      -999.2500         1.0568        14.7500     
 3279.0000      -999.2500      -999.2500       128.0000        32.2000      -999.2500         1.1482      -999.2500      -999.2500         1.0280        15.0000     
 3279.5000      -999.2500      -999.2500       127.2320        33.1000      -999.2500         1.1482      -999.2500      -999.2500         1.0093        15.0000     
 3280.0000      -999.2500      -999.2500       124.4960        33.3000      -999.2500         1.1376      -999.2500      -999.2500         1.0568        15.0000     
 3280.5000      -999.2500      -999.2500       123.5360        32.4000      -999.2500         1.1272      -999.2500      -999.2500         1.1588        15.2500     
 3281.0000      -999.2500      -999.2500       124.1600        31.9000      -999.2500         1.1376      -999.2500      -999.2500         1.2023        15.0000     
 3281.5000      -999.2500      -999.2500       126.4640        31.3000      -999.2500         1.1376      -999.2500      -999.2500         1.1272        15.5000     
 3282.0000      -999.2500      -999.2500       131.4080        30.1000      -999.2500         1.1169      -999.2500      -999.2500         1.0280        15.2500     
 3282.5000      -999.2500      -999.2500       131.6000        29.8000      -999.2500         1.0666      -999.2500      -999.2500         0.9550        15.5000     
 3283.0000      -999.2500      -999.2500       130.4000        30.7000      -999.2500         0.9817      -999.2500      -999.2500         0.9376        15.7500     
 3283.5000      -999.2500      -999.2500       125.8400        31.9000      -999.2500         0.9204      -999.2500      -999.2500         0.9908        15.7500     
 3284.0000      -999.2500      -999.2500       125.9840        32.2000      -999.2500         0.8954      -999.2500      -999.2500         1.0965        15.7500     
 3284.5000      -999.2500      -999.2500       126.1280        31.7000      -999.2500         0.8954      -999.2500      -999.2500         1.1376        15.5000     
 3285.0000      -999.2500      -999.2500       128.3840        30.3000      -999.2500         0.8630      -999.2500      -999.2500         1.0765        15.2500     
 3285.5000      -999.2500      -999.2500       132.6080        28.6000      -999.2500         0.8241      -999.2500      -999.2500         1.0000        15.2500     
 3286.0000      -999.2500      -999.2500       132.2240        28.1000      -999.2500         0.7943      -999.2500      -999.2500         0.9462        15.0000     
 3286.5000      -999.2500      -999.2500       132.5600        26.8000      -999.2500         0.7586      -999.2500      -999.2500         0.9120        14.7500     
 3287.0000      -999.2500      -999.2500       133.6640        26.3000      -999.2500         0.7516      -999.2500      -999.2500         0.8790        14.7500     
 3287.5000      -999.2500      -999.2500       134.6720        28.3000      -999.2500         0.7447      -999.2500      -999.2500         0.8630        14.5000     
 3288.0000      -999.2500      -999.2500       134.4320        30.5000      -999.2500         0.7447      -999.2500      -999.2500         0.8790        14.5000     
 3288.5000      -999.2500      -999.2500       133.3280        32.0000      -999.2500         0.7586      -999.2500      -999.2500         0.9036        14.2500     
 3289.0000      -999.2500      -999.2500       133.7600        31.9000      -999.2500         0.7656      -999.2500      -999.2500         0.9120        14.7500     
 3289.5000      -999.2500      -999.2500       134.8160        30.0000      -999.2500         0.7656      -999.2500      -999.2500         0.8872        14.7500     
