~Version Information Section
VERS.          2.0                                     : CWLS LOG ASCII Standard
WRAP.          NO                                      : One line per depth step
CREA.          03/08/17                                : LAS Creation Date
~Well Information Section
STRT.ft        448.0000                                : Start Depth
STOP.ft        10248.0000                              : Stop Depth
STEP.ft        0.5000                                  : Step
NULL.          -999.2500                               : Null Value
COMP.          TEXACO PRODUCTION SERVICES LTD          : Company
WELL.          14/20-9                                 : Well
FLD .          MORAY FIRTH                             : Field
LOC .          NORTH SEA                               : Location
LOC1.          -                                       : Location (UTM)
CTRY.          UK                                      : Country
PROV.          UKCS                                    : Province
UWI .          866                                     : UWI Number
API .          -                                       : API Number
SECT.          -                                       : Section
TOWN.          -                                       : Township
RNGE.          -                                       : Range
PDAT.          MSL                                     : Perm Datum
EPD .ft        0                                       : Elevation
LMF .          KB                                      : Log Measured From
DMF .          KB                                      : Drill Measured From
APD .ft        86.0                                    : Above Perm Datum
EKB .ft        86.0                                    : Elev-Kelly Bushing
EDF .ft        84.0                                    : Elev-Drill Floor
EGL .ft        478.0                                   : Elev-Ground Level (Water Depth)
TDD .ft        10260.0                                 : Total Depth (Driller)
TDL .ft        10248.0                                 : Total Depth (Logger)
SRVC.          SCHLUMBERGER                            : Service Company
LATI.          58 29 47.7" N                           : Latitude
LONG.          00 01 07.0" W                           : Longitude
DATE.          27-NOV-1978 - 03-FEB-1979               : Logging Date
PROJ.          UKCS                                    : Project
SET .          COMP_WIRE                               : Set
~Curve Information Section
DEPTH.ft                                               : Depth Curve
CALI.in                                                : Caliper (FDC/CNL/GR)
DRHO.g/cc                                              : Delta Rho
DT.us/ft                                               : Delta-T
GR.gAPI                                                : Gamma Ray (ISF/BHC/GR)
GRD.gAPI                                               : Gamma Ray (FDC/CNL/GR)
ILD.Ohmm                                               : Deep Induction Standard Processed Resistivity
NPHI.LPU                                               : Neutron Porosity
RHOB.g/cc                                              : Bulk Density
SFL.Ohmm                                               : Spherically Focussed log Resistivity
SP.mV                                                  : Spontaneous Potential
~ASCII Log Data Section
# ...
 5568.5000        13.2186         0.0322       119.1894        67.9753        62.8809         0.9555        31.5350         2.2276         0.9650        29.9245     
 5569.0000        13.2942         0.0525       124.4224        68.6996        65.6208         1.0034        31.6637         2.2448         1.0100        30.8073     
 5569.5000        13.3000         0.0473       127.6328        68.3053        68.9056         1.0466        33.4422         2.2588         1.0470        30.9041     
 5570.0000        13.3000         0.0426       130.5035        68.4942        69.9412         1.0940        35.6742         2.2583         1.0653        30.9977     
 5570.5000        13.3239         0.0401       132.5664        71.3592        69.7253         1.0948        38.2886         2.2601         1.0415        31.5120     
 5571.0000        13.4442         0.0405       135.1002        75.4391        70.6667         1.1031        40.1131         2.2552         0.9742        32.0506     
 5571.5000        13.5789         0.0432       138.9724        80.0209        71.1531         1.1102        41.5330         2.2422         0.9794        32.6342     
 5572.0000        13.5648         0.0432       142.6237        83.4636        71.3878         1.1146        43.4867         2.2389         0.9790        32.6069     
 5572.5000        13.6502         0.0340       144.6903        84.8931        72.1550         1.1173        44.8083         2.2281         0.9346        33.1048     
 5573.0000        13.7398         0.0427       147.5820        84.9979        75.0239         1.1166        44.6124         2.2186         0.9205        34.0831     
 5573.5000        13.8375         0.0617       148.1623        84.4225        77.3546         1.1158        43.9550         2.2415         0.9144        34.4484     
 5574.0000        14.3418         0.0517       146.6917        82.5973        77.6496         1.1151        42.8728         2.2530         0.9409        34.2827     
 5574.5000        14.0163         0.0350       147.0041        80.1520        77.3984         1.1144        42.9082         2.2457         0.9746        33.8565     
 5575.0000        13.7628         0.0369       147.2562        79.1566        76.4039         1.1136        43.3569         2.2517         0.9937        33.7723     
 5575.5000        14.0368         0.0308       147.5634        76.3191        76.2432         1.1174        42.5340         2.2597         0.9862        33.9696     
 5576.0000        14.3121         0.0320       147.6281        70.2771        75.4746         1.1313        40.8004         2.2602         0.9737        34.0055     
 5576.5000        14.4929         0.0357       146.9383        68.7974        73.2377         1.1454        40.2981         2.2507         1.0011        32.5901     
 5577.0000        13.9177         0.0460       140.1337        67.2968        70.6838         1.1378        39.3276         2.2560         1.0274        31.5896     
 5577.5000        13.6836         0.0519       136.6225        63.6144        68.3895         1.1026        39.1431         2.2585         1.1098        31.0385     
 5578.0000        14.0094         0.0504       133.8115        63.4672        65.7247         1.0724        39.2740         2.2498         1.1934        30.9733     
 5578.5000        14.1676         0.0388       133.3384        63.9792        62.0323         1.0524        39.5588         2.2296         1.2295        30.9518     
 5579.0000        13.7340         0.0264       137.6130        64.0610        59.9699         1.0352        39.4935         2.2047         1.1686        31.3945     
 5579.5000        13.7023         0.0245       141.2562        65.3364        59.4569         1.0243        40.2667         2.1739         1.0610        31.6530     
 5580.0000        13.9872         0.0364       144.0914        67.4071        58.8789         1.0056        41.8117         2.1656         0.9206        31.4290     
 5580.5000        14.3104         0.0386       144.7850        67.7950        60.1843         0.9887        42.7799         2.1878         0.8094        32.3404     
 5581.0000        14.7280         0.0428       141.8563        66.4420        61.2344         0.9721        43.7620         2.2183         0.8135        32.3827     
 5581.5000        14.9687         0.0506       136.6050        64.1382        60.4503         0.9658        45.1319         2.2191         0.8768        31.9554     
 5582.0000        14.6746         0.0508       133.8115        61.9914        59.8937         0.9603        44.6335         2.2042         0.9940        31.5340     
 5582.5000        13.9350         0.0567       133.5325        63.0553        59.2436         0.9549        41.2349         2.2024         1.0054        31.5580     
 5583.0000        13.5600         0.0668       134.2149        65.7953        59.7197         0.9538        36.8067         2.2149         1.0084        32.3522     
 5583.5000        13.6021         0.0759       135.6560        68.7276        62.3519         0.9669        34.4535         2.2303         1.0265        32.5197     
 5584.0000        13.9582         0.0655       134.8885        70.2206        65.7657         0.9800        35.3173         2.2327         1.0597        32.3960     
 5584.5000        14.3349         0.0351       129.6148        72.3687        66.3811         0.9909        36.5411         2.2157         1.0999        32.4290     
 5585.0000        14.4283         0.0218       126.1057        74.3252        64.7400         0.9977        36.5347         2.2004         1.1132        32.6550     
 5585.5000        14.0247         0.0132       124.1814        74.3912        64.6649         1.0224        35.7281         2.1827         1.1162        32.9598     
 5586.0000        13.5725         0.0061       125.7139        75.1752        65.0000         1.0533        34.3410         2.1667         1.1127        33.4839     
 5586.5000        13.6687         0.0050       136.5061        76.0679        67.1984         1.0842        34.1911         2.1716         1.0815        33.6364     
 5587.0000        13.7500         0.0208       142.3540        75.7638        70.5457         1.1139        37.1338         2.1928         1.0416        33.5649     
 5587.5000        13.7737         0.0500       147.6854        73.2366        70.6875         1.1434        40.4869         2.2276         0.9625        33.4974     
 5588.0000        14.0903         0.0647       151.1717        71.3651        68.9807         1.1729        41.8998         2.2501         0.9286        33.4836     
 5588.5000        14.7441         0.0615       151.9321        69.6713        68.0000         1.2058        41.9348         2.2515         0.9172        33.4806     
 5589.0000        15.1500         0.0560       145.6344        68.5135        67.7002         1.2375        41.6200         2.2461         0.9511        33.7199     
 5589.5000        15.2000         0.0485       140.7656        67.3686        67.2473         1.2173        41.2234         2.2357         1.0599        33.9896     
 5590.0000        15.3036         0.0423       141.9648        65.2148        66.4269         1.1983        41.3879         2.2414         1.2094        34.4629     
 5590.5000        14.8216         0.0360       141.5889        63.7669        65.6948         1.1820        41.6803         2.2486         1.2878        34.2488     
 5591.0000        14.2733         0.0344       145.4547        64.1776        66.0268         1.1908        41.2760         2.2549         1.1931        34.3439     
 5591.5000        14.2500         0.0401       150.6406        67.0790        68.0816         1.2066        41.4705         2.2567         1.0796        35.2239     
 5592.0000        14.1399         0.0471       155.3419        69.3309        69.9954         1.1902        43.1105         2.2437         0.9721        35.4407     
 5592.5000        14.3577         0.0385       154.5039        71.1957        70.2881         1.1456        44.6163         2.2186         0.9321        35.5565     
