~Version Information Section
VERS.          2.0                                     : CWLS LOG ASCII Standard
WRAP.          NO                                      : One line per depth step
CREA.          03/08/17                                : LAS Creation Date
~Well Information Section
STRT.ft        448.0000                                : Start Depth
STOP.ft        10248.0000                              : Stop Depth
STEP.ft        0.5000                                  : Step
NULL.          -999.2500                               : Null Value
COMP.          TEXACO PRODUCTION SERVICES LTD          : Company
WELL.          14/20-9                                 : Well
FLD .          MORAY FIRTH                             : Field
LOC .          NORTH SEA                               : Location
LOC1.          -                                       : Location (UTM)
CTRY.          UK                                      : Country
PROV.          UKCS                                    : Province
UWI .          866                                     : UWI Number
API .          -                                       : API Number
SECT.          -                                       : Section
TOWN.          -                                       : Township
RNGE.          -                                       : Range
PDAT.          MSL                                     : Perm Datum
EPD .ft        0                                       : Elevation
LMF .          KB                                      : Log Measured From
DMF .          KB                                      : Drill Measured From
APD .ft        86.0                                    : Above Perm Datum
EKB .ft        86.0                                    : Elev-Kelly Bushing
EDF .ft        84.0                                    : Elev-Drill Floor
EGL .ft        478.0                                   : Elev-Ground Level (Water Depth)
TDD .ft        10260.0                                 : Total Depth (Driller)
TDL .ft        10248.0                                 : Total Depth (Logger)
SRVC.          SCHLUMBERGER                            : Service Company
LATI.          58 29 47.7" N                           : Latitude
LONG.          00 01 07.0" W                           : Longitude
DATE.          27-NOV-1978 - 03-FEB-1979               : Logging Date
PROJ.          UKCS                                    : Project
SET .          COMP_WIRE                               : Set
~Curve Information Section
DEPTH.ft                                               : Depth Curve
CALI.in                                                : Caliper (FDC/CNL/GR)
DRHO.g/cc                                              : Delta Rho
DT.us/ft                                               : Delta-T
GR.gAPI                                                : Gamma Ray (ISF/BHC/GR)
GRD.gAPI                                               : Gamma Ray (FDC/CNL/GR)
ILD.Ohmm                                               : Deep Induction Standard Processed Resistivity
NPHI.LPU                                               : Neutron Porosity
RHOB.g/cc                                              : Bulk Density
SFL.Ohmm                                               : Spherically Focussed log Resistivity
SP.mV                                                  : Spontaneous Potential
~ASCII Log Data Section
# ...
 3829.0000      -999.2500      -999.2500       127.5200        50.5000      -999.2500         0.8166      -999.2500      -999.2500         0.8472        18.5000     
 3829.5000      -999.2500      -999.2500       126.4156        46.9000      -999.2500         0.8166      -999.2500      -999.2500         0.8017        18.2500     
 3830.0000      -999.2500      -999.2500       124.8320        44.1000      -999.2500         0.8318      -999.2500      -999.2500         0.7943        17.7500     
 3830.5000      -999.2500      -999.2500       129.0560        44.9000      -999.2500         0.8551      -999.2500      -999.2500         0.7870        17.2500     
 3831.0000      -999.2500      -999.2500       135.4880        45.9000      -999.2500         0.8630      -999.2500      -999.2500         0.7798        16.7500     
 3831.5000      -999.2500      -999.2500       135.9190        45.3000      -999.2500         0.8710      -999.2500      -999.2500         0.7447        16.7500     
 3832.0000      -999.2500      -999.2500       135.1040        45.3000      -999.2500         0.8790      -999.2500      -999.2500         0.7178        16.7500     
 3832.5000      -999.2500      -999.2500       134.6240        46.9000      -999.2500         0.8954      -999.2500      -999.2500         0.7244        16.7500     
 3833.0000      -999.2500      -999.2500       133.3276        48.7010      -999.2500         0.9205      -999.2500      -999.2500         0.7871        17.0000     
 3833.5000      -999.2500      -999.2500       132.4640        49.9000      -999.2500         0.9290      -999.2500      -999.2500         0.8551        17.0000     
 3834.0000      -999.2500      -999.2500       132.3687        50.4990      -999.2500         0.9462      -999.2500      -999.2500         0.8790        17.0000     
 3834.5000      -999.2500      -999.2500       133.2800        49.3000      -999.2500         0.9550      -999.2500      -999.2500         0.8472        17.0000     
 3835.0000      -999.2500      -999.2500       134.6254        47.2000      -999.2500         0.9550      -999.2500      -999.2500         0.8241        17.0004     
 3835.5000      -999.2500      -999.2500       136.4000        47.2000      -999.2500         0.9550      -999.2500      -999.2500         0.8318        17.5000     
 3836.0000      -999.2500      -999.2500       137.5984        48.7000      -999.2500         0.9462      -999.2500      -999.2500         0.8872        18.2500     
 3836.5000      -999.2500      -999.2500       136.7840        50.1000      -999.2500         0.9462      -999.2500      -999.2500         0.9036        18.5000     
 3837.0000      -999.2500      -999.2500       136.6400        50.3000      -999.2500         0.9376      -999.2500      -999.2500         0.8872        19.2500     
 3837.5000      -999.2500      -999.2500       136.7840        48.8000      -999.2500         0.9462      -999.2500      -999.2500         0.8630        19.5000     
 3838.0000      -999.2500      -999.2500       136.0635        48.2000      -999.2500         0.9638      -999.2500      -999.2500         0.8472        19.7500     
 3838.5000      -999.2500      -999.2500       134.7680        49.7000      -999.2500         0.9638      -999.2500      -999.2500         0.8395        19.7500     
 3839.0000      -999.2500      -999.2500       133.9520        50.5000      -999.2500         0.9638      -999.2500      -999.2500         0.8551        19.5000     
 3839.5000      -999.2500      -999.2500       132.8004        50.6999      -999.2500         0.9638      -999.2500      -999.2500         0.9550        19.7496     
 3840.0000      -999.2500      -999.2500       132.5120        50.6000      -999.2500         0.9727      -999.2500      -999.2500         1.0000        19.2500     
 3840.5000      -999.2500      -999.2500       132.6089        50.2989      -999.2500         0.9908      -999.2500      -999.2500         0.9119        18.9996     
 3841.0000      -999.2500      -999.2500       133.7600        48.9000      -999.2500         0.9727      -999.2500      -999.2500         0.8166        18.5000     
 3841.5000      -999.2500      -999.2500       134.2390        45.8982      -999.2500         0.9290      -999.2500      -999.2500         0.8017        18.2500     
 3842.0000      -999.2500      -999.2500       132.9920        43.7000      -999.2500         0.9204      -999.2500      -999.2500         0.8710        18.2500     
 3842.5000      -999.2500      -999.2500       132.4185        43.3000      -999.2500         0.9204      -999.2500      -999.2500         0.9727        17.5000     
 3843.0000      -999.2500      -999.2500       135.0560        43.6000      -999.2500         0.9204      -999.2500      -999.2500         1.0000        17.5000     
 3843.5000      -999.2500      -999.2500       136.4960        43.7000      -999.2500         0.8872      -999.2500      -999.2500         0.9290        17.5000     
 3844.0000      -999.2500      -999.2500       138.8480        43.5000      -999.2500         0.8551      -999.2500      -999.2500         0.8091        17.2500     
 3844.5000      -999.2500      -999.2500       139.4714        43.7000      -999.2500         0.8017      -999.2500      -999.2500         0.7656        16.7500     
 3845.0000      -999.2500      -999.2500       139.4240        43.3000      -999.2500         0.7798      -999.2500      -999.2500         0.7447        16.5000     
 3845.5000      -999.2500      -999.2500       137.9840        41.9000      -999.2500         0.7870      -999.2500      -999.2500         0.7379        17.0000     
 3846.0000      -999.2500      -999.2500       135.4880        41.1006      -999.2500         0.7870      -999.2500      -999.2500         0.7447        16.7504     
 3846.5000      -999.2500      -999.2500       134.2400        41.8000      -999.2500         0.7870      -999.2500      -999.2500         0.7586        17.2500     
 3847.0000      -999.2500      -999.2500       132.9926        41.5000      -999.2500         0.7798      -999.2500      -999.2500         0.7871        17.5002     
 3847.5000      -999.2500      -999.2500       133.7120        41.5000      -999.2500         0.7798      -999.2500      -999.2500         0.8017        17.7500     
 3848.0000      -999.2500      -999.2500       135.6822        42.2998      -999.2500         0.7798      -999.2500      -999.2500         0.8166        18.2500     
 3848.5000      -999.2500      -999.2500       138.4640        42.0000      -999.2500         0.7727      -999.2500      -999.2500         0.8017        18.2500     
 3849.0000      -999.2500      -999.2500       137.9361        42.5000      -999.2500         0.7798      -999.2500      -999.2500         0.7798        18.5000     
 3849.5000      -999.2500      -999.2500       137.5520        45.3000      -999.2500         0.7727      -999.2500      -999.2500         0.8241        19.2500     
 3850.0000      -999.2500      -999.2500       134.9600        48.1000      -999.2500         0.7727      -999.2500      -999.2500         0.9290        19.2500     
 3850.5000      -999.2500      -999.2500       132.1280        50.2000      -999.2500         0.7798      -999.2500      -999.2500         0.9817        19.0000     
 3851.0000      -999.2500      -999.2500       132.9920        50.6000      -999.2500         0.7727      -999.2500      -999.2500         0.9204        18.2500     
 3851.5000      -999.2500      -999.2500       134.4800        49.1000      -999.2500         0.7870      -999.2500      -999.2500         0.8551        18.2500     
 3852.0000      -999.2500      -999.2500       133.6160        46.7000      -999.2500         0.8166      -999.2500      -999.2500         0.8318        17.7500     
 3852.5000      -999.2500      -999.2500       132.3681        44.6990      -999.2500         0.8473      -999.2500      -999.2500         0.8166        17.2496     
 3853.0000      -999.2500      -999.2500       132.5600        43.5000      -999.2500         0.8954      -999.2500      -999.2500         0.7870        16.7500     
