~Version Information Section
VERS.          2.0                                     : CWLS LOG ASCII Standard
WRAP.          NO                                      : One line per depth step
CREA.          03/08/17                                : LAS Creation Date
~Well Information Section
STRT.ft        448.0000                                : Start Depth
STOP.ft        10248.0000                              : Stop Depth
STEP.ft        0.5000                                  : Step
NULL.          -999.2500                               : Null Value
COMP.          TEXACO PRODUCTION SERVICES LTD          : Company
WELL.          14/20-9                                 : Well
FLD .          MORAY FIRTH                             : Field
LOC .          NORTH SEA                               : Location
LOC1.          -                                       : Location (UTM)
CTRY.          UK                                      : Country
PROV.          UKCS                                    : Province
UWI .          866                                     : UWI Number
API .          -                                       : API Number
SECT.          -                                       : Section
TOWN.          -                                       : Township
RNGE.          -                                       : Range
PDAT.          MSL                                     : Perm Datum
EPD .ft        0                                       : Elevation
LMF .          KB                                      : Log Measured From
DMF .          KB                                      : Drill Measured From
APD .ft        86.0                                    : Above Perm Datum
EKB .ft        86.0                                    : Elev-Kelly Bushing
EDF .ft        84.0                                    : Elev-Drill Floor
EGL .ft        478.0                                   : Elev-Ground Level (Water Depth)
TDD .ft        10260.0                                 : Total Depth (Driller)
TDL .ft        10248.0                                 : Total Depth (Logger)
SRVC.          SCHLUMBERGER                            : Service Company
LATI.          58 29 47.7" N                           : Latitude
LONG.          00 01 07.0" W                           : Longitude
DATE.          27-NOV-1978 - 03-FEB-1979               : Logging Date
PROJ.          UKCS                                    : Project
SET .          COMP_WIRE                               : Set
~Curve Information Section
DEPTH.ft                                               : Depth Curve
CALI.in                                                : Caliper (FDC/CNL/GR)
DRHO.g/cc                                              : Delta Rho
DT.us/ft                                               : Delta-T
GR.gAPI                                                : Gamma Ray (ISF/BHC/GR)
GRD.gAPI                                               : Gamma Ray (FDC/CNL/GR)
ILD.Ohmm                                               : Deep Induction Standard Processed Resistivity
NPHI.LPU                                               : Neutron Porosity
RHOB.g/cc                                              : Bulk Density
SFL.Ohmm                                               : Spherically Focussed log Resistivity
SP.mV                                                  : Spontaneous Potential
~ASCII Log Data Section
# ...
 7896.0000        12.9273         0.0191        64.2623        11.7842         9.4725         6.5470         4.7382         2.6305         6.8648        44.2481     
 7896.5000        12.9229         0.0222        64.1583        11.2766         9.7082         6.4805         4.8060         2.6259         6.8258        44.1998     
 7897.0000        12.9500         0.0181        64.0488        10.6129         9.1361         6.3764         5.0641         2.6210         7.0354        44.0012     
 7897.5000        12.9500         0.0174        63.9349         9.9890         8.7868         6.2687         5.4496         2.6146         7.5177        43.7925     
 7898.0000        12.9500         0.0152        63.8211         9.6086         8.8106         6.1854         5.7240         2.6114         7.8100        43.5836     
 7898.5000        12.9500         0.0096        63.7387         9.6082         8.6000         6.1706         5.7536         2.6053         7.8418        43.4264     
 7899.0000        12.9500         0.0085        63.8561         9.8381         8.6966         6.1498         5.3706         2.6048         7.6479        42.5805     
 7899.5000        12.9500         0.0080        64.1935        10.1531         8.9945         6.1391         4.9919         2.6124         7.1560        41.5451     
 7900.0000        12.9500         0.0075        64.8127        10.9698         9.8853         6.1571         4.9396         2.6115         6.5994        42.5049     
 7900.5000        12.9500         0.0070        65.4333        11.7837        10.8961         6.1768         5.0392         2.6095         6.5591        42.9102     
 7901.0000        12.9500         0.0045        66.5761        12.4967        11.1005         6.0732         5.2696         2.5976         7.1618        43.1072     
 7901.5000        12.9500         0.0080        68.2540        13.3142        10.5974         5.8532         5.5914         2.5887         7.8910        42.7799     
 7902.0000        12.9754         0.0196        69.6143        14.2776        10.0985         5.6333         5.8818         2.6002         7.1146        42.4477     
 7902.5000        12.9744         0.0368        70.9316        15.2200        10.6667         5.4301         6.2677         2.6069         5.7166        42.7504     
 7903.0000        12.9500         0.0517        72.0580        16.1431        12.1787         5.2296         7.2552         2.6152         5.3070        43.6909     
 7903.5000        12.9500         0.0518        73.1176        17.6138        13.8334         5.0370         8.7637         2.6160         5.0788        44.0546     
 7904.0000        13.0025         0.0286        73.1225        17.6410        15.0725         4.9175         9.7722         2.5939         4.7888        43.7302     
 7904.5000        13.0764         0.0126        73.1258        17.3889        16.0289         4.8125         9.8519         2.5812         4.6274        43.5349     
 7905.0000        13.1533         0.0209        73.1271        17.1741        16.2868         4.7812         9.6773         2.5839         4.6955        44.1075     
 7905.5000        13.1731         0.0404        73.0712        16.7331        15.8311         4.7504         9.5754         2.5910         4.6751        44.7076     
 7906.0000        13.0685         0.0672        72.9830        16.1249        15.9804         4.7463         9.3895         2.5962         4.5919        45.3144     
 7906.5000        13.0000         0.0899        72.8817        16.6133        16.1357         4.8136         9.2580         2.6204         4.9108        44.8437     
 7907.0000        13.0000         0.0560        72.7774        16.8844        15.7788         4.8557         9.0852         2.6112         5.1438        44.3724     
 7907.5000        13.0000         0.0097        72.5372        17.3169        15.4886         4.9091         8.8151         2.5755         5.5225        44.2026     
 7908.0000        13.0000         0.0062        72.2354        17.9762        14.8389         4.9481         8.6215         2.5809         5.7379        44.1507     
 7908.5000        13.0000         0.0206        72.1563        18.7895        14.5130         4.9849         8.4696         2.6032         6.4096        44.1463     
 7909.0000        13.0000         0.0257        72.1594        19.4989        14.9415         4.9118         8.2407         2.6149         6.5768        43.8732     
 7909.5000        13.0000         0.0200        72.1631        19.6606        15.4866         4.8098         8.0399         2.6207         5.7135        43.4372     
 7910.0000        13.0000         0.0101        72.4237        19.4105        15.5266         4.7082         8.1880         2.6074         4.6607        43.3335     
 7910.5000        12.9709         0.0027        72.8138        19.1815        15.6329         4.5922         8.8058         2.5955         4.4652        43.3292     
 7911.0000        12.9793         0.0028        73.2274        18.9224        15.9174         4.4407         9.1515         2.5992         4.4657        43.3252     
 7911.5000        13.0000         0.0058        73.8540        17.7835        16.5333         4.3327         8.8640         2.6067         4.3325        43.3891     
 7912.0000        12.9702         0.0064        74.4784        17.5191        17.4965         4.3004         8.4456         2.6093         4.0667        43.9456     
 7912.5000        12.9500         0.0060        74.8237        17.7154        18.2003         4.2620         8.4682         2.6095         4.0594        44.9557     
 7913.0000        12.9500         0.0054        74.9082        18.1202        18.2791         4.2331         8.6886         2.5950         4.1037        45.1892     
 7913.5000        12.9500         0.0038        74.8121        17.5612        17.7739         4.2882         8.6626         2.5774         4.0954        44.6577     
 7914.0000        12.9500         0.0042        74.0824        16.4241        17.2546         4.3550         8.4408         2.5808         4.1727        44.0458     
 7914.5000        12.9500         0.0062        73.2306        15.5991        16.9143         4.4624         8.2535         2.5862         4.1691        43.6033     
 7915.0000        12.9189         0.0101        72.2244        13.8041        16.5511         4.6082         8.2000         2.5825         4.7898        43.4975     
 7915.5000        12.9000         0.0195        71.2235        12.5701        15.7720         4.7938         8.0240         2.5865         5.3967        44.1860     
 7916.0000        12.9000         0.0253        70.4187        12.3087        14.3242         4.9399         7.4398         2.6002         6.3213        44.5870     
 7916.5000        12.8682         0.0241        69.6355        12.4755        13.8271         5.1448         6.6269         2.6173         6.7999        44.4825     
 7917.0000        12.9139         0.0204        69.1063        12.8558        13.9000         5.2818         6.0258         2.6409         6.9537        44.4780     
 7917.5000        12.9822         0.0190        69.3007        13.2807        14.4797         5.4133         5.9118         2.6416         6.9296        44.4739     
 7918.0000        13.0000         0.0307        69.8475        14.1628        14.8000         5.4940         6.2769         2.6360         5.9620        44.4699     
 7918.5000        13.0000         0.0377        69.9053        15.1057        13.8862         5.5463         6.7862         2.6421         5.4417        44.4658     
 7919.0000        13.0000         0.0308        70.0743        15.3229        13.0055         5.4627         7.1966         2.6274         5.5159        44.4613     
 7919.5000        13.0000         0.0164        70.6102        15.0924        12.8000         5.3189         7.6240         2.6015         5.5082        44.1361     
 7920.0000        13.0000         0.0097        71.3559        15.6441        13.4000         5.1682         7.8869         2.5806         5.1714        43.5020     
