~Version Information Section
VERS.          2.0                                     : CWLS LOG ASCII Standard
WRAP.          NO                                      : One line per depth step
CREA.          03/08/17                                : LAS Creation Date
~Well Information Section
STRT.ft        448.0000                                : Start Depth
STOP.ft        10248.0000                              : Stop Depth
STEP.ft        0.5000                                  : Step
NULL.          -999.2500                               : Null Value
COMP.          TEXACO PRODUCTION SERVICES LTD          : Company
WELL.          14/20-9                                 : Well
FLD .          MORAY FIRTH                             : Field
LOC .          NORTH SEA                               : Location
LOC1.          -                                       : Location (UTM)
CTRY.          UK                                      : Country
PROV.          UKCS                                    : Province
UWI .          866                                     : UWI Number
API .          -                                       : API Number
SECT.          -                                       : Section
TOWN.          -                                       : Township
RNGE.          -                                       : Range
PDAT.          MSL                                     : Perm Datum
EPD .ft        0                                       : Elevation
LMF .          KB                                      : Log Measured From
DMF .          KB                                      : Drill Measured From
APD .ft        86.0                                    : Above Perm Datum
EKB .ft        86.0                                    : Elev-Kelly Bushing
EDF .ft        84.0                                    : Elev-Drill Floor
EGL .ft        478.0                                   : Elev-Ground Level (Water Depth)
TDD .ft        10260.0                                 : Total Depth (Driller)
TDL .ft        10248.0                                 : Total Depth (Logger)
SRVC.          SCHLUMBERGER                            : Service Company
LATI.          58 29 47.7" N                           : Latitude
LONG.          00 01 07.0" W                           : Longitude
DATE.          27-NOV-1978 - 03-FEB-1979               : Logging Date
PROJ.          UKCS                                    : Project
SET .          COMP_WIRE                               : Set
~Curve Information Section
DEPTH.ft                                               : Depth Curve
CALI.in                                                : Caliper (FDC/CNL/GR)
DRHO.g/cc                                              : Delta Rho
DT.us/ft                                               : Delta-T
GR.gAPI                                                : Gamma Ray (ISF/BHC/GR)
GRD.gAPI                                               : Gamma Ray (FDC/CNL/GR)
ILD.Ohmm                                               : Deep Induction Standard Processed Resistivity
NPHI.LPU                                               : Neutron Porosity
RHOB.g/cc                                              : Bulk Density
SFL.Ohmm                                               : Spherically Focussed log Resistivity
SP.mV                                                  : Spontaneous Potential
~ASCII Log Data Section
# ...
 1526.0000      -999.2500      -999.2500       200.5280        43.3000      -999.2500         1.2942      -999.2500      -999.2500         1.1376        33.0000     
 1526.5000      -999.2500      -999.2500       200.3840        40.0000      -999.2500         1.2942      -999.2500      -999.2500         1.1803        32.5000     
 1527.0000      -999.2500      -999.2500       199.5200        37.1000      -999.2500         1.4723      -999.2500      -999.2500         1.2246        32.0000     
 1527.5000      -999.2500      -999.2500       198.8000        35.2000      -999.2500         1.4859      -999.2500      -999.2500         1.3062        31.2500     
 1528.0000      -999.2500      -999.2500       198.4640        34.2000      -999.2500         1.5136      -999.2500      -999.2500         1.3428        30.7500     
 1528.5000      -999.2500      -999.2500       199.6160        34.8000      -999.2500         1.5417      -999.2500      -999.2500         1.3305        30.5000     
 1529.0000      -999.2500      -999.2500       198.9920        35.5000      -999.2500         1.5417      -999.2500      -999.2500         1.2474        31.0000     
 1529.5000      -999.2500      -999.2500       199.4240        35.6000      -999.2500         1.4859      -999.2500      -999.2500         1.2023        31.0000     
 1530.0000      -999.2500      -999.2500       199.1360        35.7000      -999.2500         1.4859      -999.2500      -999.2500         1.1376        30.7500     
 1530.5000      -999.2500      -999.2500       198.4160        36.1000      -999.2500         1.4859      -999.2500      -999.2500         1.1169        30.7500     
 1531.0000      -999.2500      -999.2500       197.3120        36.7000      -999.2500         1.4997      -999.2500      -999.2500         1.1169        30.2500     
 1531.5000      -999.2500      -999.2500       193.0880        37.5000      -999.2500         1.4997      -999.2500      -999.2500         1.1376        30.0000     
 1532.0000      -999.2500      -999.2500       191.8400        37.9000      -999.2500         1.5276      -999.2500      -999.2500         1.1695        29.7500     
 1532.5000      -999.2500      -999.2500       189.0560        38.1000      -999.2500         1.5417      -999.2500      -999.2500         1.2134        29.0000     
 1533.0000      -999.2500      -999.2500       187.5200        37.9000      -999.2500         1.5560      -999.2500      -999.2500         1.2134        28.7500     
 1533.5000      -999.2500      -999.2500       189.7760        37.9000      -999.2500         1.5417      -999.2500      -999.2500         1.1912        28.2500     
 1534.0000      -999.2500      -999.2500       190.2080        39.2000      -999.2500         1.5417      -999.2500      -999.2500         1.1695        28.0000     
 1534.5000      -999.2500      -999.2500       190.7360        40.8000      -999.2500         1.5417      -999.2500      -999.2500         1.1588        27.7500     
 1535.0000      -999.2500      -999.2500       189.2480        41.9000      -999.2500         1.5560      -999.2500      -999.2500         1.1695        27.5000     
 1535.5000      -999.2500      -999.2500       188.6720        42.9000      -999.2500         1.5560      -999.2500      -999.2500         1.1695        27.2500     
 1536.0000      -999.2500      -999.2500       188.0960        42.9000      -999.2500         1.5560      -999.2500      -999.2500         1.1482        27.0000     
 1536.5000      -999.2500      -999.2500       188.7680        42.3000      -999.2500         1.5560      -999.2500      -999.2500         1.1169        27.0000     
 1537.0000      -999.2500      -999.2500       190.5920        41.5000      -999.2500         1.5849      -999.2500      -999.2500         1.0965        27.0000     
 1537.5000      -999.2500      -999.2500       191.6960        40.3000      -999.2500         1.6144      -999.2500      -999.2500         1.0965        27.2500     
 1538.0000      -999.2500      -999.2500       191.9360        39.9000      -999.2500         1.6293      -999.2500      -999.2500         1.1066        27.5000     
 1538.5000      -999.2500      -999.2500       190.5920        41.6000      -999.2500         1.5996      -999.2500      -999.2500         1.1066        27.5000     
 1539.0000      -999.2500      -999.2500       193.4720        43.5000      -999.2500         1.5849      -999.2500      -999.2500         1.1066        27.5000     
 1539.5000      -999.2500      -999.2500       198.3200        44.2000      -999.2500         1.6144      -999.2500      -999.2500         1.1066        27.2500     
 1540.0000      -999.2500      -999.2500       198.8960        44.0000      -999.2500         1.5996      -999.2500      -999.2500         1.1066        26.7500     
 1540.5000      -999.2500      -999.2500       199.9520        43.0000      -999.2500         1.5849      -999.2500      -999.2500         1.1169        26.7500     
 1541.0000      -999.2500      -999.2500       200.5760        41.5000      -999.2500         1.6749      -999.2500      -999.2500         1.1272        27.0000     
 1541.5000      -999.2500      -999.2500       199.2320        40.3000      -999.2500         1.6749      -999.2500      -999.2500         1.1482        27.0000     
 1542.0000      -999.2500      -999.2500       197.9360        39.8000      -999.2500         1.6749      -999.2500      -999.2500         1.1695        27.2500     
 1542.5000      -999.2500      -999.2500       201.5840        40.2000      -999.2500         1.6596      -999.2500      -999.2500         1.2023        27.2500     
 1543.0000      -999.2500      -999.2500       200.0960        40.9000      -999.2500         1.6596      -999.2500      -999.2500         1.2023        27.0000     
 1543.5000      -999.2500      -999.2500       198.4160        41.1000      -999.2500         1.6749      -999.2500      -999.2500         1.1588        26.5000     
 1544.0000      -999.2500      -999.2500       196.1600        42.1000      -999.2500         1.6749      -999.2500      -999.2500         1.0965        25.7500     
 1544.5000      -999.2500      -999.2500       193.5200        44.5000      -999.2500         1.7061      -999.2500      -999.2500         1.0568        25.0000     
 1545.0000      -999.2500      -999.2500       190.4000        47.2000      -999.2500         1.7539      -999.2500      -999.2500         1.0471        24.7500     
 1545.5000      -999.2500      -999.2500       188.8640        49.9000      -999.2500         1.7865      -999.2500      -999.2500         1.1066        24.7500     
 1546.0000      -999.2500      -999.2500       182.7200        53.9000      -999.2500         1.8365      -999.2500      -999.2500         1.2474        24.7500     
 1546.5000      -999.2500      -999.2500       173.8880        57.7000      -999.2500         1.8707      -999.2500      -999.2500         1.4060        24.7500     
 1547.0000      -999.2500      -999.2500       163.3280        59.6000      -999.2500         1.8707      -999.2500      -999.2500         1.5560        24.7500     
 1547.5000      -999.2500      -999.2500       161.1200        60.7000      -999.2500         1.8707      -999.2500      -999.2500         1.6144        25.0000     
 1548.0000      -999.2500      -999.2500       154.3040        60.7000      -999.2500         1.8707      -999.2500      -999.2500         1.5560        24.2500     
 1548.5000      -999.2500      -999.2500       154.2560        58.7000      -999.2500         1.8365      -999.2500      -999.2500         1.4859        23.7500     
 1549.0000      -999.2500      -999.2500       161.3600        55.7000      -999.2500         1.8535      -999.2500      -999.2500         1.4060        23.2500     
 1549.5000      -999.2500      -999.2500       162.0320        51.7000      -999.2500         2.3768      -999.2500      -999.2500         1.3428        22.5000     
 1550.0000      -999.2500      -999.2500       163.0880        48.0000      -999.2500         2.3768      -999.2500      -999.2500         1.2589        23.0000     
