~Version Information Section
VERS.          2.0                                     : CWLS LOG ASCII Standard
WRAP.          NO                                      : One line per depth step
CREA.          03/08/17                                : LAS Creation Date
~Well Information Section
STRT.ft        448.0000                                : Start Depth
STOP.ft        10248.0000                              : Stop Depth
STEP.ft        0.5000                                  : Step
NULL.          -999.2500                               : Null Value
COMP.          TEXACO PRODUCTION SERVICES LTD          : Company
WELL.          14/20-9                                 : Well
FLD .          MORAY FIRTH                             : Field
LOC .          NORTH SEA                               : Location
LOC1.          -                                       : Location (UTM)
CTRY.          UK                                      : Country
PROV.          UKCS                                    : Province
UWI .          866                                     : UWI Number
API .          -                                       : API Number
SECT.          -                                       : Section
TOWN.          -                                       : Township
RNGE.          -                                       : Range
PDAT.          MSL                                     : Perm Datum
EPD .ft        0                                       : Elevation
LMF .          KB                                      : Log Measured From
DMF .          KB                                      : Drill Measured From
APD .ft        86.0                                    : Above Perm Datum
EKB .ft        86.0                                    : Elev-Kelly Bushing
EDF .ft        84.0                                    : Elev-Drill Floor
EGL .ft        478.0                                   : Elev-Ground Level (Water Depth)
TDD .ft        10260.0                                 : Total Depth (Driller)
TDL .ft        10248.0                                 : Total Depth (Logger)
SRVC.          SCHLUMBERGER                            : Service Company
LATI.          58 29 47.7" N                           : Latitude
LONG.          00 01 07.0" W                           : Longitude
DATE.          27-NOV-1978 - 03-FEB-1979               : Logging Date
PROJ.          UKCS                                    : Project
SET .          COMP_WIRE                               : Set
~Curve Information Section
DEPTH.ft                                               : Depth Curve
CALI.in                                                : Caliper (FDC/CNL/GR)
DRHO.g/cc                                              : Delta Rho
DT.us/ft                                               : Delta-T
GR.gAPI                                                : Gamma Ray (ISF/BHC/GR)
GRD.gAPI                                               : Gamma Ray (FDC/CNL/GR)
ILD.Ohmm                                               : Deep Induction Standard Processed Resistivity
NPHI.LPU                                               : Neutron Porosity
RHOB.g/cc                                              : Bulk Density
SFL.Ohmm                                               : Spherically Focussed log Resistivity
SP.mV                                                  : Spontaneous Potential
~ASCII Log Data Section
# ...
 8459.5000        12.3500         0.0474        76.5531        14.4787        21.8110         3.2022        12.0852         2.5588         3.1696        51.1764     
 8460.0000        12.3484         0.0298        76.9350        14.8984        22.3705         3.1465        12.2366         2.5648         3.0685        51.1906     
 8460.5000        12.3075         0.0250        77.3679        14.8764        23.2493         3.1084        12.3565         2.5652         3.0093        51.2047     
 8461.0000        12.3000         0.0205        77.7715        13.8997        23.4041         3.0702        12.2448         2.5614         3.0325        51.2190     
 8461.5000        12.3000         0.0148        77.5175        13.8867        23.4440         3.0371        11.9063         2.5481         3.1896        51.2332     
 8462.0000        12.3025         0.0122        76.9295        14.9191        22.7393         3.1294        11.7140         2.5358         3.3830        51.2474     
 8462.5000        12.3430         0.0114        77.0213        15.9794        22.7664         3.1986        11.8268         2.5384         3.4296        51.2616     
 8463.0000        12.3500         0.0155        76.9291        16.2265        22.6486         3.1636        11.9992         2.5447         3.2261        51.2757     
 8463.5000        12.3468         0.0181        76.6643        15.3905        21.7364         3.0976        12.3164         2.5464         3.0277        51.2900     
 8464.0000        12.3067         0.0120        76.2974        14.7726        21.4064         3.0402        12.6487         2.5464         3.1497        51.3041     
 8464.5000        12.3036         0.0108        76.0394        15.2497        21.2416         2.9950        12.9412         2.5444         3.3828        51.3166     
 8465.0000        12.3396         0.0187        76.7186        15.8521        22.3718         2.9544        13.9696         2.5407         3.3650        51.1326     
 8465.5000        12.3022         0.0289        77.5571        16.4640        23.1777         2.9277        14.7103         2.5520         3.0856        51.1468     
 8466.0000        12.2606         0.0326        79.5490        16.3370        23.9352         2.8881        14.4879         2.5488         2.8179        51.1609     
 8466.5000        12.2939         0.0236        79.8700        16.2392        24.2405         2.8560        14.2576         2.5406         2.6775        51.1751     
 8467.0000        12.3048         0.0083        79.7806        16.2408        23.3432         2.8536        14.1618         2.5170         2.6441        51.1893     
 8467.5000        12.3441         0.0082        79.7516        16.3155        23.1798         2.8555        14.2613         2.5196         2.6908        51.2035     
 8468.0000        12.3500         0.0114        79.3480        18.0095        23.0757         2.8624        14.5212         2.5324         2.9187        51.2177     
 8468.5000        12.3500         0.0113        79.3188        18.7504        23.5752         2.9088        14.5378         2.5438         3.1313        51.2319     
 8469.0000        12.3557         0.0124        79.6208        19.3416        24.4417         2.9590        14.4975         2.5478         3.1742        51.2460     
 8469.5000        12.3886         0.0095        80.0834        20.2892        23.7438         2.9796        14.4976         2.5373         3.0702        51.2602     
 8470.0000        12.3553         0.0046        80.1566        20.5187        23.8036         2.9923        14.8482         2.5197         2.9845        51.2744     
 8470.5000        12.3435         0.0098        80.1339        19.9316        23.8241         3.0114        14.9994         2.5204         2.8948        51.2886     
 8471.0000        12.3050         0.0147        79.7135        18.1290        22.8677         3.0513        14.4160         2.5208         2.7790        51.3028     
 8471.5000        12.3000         0.0209        79.3767        17.2375        22.2317         3.0932        13.9089         2.5230         2.7058        51.3170     
 8472.0000        12.3000         0.0198        77.6805        16.8583        20.9738         3.1491        13.1019         2.5353         2.7538        51.3312     
 8472.5000        12.3000         0.0192        75.2677        16.8014        20.6236         3.2068        12.1389         2.5405         3.0990        51.5112     
 8473.0000        12.3000         0.0305        74.7206        17.2826        21.7606         3.2589        11.7187         2.5558         3.6743        51.9590     
 8473.5000        12.3000         0.0409        75.3023        18.0127        23.3152         3.2953        11.7052         2.5593         3.9270        51.7875     
 8474.0000        12.3080         0.0431        75.9613        17.0426        23.7760         3.3371        11.9419         2.5617         3.6163        51.3912     
 8474.5000        12.3457         0.0271        76.6768        15.9333        23.2276         3.3419        12.5125         2.5514         3.2698        51.4021     
 8475.0000        12.3415         0.0223        76.6363        16.1543        22.4286         3.3371        12.6299         2.5494         3.1972        51.4163     
 8475.5000        12.3040         0.0199        76.2728        16.3676        23.4532         3.3248        12.6427         2.5500         3.2617        51.4304     
 8476.0000        12.3000         0.0125        76.6482        15.4545        24.1401         3.3093        12.8579         2.5417         3.3932        51.2451     
 8476.5000        12.3000         0.0168        77.2365        14.9363        23.6177         3.2893        13.4574         2.5426         3.2843        50.6613     
 8477.0000        12.3000         0.0103        77.3173        14.8731        22.9325         3.2695        13.7732         2.5309         3.1972        50.6737     
 8477.5000        12.3096         0.0028        77.0016        14.8748        24.1720         3.2909        13.8199         2.5227         3.2482        50.6864     
 8478.0000        12.3367        -0.0032        76.9198        14.9433        26.0196         3.3376        14.1108         2.5224         3.4071        50.5028     
 8478.5000        12.3134         0.0016        77.1715        16.3734        27.7610         3.3596        13.9911         2.5244         3.5295        50.5231     
 8479.0000        12.3364         0.0059        77.5264        16.9996        29.0948         3.3607        14.1216         2.5323         3.4494        50.9293     
 8479.5000        12.3031         0.0055        77.8387        17.2953        30.0325         3.3474        13.9081         2.5155         3.3891        50.9444     
 8480.0000        12.3000         0.0008        77.6156        18.2251        30.8757         3.3321        13.5036         2.5007         3.4177        50.9586     
 8480.5000        12.3000         0.0025        77.3279        18.3867        31.6289         3.3169        13.2038         2.4874         3.5222        50.9728     
 8481.0000        12.3000         0.0086        77.1051        17.8135        32.5559         3.2979        13.4154         2.4952         3.6268        50.9870     
 8481.5000        12.3000         0.0197        77.4032        17.6009        32.0325         3.2733        13.6708         2.5178         3.6449        51.0012     
 8482.0000        12.3000         0.0165        77.9728        17.4253        29.1563         3.2612        13.9980         2.5351         3.4360        51.0153     
 8482.5000        12.3000         0.0177        78.6221        17.3937        25.7386         3.2850        14.1787         2.5322         3.1220        51.0295     
 8483.0000        12.3121         0.0174        78.6165        17.6500        22.5768         3.3239        13.9812         2.5222         3.0810        51.0437     
 8483.5000        12.3478         0.0134        78.5992        18.3792        21.0628         3.3667        13.3582         2.5160         3.0904        51.0579     
