~Version Information Section
VERS.          2.0                                     : CWLS LOG ASCII Standard
WRAP.          NO                                      : One line per depth step
CREA.          03/08/17                                : LAS Creation Date
~Well Information Section
STRT.ft        448.0000                                : Start Depth
STOP.ft        10248.0000                              : Stop Depth
STEP.ft        0.5000                                  : Step
NULL.          -999.2500                               : Null Value
COMP.          TEXACO PRODUCTION SERVICES LTD          : Company
WELL.          14/20-9                                 : Well
FLD .          MORAY FIRTH                             : Field
LOC .          NORTH SEA                               : Location
LOC1.          -                                       : Location (UTM)
CTRY.          UK                                      : Country
PROV.          UKCS                                    : Province
UWI .          866                                     : UWI Number
API .          -                                       : API Number
SECT.          -                                       : Section
TOWN.          -                                       : Township
RNGE.          -                                       : Range
PDAT.          MSL                                     : Perm Datum
EPD .ft        0                                       : Elevation
LMF .          KB                                      : Log Measured From
DMF .          KB                                      : Drill Measured From
APD .ft        86.0                                    : Above Perm Datum
EKB .ft        86.0                                    : Elev-Kelly Bushing
EDF .ft        84.0                                    : Elev-Drill Floor
EGL .ft        478.0                                   : Elev-Ground Level (Water Depth)
TDD .ft        10260.0                                 : Total Depth (Driller)
TDL .ft        10248.0                                 : Total Depth (Logger)
SRVC.          SCHLUMBERGER                            : Service Company
LATI.          58 29 47.7" N                           : Latitude
LONG.          00 01 07.0" W                           : Longitude
DATE.          27-NOV-1978 - 03-FEB-1979               : Logging Date
PROJ.          UKCS                                    : Project
SET .          COMP_WIRE                               : Set
~Curve Information Section
DEPTH.ft                                               : Depth Curve
CALI.in                                                : Caliper (FDC/CNL/GR)
DRHO.g/cc                                              : Delta Rho
DT.us/ft                                               : Delta-T
GR.gAPI                                                : Gamma Ray (ISF/BHC/GR)
GRD.gAPI                                               : Gamma Ray (FDC/CNL/GR)
ILD.Ohmm                                               : Deep Induction Standard Processed Resistivity
NPHI.LPU                                               : Neutron Porosity
RHOB.g/cc                                              : Bulk Density
SFL.Ohmm                                               : Spherically Focussed log Resistivity
SP.mV                                                  : Spontaneous Potential
~ASCII Log Data Section
# ...
 9047.5000         8.9824         0.0012        88.8479        98.8231        85.2554         0.1972        20.4615         2.3716         0.8788        23.3468     
 9048.0000         8.9122         0.0066        84.6244        70.3889        73.6380         0.4765        17.2106         2.3623         1.5276        23.2205     
 9048.5000         8.9381         0.0122        84.4953        66.9530        71.4415         0.8148        15.7527         2.3721         1.8113        23.1796     
 9049.0000         8.7956         0.0112        83.8388        65.5756        70.0947         1.3726        15.6682         2.3706         1.9501        23.1781     
 9049.5000         8.6724         0.0076        83.4619        64.5360        67.7789         2.1635        15.6964         2.3585         1.8377        23.2240     
 9050.0000         8.6500         0.0080        84.7645        63.3382        65.9156         2.0157        15.4421         2.3511         1.7777        22.5283     
 9050.5000         8.6500         0.0117        85.9680        63.5609        66.4236         1.3885        14.8537         2.3534         1.8659        22.2523     
 9051.0000         8.6901         0.0182        85.8993        66.9678        72.4546         1.3320        14.4847         2.3647         2.0639        22.3911     
 9051.5000         8.8213         0.0233        84.6111        71.5354        82.5567         1.1879        15.2673         2.3758         2.0937        22.6894     
 9052.0000         8.7275         0.0248        84.1035        73.9716        88.9221         1.0464        17.1870         2.3767         1.8280        22.9328     
 9052.5000         8.6586         0.0089        84.9587        73.6835        86.7504         0.9578        19.8352         2.3408         1.4428        22.9929     
 9053.0000         8.6514         0.0010        88.7864        66.5796        75.0508         0.8093        21.4766         2.2895         1.0302        22.7196     
 9053.5000         8.6973         0.0023        91.9913        58.0880        57.6740         0.6684        21.1623         2.2378         0.7357        22.3692     
 9054.0000         8.7763         0.0019        93.4692        50.2624        47.2178         0.5689        21.3789         2.1954         0.5982        22.8749     
 9054.5000         8.6654         0.0088        93.1092        46.7954        44.2741         0.4875        22.9891         2.1907         0.5414        23.4410     
 9055.0000         8.6062         0.0033        93.0883        44.6684        44.5630         0.4197        24.9803         2.1875         0.5264        23.4879     
 9055.5000         8.6000        -0.0074        93.1112        43.6796        43.1172         0.3825        26.1406         2.1855         0.5339        23.2906     
 9056.0000         8.6145        -0.0087        92.8408        43.2618        42.3104         0.3753        25.7567         2.1881         0.5395        22.9953     
 9056.5000         8.7150         0.0002        92.3363        42.2842        42.0972         0.3761        25.0011         2.1839         0.5299        22.6774     
 9057.0000         8.7898         0.0059        92.5131        41.0734        42.4662         0.3828        24.9954         2.1805         0.5222        22.4218     
 9057.5000         8.6207         0.0115        91.9720        40.2178        41.5115         0.3919        25.6442         2.1884         0.5380        22.3687     
 9058.0000         8.6000         0.0047        91.5725        41.7381        41.3666         0.4135        25.8977         2.2068         0.5974        22.1813     
 9058.5000         8.6000         0.0025        91.1151        43.4042        42.7979         0.4411        24.9510         2.2106         0.6653        22.1497     
 9059.0000         8.6325         0.0015        88.7381        43.8519        42.3564         0.4640        22.5981         2.2165         0.7383        22.2763     
 9059.5000         8.7872         0.0066        87.5562        42.9121        41.6437         0.4955        20.8814         2.2321         0.7644        22.3469     
 9060.0000         8.7971         0.0079        87.1416        43.4290        41.3581         0.5238        20.4527         2.2433         0.7526        22.3455     
 9060.5000         8.6209         0.0022        87.3836        44.9133        41.1229         0.5672        21.0939         2.2468         0.7322        22.0716     
 9061.0000         8.6000        -0.0024        87.4453        45.5856        41.1460         0.6142        21.4985         2.2417         0.6751        21.7613     
 9061.5000         8.6000        -0.0055        86.7543        46.1090        41.3641         0.6599        21.2121         2.2353         0.6457        21.7405     
 9062.0000         8.6258        -0.0034        86.7775        46.9759        41.7738         0.7048        20.6956         2.2330         0.7999        21.7390     
 9062.5000         8.6963         0.0046        87.2265        47.5592        42.2788         0.7203        20.3396         2.2284         1.0333        21.7375     
 9063.0000         8.6562         0.0140        88.4640        46.7451        41.3622         0.7279        20.7011         2.2200         1.3032        22.1483     
 9063.5000         8.5525         0.0145        89.3326        45.4158        39.4025         0.7338        20.6273         2.2241         1.4498        22.5092     
 9064.0000         8.5500         0.0108        88.7429        44.2478        40.0721         0.7340        19.8344         2.2402         1.3355        22.3825     
 9064.5000         8.5675         0.0094        87.1888        43.7430        42.0804         0.7274        18.6316         2.2536         0.9076        22.3326     
 9065.0000         8.6378         0.0091        86.5342        43.6955        45.5265         0.7134        18.1448         2.2655         0.7759        22.3311     
 9065.5000         8.6998         0.0106        86.6304        44.6786        47.3124         0.6850        19.1474         2.2656         0.7234        22.4603     
 9066.0000         8.6566         0.0060        87.0561        44.8610        46.9243         0.6332        20.4063         2.2628         0.6758        22.5285     
 9066.5000         8.6000        -0.0009        87.4339        43.1914        46.3046         0.6073        20.7616         2.2599         0.6448        22.4574     
 9067.0000         8.6008        -0.0038        87.2310        42.0191        45.3746         0.5744        20.8003         2.2531         0.6298        22.3254     
 9067.5000         8.6516        -0.0026        86.2584        41.8142        43.6282         0.5600        20.6614         2.2511         0.6339        22.3239     
 9068.0000         8.7247         0.0066        85.7373        41.4692        42.0178         0.5508        20.1220         2.2601         0.6548        22.0120     
 9068.5000         8.6662         0.0092        85.7381        41.7262        41.6852         0.5413        20.0000         2.2648         0.6747        21.2798     
 9069.0000         8.6000         0.0032        86.0739        42.7165        42.7432         0.5388        20.6195         2.2634         0.6897        20.8240     
 9069.5000         8.6000         0.0043        86.8251        44.6319        45.1817         0.5349        20.8055         2.2725         0.6915        20.5171     
 9070.0000         8.6000         0.0124        87.0714        46.0391        47.5648         0.5298        19.9493         2.2907         0.6842        20.3140     
 9070.5000         8.6267         0.0137        86.6818        47.0216        48.5117         0.5237        19.1231         2.2963         0.6687        20.4616     
 9071.0000         8.7338         0.0083        86.5432        48.0115        49.6321         0.5070        19.6356         2.2784         0.6523        20.5112     
 9071.5000         8.6813         0.0068        86.5441        48.4486        49.5625         0.4963        20.8680         2.2556         0.6326        20.5097     
