~Version Information Section
VERS.          2.0                                     : CWLS LOG ASCII Standard
WRAP.          NO                                      : One line per depth step
CREA.          03/08/17                                : LAS Creation Date
~Well Information Section
STRT.ft        448.0000                                : Start Depth
STOP.ft        10248.0000                              : Stop Depth
STEP.ft        0.5000                                  : Step
NULL.          -999.2500                               : Null Value
COMP.          TEXACO PRODUCTION SERVICES LTD          : Company
WELL.          14/20-9                                 : Well
FLD .          MORAY FIRTH                             : Field
LOC .          NORTH SEA                               : Location
LOC1.          -                                       : Location (UTM)
CTRY.          UK                                      : Country
PROV.          UKCS                                    : Province
UWI .          866                                     : UWI Number
API .          -                                       : API Number
SECT.          -                                       : Section
TOWN.          -                                       : Township
RNGE.          -                                       : Range
PDAT.          MSL                                     : Perm Datum
EPD .ft        0                                       : Elevation
LMF .          KB                                      : Log Measured From
DMF .          KB                                      : Drill Measured From
APD .ft        86.0                                    : Above Perm Datum
EKB .ft        86.0                                    : Elev-Kelly Bushing
EDF .ft        84.0                                    : Elev-Drill Floor
EGL .ft        478.0                                   : Elev-Ground Level (Water Depth)
TDD .ft        10260.0                                 : Total Depth (Driller)
TDL .ft        10248.0                                 : Total Depth (Logger)
SRVC.          SCHLUMBERGER                            : Service Company
LATI.          58 29 47.7" N                           : Latitude
LONG.          00 01 07.0" W                           : Longitude
DATE.          27-NOV-1978 - 03-FEB-1979               : Logging Date
PROJ.          UKCS                                    : Project
SET .          COMP_WIRE                               : Set
~Curve Information Section
DEPTH.ft                                               : Depth Curve
CALI.in                                                : Caliper (FDC/CNL/GR)
DRHO.g/cc                                              : Delta Rho
DT.us/ft                                               : Delta-T
GR.gAPI                                                : Gamma Ray (ISF/BHC/GR)
GRD.gAPI                                               : Gamma Ray (FDC/CNL/GR)
ILD.Ohmm                                               : Deep Induction Standard Processed Resistivity
NPHI.LPU                                               : Neutron Porosity
RHOB.g/cc                                              : Bulk Density
SFL.Ohmm                                               : Spherically Focussed log Resistivity
SP.mV                                                  : Spontaneous Potential
~ASCII Log Data Section
# ...
 4417.0000      -999.2500      -999.2500       141.5840        53.8000      -999.2500         0.9204      -999.2500      -999.2500         0.8241        28.7500     
 4417.5000      -999.2500      -999.2500       140.9613        53.8000      -999.2500         0.9290      -999.2500      -999.2500         0.8241        28.7500     
 4418.0000      -999.2500      -999.2500       141.9680        55.5000      -999.2500         0.9376      -999.2500      -999.2500         0.8166        28.7500     
 4418.5000      -999.2500      -999.2500       141.0080        57.2000      -999.2500         0.9462      -999.2500      -999.2500         0.8166        28.2500     
 4419.0000      -999.2500      -999.2500       141.3436        58.7000      -999.2500         0.9462      -999.2500      -999.2500         0.8091        28.2500     
 4419.5000      -999.2500      -999.2500       141.1520        58.0000      -999.2500         0.9462      -999.2500      -999.2500         0.8166        28.2500     
 4420.0000      -999.2500      -999.2500       141.0080        57.9000      -999.2500         0.9462      -999.2500      -999.2500         0.8241        28.2500     
 4420.5000      -999.2500      -999.2500       141.6320        59.5000      -999.2500         0.9550      -999.2500      -999.2500         0.8241        28.2500     
 4421.0000      -999.2500      -999.2500       141.6804        61.8993      -999.2500         0.9727      -999.2500      -999.2500         0.8241        27.7500     
 4421.5000      -999.2500      -999.2500       142.2080        63.4000      -999.2500         0.9817      -999.2500      -999.2500         0.8166        27.2500     
 4422.0000      -999.2500      -999.2500       141.4393        63.7008      -999.2500         0.9817      -999.2500      -999.2500         0.8166        27.2498     
 4422.5000      -999.2500      -999.2500       140.6720        64.7000      -999.2500         0.9817      -999.2500      -999.2500         0.8166        27.0000     
 4423.0000      -999.2500      -999.2500       139.7600        65.5000      -999.2500         0.9817      -999.2500      -999.2500         0.8166        27.0000     
 4423.5000      -999.2500      -999.2500       139.9040        66.0000      -999.2500         0.9817      -999.2500      -999.2500         0.8241        27.2500     
 4424.0000      -999.2500      -999.2500       140.2397        65.4000      -999.2500         0.9817      -999.2500      -999.2500         0.8241        27.2500     
 4424.5000      -999.2500      -999.2500       140.1920        66.3000      -999.2500         0.9817      -999.2500      -999.2500         0.8318        27.7500     
 4425.0000      -999.2500      -999.2500       139.1840        67.0000      -999.2500         0.9817      -999.2500      -999.2500         0.8395        27.7500     
 4425.5000      -999.2500      -999.2500       139.1355        67.2000      -999.2500         0.9817      -999.2500      -999.2500         0.8395        27.7500     
 4426.0000      -999.2500      -999.2500       138.5120        67.2000      -999.2500         0.9817      -999.2500      -999.2500         0.8472        28.0000     
 4426.5000      -999.2500      -999.2500       138.8960        65.1000      -999.2500         0.9817      -999.2500      -999.2500         0.8472        28.0000     
 4427.0000      -999.2500      -999.2500       139.3280        64.3000      -999.2500         0.9817      -999.2500      -999.2500         0.8472        28.2500     
 4427.5000      -999.2500      -999.2500       140.2877        64.7997      -999.2500         0.9818      -999.2500      -999.2500         0.8395        28.5002     
 4428.0000      -999.2500      -999.2500       140.8640        64.9000      -999.2500         0.9908      -999.2500      -999.2500         0.8318        29.0000     
 4428.5000      -999.2500      -999.2500       140.8156        65.0990      -999.2500         0.9908      -999.2500      -999.2500         0.8318        29.4998     
 4429.0000      -999.2500      -999.2500       140.3360        63.8000      -999.2500         0.9908      -999.2500      -999.2500         0.8395        29.2500     
 4429.5000      -999.2500      -999.2500       141.1520        61.5000      -999.2500         0.9908      -999.2500      -999.2500         0.8472        29.2500     
 4430.0000      -999.2500      -999.2500       141.0080        60.0000      -999.2500         0.9908      -999.2500      -999.2500         0.8472        29.2500     
 4430.5000      -999.2500      -999.2500       141.0565        59.7000      -999.2500         0.9908      -999.2500      -999.2500         0.8472        29.2500     
 4431.0000      -999.2500      -999.2500       141.7280        60.4000      -999.2500         0.9908      -999.2500      -999.2500         0.8472        29.5000     
 4431.5000      -999.2500      -999.2500       141.9200        60.7000      -999.2500         0.9817      -999.2500      -999.2500         0.8472        28.7500     
 4432.0000      -999.2500      -999.2500       141.4400        59.5000      -999.2500         0.9817      -999.2500      -999.2500         0.8472        28.5000     
 4432.5000      -999.2500      -999.2500       141.0080        58.2000      -999.2500         0.9817      -999.2500      -999.2500         0.8472        28.2500     
 4433.0000      -999.2500      -999.2500       141.1520        57.4000      -999.2500         0.9908      -999.2500      -999.2500         0.8472        28.2500     
 4433.5000      -999.2500      -999.2500       141.6320        57.7000      -999.2500         1.0000      -999.2500      -999.2500         0.8395        28.2500     
 4434.0000      -999.2500      -999.2500       142.2078        58.7992      -999.2500         1.0000      -999.2500      -999.2500         0.8318        28.0004     
 4434.5000      -999.2500      -999.2500       142.5440        58.9000      -999.2500         1.0000      -999.2500      -999.2500         0.8318        28.2500     
 4435.0000      -999.2500      -999.2500       141.1507        60.2016      -999.2500         1.0000      -999.2500      -999.2500         0.8395        28.2500     
 4435.5000      -999.2500      -999.2500       139.5200        62.2000      -999.2500         1.0000      -999.2500      -999.2500         0.8472        28.2500     
 4436.0000      -999.2500      -999.2500       137.4080        64.5000      -999.2500         1.0093      -999.2500      -999.2500         0.8630        28.2500     
 4436.5000      -999.2500      -999.2500       137.0240        66.5000      -999.2500         1.0093      -999.2500      -999.2500         0.8630        28.2500     
 4437.0000      -999.2500      -999.2500       137.7446        66.3000      -999.2500         1.0093      -999.2500      -999.2500         0.8551        28.2500     
 4437.5000      -999.2500      -999.2500       139.2800        63.9000      -999.2500         1.0093      -999.2500      -999.2500         0.8472        28.5000     
 4438.0000      -999.2500      -999.2500       139.7120        61.6000      -999.2500         1.0093      -999.2500      -999.2500         0.8472        28.7500     
 4438.5000      -999.2500      -999.2500       141.5344        60.9000      -999.2500         1.0186      -999.2500      -999.2500         0.8395        28.7500     
 4439.0000      -999.2500      -999.2500       141.3920        61.8000      -999.2500         1.0568      -999.2500      -999.2500         0.8318        29.0000     
 4439.5000      -999.2500      -999.2500       139.6642        62.7990      -999.2500         1.0666      -999.2500      -999.2500         0.8242        29.2498     
 4440.0000      -999.2500      -999.2500       138.2720        62.6000      -999.2500         1.0666      -999.2500      -999.2500         0.8472        29.2500     
 4440.5000      -999.2500      -999.2500       135.9216        61.8993      -999.2500         1.0666      -999.2500      -999.2500         0.8872        29.2498     
 4441.0000      -999.2500      -999.2500       135.6320        60.3000      -999.2500         1.0568      -999.2500      -999.2500         0.9204        29.0000     
