~Version Information Section
VERS.          2.0                                     : CWLS LOG ASCII Standard
WRAP.          NO                                      : One line per depth step
CREA.          03/08/17                                : LAS Creation Date
~Well Information Section
STRT.ft        448.0000                                : Start Depth
STOP.ft        10248.0000                              : Stop Depth
STEP.ft        0.5000                                  : Step
NULL.          -999.2500                               : Null Value
COMP.          TEXACO PRODUCTION SERVICES LTD          : Company
WELL.          14/20-9                                 : Well
FLD .          MORAY FIRTH                             : Field
LOC .          NORTH SEA                               : Location
LOC1.          -                                       : Location (UTM)
CTRY.          UK                                      : Country
PROV.          UKCS                                    : Province
UWI .          866                                     : UWI Number
API .          -                                       : API Number
SECT.          -                                       : Section
TOWN.          -                                       : Township
RNGE.          -                                       : Range
PDAT.          MSL                                     : Perm Datum
EPD .ft        0                                       : Elevation
LMF .          KB                                      : Log Measured From
DMF .          KB                                      : Drill Measured From
APD .ft        86.0                                    : Above Perm Datum
EKB .ft        86.0                                    : Elev-Kelly Bushing
EDF .ft        84.0                                    : Elev-Drill Floor
EGL .ft        478.0                                   : Elev-Ground Level (Water Depth)
TDD .ft        10260.0                                 : Total Depth (Driller)
TDL .ft        10248.0                                 : Total Depth (Logger)
SRVC.          SCHLUMBERGER                            : Service Company
LATI.          58 29 47.7" N                           : Latitude
LONG.          00 01 07.0" W                           : Longitude
DATE.          27-NOV-1978 - 03-FEB-1979               : Logging Date
PROJ.          UKCS                                    : Project
SET .          COMP_WIRE                               : Set
~Curve Information Section
DEPTH.ft                                               : Depth Curve
CALI.in                                                : Caliper (FDC/CNL/GR)
DRHO.g/cc                                              : Delta Rho
DT.us/ft                                               : Delta-T
GR.gAPI                                                : Gamma Ray (ISF/BHC/GR)
GRD.gAPI                                               : Gamma Ray (FDC/CNL/GR)
ILD.Ohmm                                               : Deep Induction Standard Processed Resistivity
NPHI.LPU                                               : Neutron Porosity
RHOB.g/cc                                              : Bulk Density
SFL.Ohmm                                               : Spherically Focussed log Resistivity
SP.mV                                                  : Spontaneous Potential
~ASCII Log Data Section
# ...
 5005.0000        12.7000         0.0218       126.7233        33.2759        31.0531         0.5325        28.0447         2.1341         0.6456        20.7880     
 5005.5000        12.7000         0.0203       126.3540        32.9477        32.7809         0.5419        28.7481         2.1389         0.6452        20.9672     
 5006.0000        12.7000         0.0166       126.3176        33.4618        33.7638         0.5407        29.0490         2.1421         0.6397        21.0765     
 5006.5000        12.6997         0.0110       126.1342        34.3369        33.2304         0.5369        29.3167         2.1277         0.6223        20.3449     
 5007.0000        12.6582         0.0100       126.4094        34.7958        33.0225         0.5330        29.7441         2.1224         0.6047        19.6521     
 5007.5000        12.6502         0.0167       127.3785        34.9558        34.1682         0.5292        29.8204         2.1252         0.5925        19.2784     
 5008.0000        12.6917         0.0188       128.2793        35.0654        34.3970         0.5254        29.9363         2.1266         0.5758        18.9755     
 5008.5000        12.7000         0.0098       129.2085        35.2669        33.2320         0.5211        29.7766         2.1177         0.5718        19.5030     
 5009.0000        12.7416         0.0130       129.5198        35.0488        32.4175         0.5147        29.7733         2.1110         0.5696        20.4843     
 5009.5000        12.7085         0.0223       129.3105        35.0658        31.0554         0.5084        29.3486         2.1223         0.5774        20.6066     
 5010.0000        12.7000         0.0149       128.0560        35.1550        30.1375         0.5049        28.6312         2.1248         0.5943        21.2802     
 5010.5000        12.7000         0.0072       127.3077        34.6686        30.3303         0.4995        28.3679         2.1175         0.6114        20.5394     
 5011.0000        12.7412         0.0101       126.8507        34.0740        30.5648         0.5059        28.7357         2.1184         0.6225        19.6218     
 5011.5000        12.7089         0.0126       125.7533        33.9261        30.0248         0.5179        29.0666         2.1238         0.6250        19.4394     
 5012.0000        12.7410         0.0155       125.3398        34.1353        28.9978         0.5202        29.1692         2.1354         0.6302        19.4277     
 5012.5000        12.7091         0.0152       126.3689        34.0209        28.9637         0.5200        28.7052         2.1450         0.6293        19.4683     
 5013.0000        12.7000         0.0125       127.2120        33.1719        29.0818         0.5197        28.7798         2.1426         0.6262        20.0941     
 5013.5000        12.7000         0.0112       127.4448        32.6092        28.3662         0.5194        28.9341         2.1392         0.6208        20.7370     
 5014.0000        12.7000         0.0110       129.2945        31.6645        27.4683         0.5190        29.3015         2.1395         0.6141        21.3380     
 5014.5000        12.7406         0.0086       129.7247        31.3373        27.2189         0.5175        29.7370         2.1349         0.6011        21.9365     
 5015.0000        12.7500         0.0104       129.6447        30.7978        27.2810         0.5158        30.2087         2.1346         0.5937        21.4892     
 5015.5000        12.7096         0.0126       129.5557        30.2974        28.0266         0.5141        30.5745         2.1299         0.5909        21.0481     
 5016.0000        12.7402         0.0178       129.5600        30.2686        29.1659         0.5128        30.6722         2.1264         0.5929        20.9392     
 5016.5000        12.7500         0.0214       128.9775        30.7376        29.1588         0.5119        30.3908         2.1314         0.5975        20.5646     
 5017.0000        12.7500         0.0236       129.6595        31.4348        29.7414         0.5106        30.5765         2.1343         0.6015        19.7163     
 5017.5000        12.7500         0.0208       130.6823        31.8595        29.9800         0.5092        31.0880         2.1339         0.6063        19.5176     
 5018.0000        12.7500         0.0168       130.0861        31.6901        30.1595         0.5079        31.0085         2.1330         0.6095        20.2134     
 5018.5000        12.7500         0.0232       128.8992        31.3257        29.9612         0.5192        31.0555         2.1296         0.6015        20.3426     
 5019.0000        12.7500         0.0306       128.2461        31.1566        29.9794         0.5401        31.5880         2.1351         0.5860        19.9833     
 5019.5000        12.7500         0.0288       128.1978        31.1210        30.7928         0.5618        31.5456         2.1383         0.5660        19.7669     
 5020.0000        12.7500         0.0312       128.0143        31.7295        29.8923         0.6416        30.9621         2.1434         0.5419        19.5773     
 5020.5000        12.7500         0.0312       128.0769        31.7429        29.6000         0.7221        30.0785         2.1595         0.5251        19.0487     
 5021.0000        12.7894         0.0271       127.5258        31.1745        28.9701         0.7992        28.7781         2.1744         0.5313        19.9163     
 5021.5000        12.8000         0.0229       123.5930        31.0369        27.9365         0.8765        27.2714         2.1804         0.6523        20.3086     
 5022.0000        12.7608         0.0165       112.6579        31.2715        27.7783         0.9543        25.4218         2.1929         0.9708        20.3958     
 5022.5000        12.7890         0.0127       106.9494        31.6861        27.1752         1.0323        22.5639         2.2216         1.3313        20.3842     
 5023.0000        12.8000         0.0073       108.3672        30.8796        27.1559         1.1719        18.3410         2.2797         1.5883        20.5259     
 5023.5000        12.8000         0.0417       107.7236        29.5995        27.0446         1.3282        15.5367         2.3518         2.4149        20.4083     
 5024.0000        12.8000         0.0388       105.2030        29.4255        26.8449         1.4547        14.8959         2.4045         2.6792        21.1511     
 5024.5000        12.8000         0.0103       103.6189        29.4574        26.7227         1.5778        14.4424         2.3965         2.3204        21.3817     
 5025.0000        12.8000         0.0069       107.7018        29.7039        27.7808         1.7119        15.5552         2.3766         1.4583        20.9897     
 5025.5000        12.8000         0.0373       107.9592        29.7892        27.9460         1.9093        19.1672         2.3373         1.1161        20.6914     
 5026.0000        12.8000         0.0460        99.2829        29.8295        27.2854         1.9830        21.2767         2.2911         1.4258        20.3322     
 5026.5000        12.8000         0.0337        68.7004        29.8699        26.2570         1.7846        19.6124         2.2674         2.2295        20.3326     
 5027.0000        12.8382         0.0124        70.3714        29.4960        26.7642         1.5992        14.9949         2.3043         8.2251        20.3293     
 5027.5000        12.8119         0.0032        80.0927        28.2124        28.5252         1.5443        11.2129         2.3947         7.8416        20.2654     
 5028.0000        12.8000         0.0088        89.8490        27.8425        30.8245         1.5223        10.5721         2.4618         4.0981        19.4213     
 5028.5000        12.7621         0.0300        93.9225        28.5278        31.0207         1.5544        13.3493         2.4543         1.6590        20.1718     
 5029.0000        12.7500         0.0375        94.4806        29.0115        29.2350         1.5448        16.2783         2.3966         1.6107        20.2314     
