~Version Information Section
VERS.          2.0                                     : CWLS LOG ASCII Standard
WRAP.          NO                                      : One line per depth step
CREA.          03/08/17                                : LAS Creation Date
~Well Information Section
STRT.ft        448.0000                                : Start Depth
STOP.ft        10248.0000                              : Stop Depth
STEP.ft        0.5000                                  : Step
NULL.          -999.2500                               : Null Value
COMP.          TEXACO PRODUCTION SERVICES LTD          : Company
WELL.          14/20-9                                 : Well
FLD .          MORAY FIRTH                             : Field
LOC .          NORTH SEA                               : Location
LOC1.          -                                       : Location (UTM)
CTRY.          UK                                      : Country
PROV.          UKCS                                    : Province
UWI .          866                                     : UWI Number
API .          -                                       : API Number
SECT.          -                                       : Section
TOWN.          -                                       : Township
RNGE.          -                                       : Range
PDAT.          MSL                                     : Perm Datum
EPD .ft        0                                       : Elevation
LMF .          KB                                      : Log Measured From
DMF .          KB                                      : Drill Measured From
APD .ft        86.0                                    : Above Perm Datum
EKB .ft        86.0                                    : Elev-Kelly Bushing
EDF .ft        84.0                                    : Elev-Drill Floor
EGL .ft        478.0                                   : Elev-Ground Level (Water Depth)
TDD .ft        10260.0                                 : Total Depth (Driller)
TDL .ft        10248.0                                 : Total Depth (Logger)
SRVC.          SCHLUMBERGER                            : Service Company
LATI.          58 29 47.7" N                           : Latitude
LONG.          00 01 07.0" W                           : Longitude
DATE.          27-NOV-1978 - 03-FEB-1979               : Logging Date
PROJ.          UKCS                                    : Project
SET .          COMP_WIRE                               : Set
~Curve Information Section
DEPTH.ft                                               : Depth Curve
CALI.in                                                : Caliper (FDC/CNL/GR)
DRHO.g/cc                                              : Delta Rho
DT.us/ft                                               : Delta-T
GR.gAPI                                                : Gamma Ray (ISF/BHC/GR)
GRD.gAPI                                               : Gamma Ray (FDC/CNL/GR)
ILD.Ohmm                                               : Deep Induction Standard Processed Resistivity
NPHI.LPU                                               : Neutron Porosity
RHOB.g/cc                                              : Bulk Density
SFL.Ohmm                                               : Spherically Focussed log Resistivity
SP.mV                                                  : Spontaneous Potential
~ASCII Log Data Section
# ...
 9611.0000        14.9168         0.0186        89.6731        80.5317        85.3271         2.3668        30.8192         2.4990         2.0479        43.0477     
 9611.5000        14.5863         0.0263        90.8981        80.9170        84.8789         2.3869        29.8323         2.4916         2.0505        43.2069     
 9612.0000        13.8753         0.0323        92.1224        82.1653        84.8684         2.4058        30.2612         2.4800         2.0335        43.5036     
 9612.5000        13.8575         0.0401        93.3443        83.5347        83.3536         2.4248        30.1503         2.4663         1.9293        43.0845     
 9613.0000        13.5392         0.0525        93.7855        82.9854        81.7342         2.4444        30.8185         2.4732         1.8137        42.6435     
 9613.5000        14.5985         0.0577        93.5261        81.2193        82.5077         2.4667        31.6976         2.4934         1.7592        42.2369     
 9614.0000        14.3573         0.0389        92.9545        79.7657        84.5193         2.4862        30.9098         2.4996         1.7809        42.2334     
 9614.5000        14.3716         0.0246        91.4200        79.8752        85.5741         2.4935        29.9109         2.4929         1.8571        42.3636     
 9615.0000        14.8041         0.0193        89.7518        81.5571        84.6370         2.4995        28.6952         2.4913         1.9541        42.2587     
 9615.5000        15.2398         0.0371        88.9338        82.4263        83.9965         2.5056        28.6369         2.5098         1.9779        42.2245     
 9616.0000        15.3517         0.0334        88.9908        82.3958        84.1299         2.5085        29.2821         2.5148         2.1159        42.0887     
 9616.5000        15.0217         0.0303        89.6213        82.0510        85.4615         2.5080        30.6760         2.4994         2.1593        42.1894     
 9617.0000        14.6567         0.0222        90.5787        80.6672        85.1771         2.4621        31.7851         2.4768         2.0715        42.2155     
 9617.5000        14.4940         0.0210        90.7859        79.8441        84.7280         2.4073        32.5046         2.4639         1.9377        42.1883     
 9618.0000        13.5458         0.0303        90.7739        79.4410        83.5784         2.3368        33.5411         2.4506         1.8236        41.6301     
 9618.5000        13.4491         0.0511        90.4345        79.1366        82.5425         2.2419        33.6327         2.4404         1.7108        41.3915     
 9619.0000        14.3210         0.0631        91.6642        79.1711        82.3449         2.1586        34.0368         2.4442         1.6101        41.2290     
 9619.5000        14.2990         0.0490        94.9085        79.2625        81.8827         2.1012        34.5122         2.4540         1.5844        41.2005     
 9620.0000        15.0543         0.0340        98.9661        80.2396        81.8349         2.0761        34.2267         2.4583         1.5995        41.2927     
 9620.5000        15.0217         0.0472       101.0345        82.0534        81.4922         2.1135        33.6220         2.4725         1.5817        41.8372     
 9621.0000        15.0376         0.0397       100.5531        84.9293        81.7265         2.1577        33.6349         2.4696         1.5717        43.6161     
 9621.5000        15.1360         0.0288        97.0321        85.9320        82.2366         2.2041        33.4873         2.4481         1.5357        45.3658     
 9622.0000        14.1933         0.0252        95.6844        85.5232        83.0558         2.2535        32.7556         2.4644         1.5848        45.3128     
 9622.5000        14.5289         0.0244        93.9939        83.5897        84.3712         2.3156        32.2924         2.4886         1.7060        44.7879     
 9623.0000        14.9988         0.0341        91.3407        83.0285        83.3819         2.3812        31.4786         2.5007         1.9438        44.2538     
 9623.5000        15.3389         0.0361        89.8089        82.5569        82.0193         2.4468        30.6605         2.4973         2.1531        42.3992     
 9624.0000        15.6028         0.0381        89.8445        84.1691        82.9399         2.5202        30.2416         2.4962         2.2010        41.7110     
 9624.5000        14.7617         0.0505        90.1877        85.6713        82.5776         2.5957        29.7512         2.4848         2.1940        41.7847     
 9625.0000        14.5737         0.0644        89.6195        85.8910        82.8189         2.6609        29.0359         2.4994         2.2186        42.1212     
 9625.5000        14.7452         0.0825        89.1452        85.7446        83.7069         2.6599        29.3216         2.5298         2.2773        42.1973     
 9626.0000        14.9161         0.0685        89.5244        86.0430        84.2537         2.6497        29.4079         2.5462         2.2958        42.2246     
 9626.5000        14.4809         0.0614        89.5940        85.8182        83.7431         2.6275        28.8663         2.5347         2.1953        42.2519     
 9627.0000        14.0373         0.0575        89.7385        84.8544        84.2887         2.5949        29.0791         2.5297         2.1089        42.1588     
 9627.5000        13.4615         0.0469        90.1331        83.6151        86.7311         2.5624        29.4871         2.5281         2.0534        42.1525     
 9628.0000        13.9273         0.0403        89.1073        84.9825        89.3963         2.5348        30.2206         2.5303         2.1738        42.0212     
 9628.5000        14.0516         0.0332        89.1022        86.3257        89.6172         2.5110        30.6666         2.5241         2.2225        42.1445     
 9629.0000        13.4987         0.0295        88.9466        87.0849        87.5577         2.4830        29.9758         2.5117         2.1272        42.2771     
 9629.5000        13.5443         0.0292        88.7015        85.9221        86.2871         2.4534        29.7895         2.4977         2.0380        42.3405     
 9630.0000        13.9957         0.0314        89.5803        83.0138        84.5319         2.4298        29.9816         2.4957         1.9235        42.3375     
 9630.5000        14.4935         0.0371        89.9073        83.6355        84.2649         2.4061        30.3962         2.5096         1.9355        42.4074     
 9631.0000        15.8210         0.0221        90.8802        86.0764        83.8553         2.3795        31.2603         2.5089         1.9818        42.5314     
 9631.5000        16.2033         0.0247        92.0099        86.5083        83.4030         2.3526        31.1507         2.4965         1.9836        42.6971     
 9632.0000        16.3486         0.0385        92.3250        84.7548        83.3107         2.3488        30.6152         2.4876         1.8468        43.5918     
 9632.5000        15.7523         0.0569        91.0958        83.8919        81.9447         2.3567        30.4337         2.4835         1.8189        44.2025     
 9633.0000        15.5675         0.0610        90.2839        82.6823        83.5213         2.3636        30.9170         2.4942         1.8309        42.7846     
 9633.5000        14.8639         0.0578        89.7662        81.6973        82.8597         2.3642        30.3798         2.4932         1.8271        41.8999     
 9634.0000        14.4543         0.0585        90.3508        79.6234        81.7552         2.3639        30.1161         2.4785         1.8379        41.6137     
 9634.5000        15.3130         0.0570        90.1967        77.2359        83.0512         2.3714        30.2656         2.4764         1.8544        41.7165     
 9635.0000        16.0426         0.0616        90.5160        77.2952        82.1562         2.4198        30.1788         2.4856         1.8693        42.0918     
