~Version Information Section
VERS.          2.0                                     : CWLS LOG ASCII Standard
WRAP.          NO                                      : One line per depth step
CREA.          03/08/17                                : LAS Creation Date
~Well Information Section
STRT.ft        448.0000                                : Start Depth
STOP.ft        10248.0000                              : Stop Depth
STEP.ft        0.5000                                  : Step
NULL.          -999.2500                               : Null Value
COMP.          TEXACO PRODUCTION SERVICES LTD          : Company
WELL.          14/20-9                                 : Well
FLD .          MORAY FIRTH                             : Field
LOC .          NORTH SEA                               : Location
LOC1.          -                                       : Location (UTM)
CTRY.          UK                                      : Country
PROV.          UKCS                                    : Province
UWI .          866                                     : UWI Number
API .          -                                       : API Number
SECT.          -                                       : Section
TOWN.          -                                       : Township
RNGE.          -                                       : Range
PDAT.          MSL                                     : Perm Datum
EPD .ft        0                                       : Elevation
LMF .          KB                                      : Log Measured From
DMF .          KB                                      : Drill Measured From
APD .ft        86.0                                    : Above Perm Datum
EKB .ft        86.0                                    : Elev-Kelly Bushing
EDF .ft        84.0                                    : Elev-Drill Floor
EGL .ft        478.0                                   : Elev-Ground Level (Water Depth)
TDD .ft        10260.0                                 : Total Depth (Driller)
TDL .ft        10248.0                                 : Total Depth (Logger)
SRVC.          SCHLUMBERGER                            : Service Company
LATI.          58 29 47.7" N                           : Latitude
LONG.          00 01 07.0" W                           : Longitude
DATE.          27-NOV-1978 - 03-FEB-1979               : Logging Date
PROJ.          UKCS                                    : Project
SET .          COMP_WIRE                               : Set
~Curve Information Section
DEPTH.ft                                               : Depth Curve
CALI.in                                                : Caliper (FDC/CNL/GR)
DRHO.g/cc                                              : Delta Rho
DT.us/ft                                               : Delta-T
GR.gAPI                                                : Gamma Ray (ISF/BHC/GR)
GRD.gAPI                                               : Gamma Ray (FDC/CNL/GR)
ILD.Ohmm                                               : Deep Induction Standard Processed Resistivity
NPHI.LPU                                               : Neutron Porosity
RHOB.g/cc                                              : Bulk Density
SFL.Ohmm                                               : Spherically Focussed log Resistivity
SP.mV                                                  : Spontaneous Potential
~ASCII Log Data Section
# ...
 6156.5000        16.9087         0.0212       142.0527        57.2610        51.5889         0.9529        39.3272         2.2016         0.8673        40.5108     
 6157.0000        16.8618         0.0191       143.2737        58.7022        51.4765         0.9677        39.9963         2.2040         0.8289        40.9180     
 6157.5000        16.9768         0.0276       143.5699        57.4322        52.4252         0.9913        41.4592         2.2000         0.8206        40.8487     
 6158.0000        17.1887         0.0450       142.2907        54.9841        53.0000         1.0184        43.1633         2.2076         0.8409        40.7094     
 6158.5000        17.0429         0.0496       137.0087        53.9876        52.2898         1.0247        43.7577         2.2073         0.8958        40.2279     
 6159.0000        17.0782         0.0456       132.6210        53.5206        51.8594         1.0185        43.4699         2.2068         0.9790        40.2978     
 6159.5000        17.6459         0.0404       130.5464        53.0163        51.6027         1.0112        39.5599         2.2253         1.0107        40.2984     
 6160.0000        18.0990         0.0255       132.4227        52.8601        50.9233         0.9927        35.4422         2.2393         0.9772        41.2200     
 6160.5000        18.2299         0.0200       136.0977        52.7500        50.6597         0.9651        36.4069         2.2428         0.9368        41.5265     
 6161.0000        17.2316         0.0292       141.2974        52.5988        51.7184         0.9332        39.0415         2.2419         0.8782        41.4075     
 6161.5000        17.2398         0.0274       143.9005        52.2570        52.5200         0.8923        41.0157         2.2193         0.8300        41.2343     
 6162.0000        18.2110         0.0260       145.2383        52.3146        52.6000         0.8520        41.7961         2.1884         0.7813        41.1524     
 6162.5000        18.5500         0.0412       145.5954        52.4208        52.1183         0.8257        43.3237         2.1797         0.7351        41.1633     
 6163.0000        18.7612         0.0633       144.1649        51.8740        51.6793         0.8058        43.8369         2.1843         0.7118        40.7650     
 6163.5000        18.9605         0.0714       138.6944        51.2214        51.9628         0.7935        41.5851         2.1910         0.7362        40.4693     
 6164.0000        19.1212         0.0534       134.7174        50.6047        51.1093         0.8018        38.5264         2.1887         0.7532        39.5260     
 6164.5000        20.1726         0.0329       134.2359        50.6190        49.9137         0.8193        36.1578         2.1864         0.7801        39.0867     
 6165.0000        19.8269         0.0264       134.9934        51.3784        48.8702         0.8364        33.9805         2.1980         0.7974        38.5136     
 6165.5000        20.1454         0.0278       135.6695        52.3036        49.9859         0.8530        32.9946         2.1905         0.8032        38.7566     
 6166.0000        20.7806         0.0278       136.0721        52.4860        51.4888         0.8697        34.4432         2.1722         0.7990        38.9864     
 6166.5000        20.8919         0.0276       134.1537        52.5335        51.8000         0.8880        37.0670         2.1658         0.7857        39.0546     
 6167.0000        20.2439         0.0348       126.3237        53.1674        51.6772         0.9232        38.9552         2.1824         0.7732        39.1857     
 6167.5000        19.1841         0.0433       124.2079        53.9418        51.5384         0.9586        39.0490         2.1999         0.7666        39.9826     
 6168.0000        19.3238         0.0460       120.7388        53.8292        50.5141         0.9931        37.8431         2.2101         0.7807        40.3919     
 6168.5000        20.1129         0.0441       118.6765        52.2954        48.9125         1.0190        36.9638         2.2182         0.8049        40.5015     
 6169.0000        20.9881         0.0337       119.1542        50.8389        48.1143         1.0517        34.9115         2.2245         0.8178        40.5130     
 6169.5000        21.5672         0.0212       124.0300        49.5373        48.4965         1.0687        33.1519         2.2268         0.8591        40.5245     
 6170.0000        20.7367         0.0207       131.1229        48.5214        49.1729         1.0708        32.4817         2.2373         0.9637        40.5360     
 6170.5000        18.5619         0.0199       131.2439        49.5175        49.7114         1.0533        32.2502         2.2473         1.0689        40.5475     
 6171.0000        18.4115         0.0217       130.1924        49.7051        50.2121         1.0356        32.2325         2.2539         1.2621        40.5591     
 6171.5000        18.5876         0.0209       130.0927        48.5971        50.0876         1.0106        33.1398         2.2553         1.2219        40.5706     
 6172.0000        17.7419         0.0203       135.7868        48.4183        49.9627         0.9649        34.6327         2.2514         1.0279        40.5821     
 6172.5000        16.8477         0.0248       139.2333        49.3753        51.0674         0.9387        37.4856         2.2334         0.8010        40.5936     
 6173.0000        16.6444         0.0257       139.3536        49.2551        51.8889         0.9125        40.1750         2.1995         0.7004        40.6051     
 6173.5000        17.5187         0.0244       137.6382        49.2611        52.1889         0.8881        40.1909         2.1696         0.7025        40.6166     
 6174.0000        19.3264         0.0272       136.0309        50.4223        53.2474         0.8775        39.5505         2.1667         0.7473        40.6125     
 6174.5000        20.6694         0.0258       134.1913        51.7693        53.3571         0.8731        40.3506         2.1723         0.7806        39.3523     
 6175.0000        18.9411         0.0234       132.3714        52.9948        51.7696         0.8771        41.5264         2.1834         0.7855        38.6560     
 6175.5000        18.3856         0.0217       130.8398        52.7675        50.6822         0.8959        41.4043         2.1892         0.7922        38.1615     
 6176.0000        18.5906         0.0261       127.0022        51.4043        50.8188         0.9155        39.7816         2.2050         0.8430        38.0731     
 6176.5000        18.3724         0.0264       121.3700        50.4142        49.5968         0.9356        37.9099         2.2234         0.9279        38.0846     
 6177.0000        18.7472         0.0250       120.0403        49.6740        48.8000         0.9557        35.6318         2.2351         0.9711        38.1554     
 6177.5000        19.0320         0.0365       119.2520        48.6669        47.9670         0.9774        32.9079         2.2507         0.9678        38.4002     
 6178.0000        17.5745         0.0462       119.2409        47.9616        47.3075         1.0152        31.2457         2.2658         0.9444        38.3048     
 6178.5000        17.6189         0.0461       126.5548        47.3318        46.4920         1.0526        31.0345         2.2678         0.9017        37.7949     
 6179.0000        19.5829         0.0573       127.6591        47.2024        46.4868         1.0847        31.8937         2.2568         0.8724        37.6412     
 6179.5000        21.1104         0.0634       126.9125        47.1827        46.7646         1.1071        33.3410         2.2375         0.8849        37.7539     
 6180.0000        21.1768         0.0546       119.1113        47.0045        46.0244         1.1362        34.2622         2.2170         0.9113        37.9288     
 6180.5000        21.5188         0.0409       115.0856        46.0298        45.3406         1.1533        34.0450         2.2023         1.0185        37.8072     
