~Version Information Section
VERS.          2.0                                     : CWLS LOG ASCII Standard
WRAP.          NO                                      : One line per depth step
CREA.          03/08/17                                : LAS Creation Date
~Well Information Section
STRT.ft        448.0000                                : Start Depth
STOP.ft        10248.0000                              : Stop Depth
STEP.ft        0.5000                                  : Step
NULL.          -999.2500                               : Null Value
COMP.          TEXACO PRODUCTION SERVICES LTD          : Company
WELL.          14/20-9                                 : Well
FLD .          MORAY FIRTH                             : Field
LOC .          NORTH SEA                               : Location
LOC1.          -                                       : Location (UTM)
CTRY.          UK                                      : Country
PROV.          UKCS                                    : Province
UWI .          866                                     : UWI Number
API .          -                                       : API Number
SECT.          -                                       : Section
TOWN.          -                                       : Township
RNGE.          -                                       : Range
PDAT.          MSL                                     : Perm Datum
EPD .ft        0                                       : Elevation
LMF .          KB                                      : Log Measured From
DMF .          KB                                      : Drill Measured From
APD .ft        86.0                                    : Above Perm Datum
EKB .ft        86.0                                    : Elev-Kelly Bushing
EDF .ft        84.0                                    : Elev-Drill Floor
EGL .ft        478.0                                   : Elev-Ground Level (Water Depth)
TDD .ft        10260.0                                 : Total Depth (Driller)
TDL .ft        10248.0                                 : Total Depth (Logger)
SRVC.          SCHLUMBERGER                            : Service Company
LATI.          58 29 47.7" N                           : Latitude
LONG.          00 01 07.0" W                           : Longitude
DATE.          27-NOV-1978 - 03-FEB-1979               : Logging Date
PROJ.          UKCS                                    : Project
SET .          COMP_WIRE                               : Set
~Curve Information Section
DEPTH.ft                                               : Depth Curve
CALI.in                                                : Caliper (FDC/CNL/GR)
DRHO.g/cc                                              : Delta Rho
DT.us/ft                                               : Delta-T
GR.gAPI                                                : Gamma Ray (ISF/BHC/GR)
GRD.gAPI                                               : Gamma Ray (FDC/CNL/GR)
ILD.Ohmm                                               : Deep Induction Standard Processed Resistivity
NPHI.LPU                                               : Neutron Porosity
RHOB.g/cc                                              : Bulk Density
SFL.Ohmm                                               : Spherically Focussed log Resistivity
SP.mV                                                  : Spontaneous Potential
~ASCII Log Data Section
# ...
10199.0000         8.3000         0.0135        79.6824      -999.2500        26.6997         0.5033        19.0575         2.3240         0.7309       -17.1295     
10199.5000         8.3000         0.0121        79.6788      -999.2500        26.6946         0.4955        18.1663         2.3241         0.6837       -16.2104     
10200.0000         8.3000         0.0147        79.6752      -999.2500        28.2883         0.4915        17.9500         2.3160         0.6238       -15.6372     
10200.5000         8.3000         0.0172        79.8716      -999.2500        30.2466         0.4973        17.9267         2.3096         0.5928       -17.5093     
10201.0000         8.3000         0.0183        79.7988      -999.2500        33.4980         0.5039        17.9578         2.3100         0.6352       -18.0276     
10201.5000         8.3000         0.0133        79.6822      -999.2500        36.4595         0.5187        17.9902         2.3161         0.6926       -18.0847     
10202.0000         8.3000         0.0070        79.9531      -999.2500        39.1309         0.5499        18.2354         2.3155         0.8288       -18.1220     
10202.5000         8.3000        -0.0041        80.5887      -999.2500        42.5928         0.5810        18.6696         2.3010         0.9072       -18.3025     
10203.0000         8.3000        -0.0116        80.9033      -999.2500        47.4477         0.6219        19.2481         2.2842         0.9200       -17.9990     
10203.5000         8.3000        -0.0142        82.8487      -999.2500        53.1216         0.6920        20.6267         2.2659         0.9357       -17.3148     
10204.0000         8.3000        -0.0156        89.6522      -999.2500        59.4120         0.7641        22.9161         2.2378         0.9470       -17.2497     
10204.5000         8.3000        -0.0209       104.2104      -999.2500        64.5188         0.8985        26.2229         2.1912         0.9803       -17.8947     
10205.0000         8.3000        -0.0302       109.4612      -999.2500        67.3571         1.0585        31.7518         2.1102         1.0639       -19.9711     
10205.5000         8.3000        -0.0307       114.3607      -999.2500        68.9492         1.2949        38.8424         1.9639         1.5530       -20.4201     
10206.0000         8.3000        -0.0218       118.5528      -999.2500        69.2808         1.5978        46.1062         1.7918         2.5070       -20.7793     
10206.5000         8.2881        -0.0220       120.6528      -999.2500        71.3166         1.7356        51.3507         1.6219         3.6776       -20.4871     
10207.0000         8.2528        -0.0255       122.7926      -999.2500        74.4331         1.9277        52.6794         1.5224         5.0712       -20.2286     
10207.5000         8.2500        -0.0238       121.9619      -999.2500        77.1396         2.1355        51.4876         1.5125         5.1587       -19.8205     
10208.0000         8.2627        -0.0100       117.8906      -999.2500        79.6253         2.1896        47.3910         1.5518         4.0117       -18.6319     
10208.5000         8.2978         0.0020        98.0145      -999.2500        82.3897         2.2060        37.8538         1.6630         2.6250       -18.9514     
10209.0000         8.3000         0.0085        83.7699      -999.2500        83.1911         2.1151        25.7206         1.8499         2.0836       -18.0948     
10209.5000         8.2867         0.0017        77.5484      -999.2500        83.0748         1.9508        20.2065         2.0844         1.7272       -16.5687     
10210.0000         8.2517         0.0101        76.2054      -999.2500        84.1420         1.7867        19.2915         2.2989         1.7156       -15.6683     
10210.5000         8.2500         0.0133        76.6397      -999.2500        85.3675         1.6836        19.8601         2.3926         1.9196       -15.2651     
10211.0000         8.2500         0.0193        77.7757      -999.2500        86.9826         1.6171        19.8600         2.4144         1.9780       -11.9266     
10211.5000         8.2649         0.0285        78.2051      -999.2500        91.4141         1.5507        19.4870         2.4147         1.8938       -11.6703     
10212.0000         8.2831         0.0362      -999.2500      -999.2500        97.8158         1.4878        19.5212         2.4256         1.9582       -12.7085     
10212.5000         8.2516         0.0394      -999.2500      -999.2500       105.1298         1.4286        20.1039         2.4521         2.0239       -14.4719     
10213.0000         8.2177         0.0466      -999.2500      -999.2500       106.2202         1.3989        20.8585         2.4782         1.9820       -15.4983     
10213.5000         8.1674         0.0471      -999.2500      -999.2500        97.8560         1.3832        20.6193         2.4728         1.6808       -16.0307     
10214.0000         8.1858         0.0258      -999.2500      -999.2500        83.4516         1.3674        19.5969         2.4392         1.4821       -16.3172     
10214.5000         8.1537         0.0205      -999.2500      -999.2500        71.6078         1.3516        18.6197         2.4074         1.3973       -16.4632     
10215.0000         8.1613         0.0290      -999.2500      -999.2500        62.1606         1.3645        18.1955         2.4086         1.3930       -16.7199     
10215.5000         8.1852         0.0291      -999.2500      -999.2500        57.8729         1.3884        17.7983         2.4248         1.4362       -17.0620     
10216.0000         8.1648         0.0234      -999.2500      -999.2500        56.6508         1.4136        17.5966         2.4346         1.5556       -16.9857     
10216.5000         8.1973         0.0143      -999.2500      -999.2500        57.0440         1.4398        18.1953         2.4235         1.6238       -17.1487     
10217.0000         8.1878         0.0163      -999.2500      -999.2500        57.4389         1.4661        18.8610         2.4015         1.6567       -16.9489     
10217.5000         8.1523         0.0257      -999.2500      -999.2500        57.7489         1.4924        19.3220         2.4026         1.6472       -16.5699     
10218.0000         8.1373         0.0267      -999.2500      -999.2500        58.1443         1.5379        19.3611         2.4242         1.6349       -16.0643     
10218.5000         8.1021         0.0244      -999.2500      -999.2500        58.5895         1.6072        19.0741         2.4407         1.7007       -14.0768     
10219.0000         8.1136         0.0185      -999.2500      -999.2500        58.8963         1.6766        18.6623         2.4333         1.8790       -12.0982     
10219.5000         8.1619         0.0160      -999.2500      -999.2500        60.6962         1.7433        18.3131         2.4199         2.0847       -11.8689     
10220.0000         8.1835         0.0270      -999.2500      -999.2500        61.6264         1.7870        18.1695         2.4165         2.1844       -11.9367     
10220.5000         8.1668         0.0384      -999.2500      -999.2500        61.2699         1.8272        18.1090         2.4207         2.1378       -11.9442     
10221.0000         8.1980         0.0261      -999.2500      -999.2500        62.6774         1.8674        17.6919         2.4111         2.0161       -11.9287     
10221.5000         8.2000         0.0196      -999.2500      -999.2500        63.6714         1.9136        17.5505         2.4056         1.8920       -11.5954     
10222.0000         8.1898         0.0169      -999.2500      -999.2500      -999.2500         1.9792        17.9176         2.4167         1.8402       -11.3534     
10222.5000         8.1542         0.0188      -999.2500      -999.2500      -999.2500         2.0462        18.6163         2.4384         1.8519       -10.9582     
10223.0000         8.1500         0.0199      -999.2500      -999.2500      -999.2500         2.1131        19.1606         2.4740         1.9639        -8.7421     
