~Version Information Section
VERS.          2.0                                     : CWLS LOG ASCII Standard
WRAP.          NO                                      : One line per depth step
CREA.          03/08/17                                : LAS Creation Date
~Well Information Section
STRT.ft        448.0000                                : Start Depth
STOP.ft        10248.0000                              : Stop Depth
STEP.ft        0.5000                                  : Step
NULL.          -999.2500                               : Null Value
COMP.          TEXACO PRODUCTION SERVICES LTD          : Company
WELL.          14/20-9                                 : Well
FLD .          MORAY FIRTH                             : Field
LOC .          NORTH SEA                               : Location
LOC1.          -                                       : Location (UTM)
CTRY.          UK                                      : Country
PROV.          UKCS                                    : Province
UWI .          866                                     : UWI Number
API .          -                                       : API Number
SECT.          -                                       : Section
TOWN.          -                                       : Township
RNGE.          -                                       : Range
PDAT.          MSL                                     : Perm Datum
EPD .ft        0                                       : Elevation
LMF .          KB                                      : Log Measured From
DMF .          KB                                      : Drill Measured From
APD .ft        86.0                                    : Above Perm Datum
EKB .ft        86.0                                    : Elev-Kelly Bushing
EDF .ft        84.0                                    : Elev-Drill Floor
EGL .ft        478.0                                   : Elev-Ground Level (Water Depth)
TDD .ft        10260.0                                 : Total Depth (Driller)
TDL .ft        10248.0                                 : Total Depth (Logger)
SRVC.          SCHLUMBERGER                            : Service Company
LATI.          58 29 47.7" N                           : Latitude
LONG.          00 01 07.0" W                           : Longitude
DATE.          27-NOV-1978 - 03-FEB-1979               : Logging Date
PROJ.          UKCS                                    : Project
SET .          COMP_WIRE                               : Set
~Curve Information Section
DEPTH.ft                                               : Depth Curve
CALI.in                                                : Caliper (FDC/CNL/GR)
DRHO.g/cc                                              : Delta Rho
DT.us/ft                                               : Delta-T
GR.gAPI                                                : Gamma Ray (ISF/BHC/GR)
GRD.gAPI                                               : Gamma Ray (FDC/CNL/GR)
ILD.Ohmm                                               : Deep Induction Standard Processed Resistivity
NPHI.LPU                                               : Neutron Porosity
RHOB.g/cc                                              : Bulk Density
SFL.Ohmm                                               : Spherically Focussed log Resistivity
SP.mV                                                  : Spontaneous Potential
~ASCII Log Data Section
# ...
 6720.0000        13.4592         0.0525       110.7275        36.7989        36.2085         0.9320        27.5572         2.2393         0.7356        24.6556     
 6720.5000        13.6093         0.0436       109.4142        37.3341        36.3337         0.9906        28.7896         2.2314         0.7708        24.6427     
 6721.0000        13.6500         0.0363       108.7509        37.3721        37.4032         1.0476        30.7272         2.2267         0.8371        24.6170     
 6721.5000        13.6500         0.0279       110.0718        37.3234        36.7689         1.0915        31.8035         2.2116         0.8874        23.3920     
 6722.0000        13.5399         0.0201       115.3343        36.2195        36.0799         1.1313        29.6281         2.1915         0.9338        22.8373     
 6722.5000        13.4610         0.0125       114.0169        35.6008        34.4389         1.1744        27.3955         2.1684         0.9888        22.5030     
 6723.0000        13.4501         0.0011       107.6035        35.7153        33.6700         1.2004        27.2638         2.1553         1.0072        22.5753     
 6723.5000        13.4953         0.0033       107.6119        36.0168        33.9238         1.1691        26.8888         2.1465         0.9865        22.5654     
 6724.0000        13.5703         0.0066       108.1524        35.7399        33.6696         1.1323        25.6711         2.1562         0.9674        22.5524     
 6724.5000        13.3821         0.0080       108.0749        35.0490        33.8311         1.0663        25.1744         2.1657         0.9158        22.5393     
 6725.0000        13.3500         0.0084       108.1594        34.6431        34.3838         1.0067        25.2287         2.1701         0.8938        22.5263     
 6725.5000        13.3500         0.0051       109.8401        34.0245        34.6988         0.9484        25.7071         2.1649         0.8862        22.6039     
 6726.0000        13.3594         0.0033       114.7109        33.4461        34.4698         0.9205        26.5280         2.1566         0.8986        23.0938     
 6726.5000        13.4187         0.0066       120.1842        32.3673        35.0255         0.9209        27.2332         2.1484         0.9094        23.8810     
 6727.0000        13.5201         0.0179       119.0078        33.8676        36.8523         0.9210        27.0233         2.1571         0.9167        24.4797     
 6727.5000        13.5825         0.0293       116.9748        35.7763        38.4040         0.9556        25.6719         2.1702         0.9323        25.5756     
 6728.0000        13.5353         0.0410       118.0596        37.2593        39.4150         0.9985        24.7120         2.1878         0.9571        27.2917     
 6728.5000        13.4658         0.0460       119.5366        38.7053        39.1357         1.0345        25.0324         2.2067         0.9914        29.0181     
 6729.0000        13.4193         0.0561       122.5489        40.1978        39.6643         1.0879        26.6956         2.2189         0.9696        31.0433     
 6729.5000        13.6021         0.0790       123.4539        41.2173        41.0953         1.1588        29.5316         2.2479         0.8629        32.2969     
 6730.0000        14.1846         0.0736       119.6734        41.8238        42.5769         1.2118        33.6600         2.2706         0.8078        33.5345     
 6730.5000        14.6302         0.0471       108.9929        41.8386        43.2000         1.2428        38.1089         2.2600         0.8153        34.7740     
 6731.0000        14.7273         0.0417       103.2946        40.8112        41.5113         1.3079        39.8785         2.2622         0.8567        35.7685     
 6731.5000        13.9545         0.0621       100.5572        39.7731        40.0440         1.3737        37.2832         2.2983         0.9611        35.9442     
 6732.0000        13.1935         0.0627        98.9141        38.7736        39.7255         1.4471        34.1822         2.3553         1.0937        36.3350     
 6732.5000        13.5596         0.0613        97.1613        38.0821        38.8538         1.5908        31.2415         2.3918         1.2121        36.4833     
 6733.0000        13.8019         0.0865        97.6698        36.1569        37.4169         1.7098        30.2038         2.4060         1.3637        36.5279     
 6733.5000        13.9609         0.0893        98.5613        34.8837        36.1331         1.7192        31.1860         2.4106         1.4528        36.7737     
 6734.0000        14.1874         0.0294       103.5671        34.1749        35.0212         1.6961        30.3150         2.3808         1.6102        36.8951     
 6734.5000        14.4345         0.0056       106.2024        33.3154        36.0368         1.6634        29.4446         2.3645         1.6674        36.8825     
 6735.0000        14.7000         0.0233       108.1527        34.0915        36.2154         1.5668        30.3110         2.3713         1.5724        36.8243     
 6735.5000        14.4582         0.0394       110.8822        36.1979        36.2860         1.4336        33.3206         2.3546         1.3733        35.9876     
 6736.0000        15.1012         0.0266       117.6167        36.6708        37.3632         1.4538        34.3992         2.3044         1.2956        34.9676     
 6736.5000        15.2430         0.0220       118.6560        36.7227        38.1724         1.4965        33.6193         2.2946         1.0154        34.1608     
 6737.0000        14.9546         0.0084       113.3831        36.3004        36.9792         1.5589        29.5382         2.3069         0.9332        33.6113     
 6737.5000        14.7225         0.0042       101.2715        35.8489        34.2535         1.5761        22.6777         2.3326         1.0829        32.3402     
 6738.0000        15.5230         0.0086        98.5809        35.7627        33.1292         1.5608        18.7420         2.3554         1.4774        31.6333     
 6738.5000        15.3175         0.0154        96.7251        36.2034        33.6162         1.5184        19.2164         2.3570         2.6349        30.2335     
 6739.0000        13.8535         0.0223        95.4933        37.1765        34.6179         1.4629        20.9173         2.3377         3.1102        28.8046     
 6739.5000        13.7549         0.0185        96.9480        38.4598        35.8447         1.4316        21.7369         2.2896         2.8176        27.2294     
 6740.0000        13.7928         0.0171       102.0276        39.8197        37.3476         1.4059        22.0403         2.2441         1.3819        25.6454     
 6740.5000        13.7641         0.0184       105.4939        40.3374        38.6755         1.3732        22.1230         2.2225         1.1967        23.9638     
 6741.0000        13.6640         0.0133       108.4750        40.2848        38.9280         1.3398        22.4494         2.2175         1.0893        23.6523     
 6741.5000        13.6000         0.0099       109.6729        39.1082        38.7569         1.3167        22.7833         2.2183         1.0443        23.2542     
 6742.0000        13.6144         0.0147       108.9677        39.1514        38.6712         1.2820        22.7135         2.2237         1.0170        22.9747     
 6742.5000        13.6572         0.0240       106.7587        39.5154        38.6622         1.2778        22.2109         2.2372         1.1433        22.9297     
 6743.0000        13.6856         0.0265       101.0662        38.9938        39.0074         1.2886        21.9865         2.2475         1.3124        23.6530     
 6743.5000        13.6146         0.0253        99.0842        38.1798        40.1038         1.2996        21.1517         2.2570         1.9816        24.7082     
 6744.0000        13.7077         0.0228        98.9660        38.2716        41.9514         1.3279        19.9535         2.2720         2.2681        24.9524     
