~Version Information Section
VERS.          2.0                                     : CWLS LOG ASCII Standard
WRAP.          NO                                      : One line per depth step
CREA.          03/09/17                                : LAS Creation Date
~Well Information Section
STRT.ft        763.5000                                : Start Depth
STOP.ft        8088.0000                               : Stop Depth
STEP.ft        0.5000                                  : Step
NULL.          -999.2500                               : Null Value
COMP.          OCCIDENTAL PETROLEUM CORP (UK)          : Company
WELL.          15/11-1                                 : Well
FLD .          WILDCAT                                 : Field
LOC .          NORTH SEA                               : Location
LOC1.          -                                       : Location (UTM)
CTRY.          UK                                      : Country
PROV.          UKCS                                    : Province
UWI .          875                                     : UWI Number
API .          -                                       : API Number
SECT.          -                                       : Section
TOWN.          -                                       : Township
RNGE.          -                                       : Range
PDAT.          MSL                                     : Perm Datum
EPD .ft        0.0                                     : Elevation
LMF .          KB                                      : Log Measured From
DMF .          KB                                      : Drill Measured From
APD .ft        54.0                                    : Above Perm Datum
EKB .ft        54.0                                    : Elev-Kelly Bushing
EDF .ft        53.0                                    : Elev-Drill Floor
EGL .ft        -472.0                                  : Elev-Ground Level (Water Depth)
TDD .ft        8095.0                                  : Total Depth (Driller)
TDL .ft        8088.0                                  : Total Depth (Logger)
SRVC.          SCHLUMBERGER                            : Service Company
LATI.          58 30 05.00" N                          : Latitude
LONG.          00 04 35.00" E                          : Longitude
DATE.          03-MAY-1972 - 26-JUN-1972               : Logging Date
PROJ.          UKCS                                    : Project
SET .          COMP_WIRE                               : Set
~Curve Information Section
DEPTH.ft                                               : Depth Curve
CALD.in                                                : Caliper (FDC/CNL/GR)
CALI.in                                                : Caliper (BHC/GR)
DRHO.g/cc                                              : Delta Rho
DT.us/ft                                               : Delta-T
GR.gAPI                                                : Gamma Ray (BHC/GR)
GRD.gAPI                                               : Gamma Ray (FDC/CNL/GR)
GRL.gAPI                                               : Gamma Ray (DLL/GR)
ILD.Ohmm                                               : Deep Induction Standard Processed Resistivity
LLD.Ohmm                                               : Latero-Log Deep (Resistivity)
LLS.Ohmm                                               : Latero-Log Shallow (Resistivity)
NPHI.LPU                                               : Neutron Porosity
RHOB.g/cc                                              : Bulk Density
SN.Ohmm                                                : Short Normal
SP.mV                                                  : Spontaneous Potential
~ASCII Log Data Section
# ...
 7189.5000         8.6092         8.1207        -0.0304        64.2129        69.0735        68.8827        67.8288      -999.2500         3.3799      -999.2500        18.8968         2.6773      -999.2500         0.1972     
 7190.0000         8.6094         8.1601        -0.0287        62.3869        71.5466        69.3413        69.7334      -999.2500         4.1489      -999.2500        17.5581         2.6842      -999.2500         0.1833     
 7190.5000         8.6129         8.1536        -0.0225        60.5603        72.6296        70.7290        69.5347      -999.2500         5.0070      -999.2500        17.0832         2.7064      -999.2500         0.1694     
 7191.0000         8.6318         8.1205        -0.0236        60.2562        74.3400        72.8605        68.4048      -999.2500         5.7390      -999.2500        17.0586         2.7181      -999.2500         0.1555     
 7191.5000         8.6449         8.1994        -0.0294        59.9554        75.8436        74.5557        71.1810      -999.2500         6.0891      -999.2500        17.4693         2.6938      -999.2500         0.1416     
 7192.0000         8.6471         8.2710        -0.0276        63.0215        74.3313        74.9848        71.5893      -999.2500         6.0905      -999.2500        18.6525         2.6880      -999.2500         0.1277     
 7192.5000         8.7233         8.2654        -0.0336        64.3627        76.1461        76.2009        70.6486      -999.2500         6.1492      -999.2500        19.6716         2.6859      -999.2500         0.1137     
 7193.0000         8.7311         8.1905        -0.0281        64.9890        80.7707        78.8314        71.9896      -999.2500         6.3913      -999.2500        19.8484         2.6946      -999.2500         0.0998     
 7193.5000         8.6912         8.2220        -0.0176        64.8128        83.3931        82.4647        73.9180      -999.2500         6.6350      -999.2500        19.7163         2.7014      -999.2500         0.0856     
 7194.0000         8.6601         8.2424        -0.0198        64.6037        83.9467        83.8426        73.6338      -999.2500         6.8785      -999.2500        19.4674         2.6887      -999.2500         0.0710     
 7194.5000         8.7238         8.2766        -0.0148        66.6279        89.7666        85.3898        77.1560      -999.2500         6.9954      -999.2500        18.8936         2.6547      -999.2500         0.0564     
 7195.0000         8.9276         8.3569        -0.0078        67.9877        99.2331        91.7902        81.8855      -999.2500         6.9215      -999.2500        18.3296         2.6393      -999.2500         0.0418     
 7195.5000         8.9845         8.4790        -0.0131        70.5487       106.2265        99.0269        96.6377      -999.2500         6.5816      -999.2500        17.7653         2.6342      -999.2500         0.0272     
 7196.0000         9.0085         8.5154        -0.0230        71.5616       112.2019       103.8182       111.1676      -999.2500         6.3525      -999.2500        16.9301         2.6354      -999.2500         0.0126     
 7196.5000         8.9573         8.4651        -0.0329        69.7661       110.9830       101.1381       112.1818      -999.2500         7.5472      -999.2500        15.6671         2.6478      -999.2500        -0.0020     
 7197.0000         8.8169         8.2941        -0.0399        67.2186        99.4712        90.9093       101.6201      -999.2500        10.9108      -999.2500        13.8643         2.6849      -999.2500        -0.0165     
 7197.5000         8.7047         8.2490        -0.0381        64.0446        80.6187        80.1086        82.7442      -999.2500        15.0184      -999.2500        10.9468         2.7375      -999.2500        -0.0311     
 7198.0000         8.6840         8.2082        -0.0469        60.1893        63.4208        69.5967        65.4097      -999.2500        19.9122      -999.2500         8.2553         2.7763      -999.2500        -0.0457     
 7198.5000         8.6427         8.1886        -0.0377        56.5844        45.6536        59.3915        50.5929      -999.2500        24.7669      -999.2500         6.2888         2.8148      -999.2500        -0.0603     
 7199.0000         8.6108         8.1846        -0.0267        54.8236        35.5872        46.8237        37.9752      -999.2500        34.5207      -999.2500         5.4134         2.8391      -999.2500        -0.0750     
 7199.5000         8.6142         8.2136        -0.0338        56.0768        37.5416        40.2020        38.0288      -999.2500        43.2776      -999.2500         6.2995         2.8326      -999.2500        -0.0895     
 7200.0000         8.7381         8.3254        -0.0444        57.8085        39.0844        40.3234        41.0369      -999.2500        36.3443      -999.2500         6.5101         2.8404      -999.2500        -0.1041     
 7200.5000         8.7811         8.4174        -0.0368        59.3039        37.8189        39.7812        40.7772      -999.2500        31.3199      -999.2500         6.3765         2.8455      -999.2500        -0.1187     
 7201.0000         8.7838         8.4147        -0.0264        59.3227        36.0916        37.8076        37.7493      -999.2500        31.2082      -999.2500         6.4029         2.8571      -999.2500        -0.1333     
 7201.5000         8.7115         8.3585        -0.0250        57.3257        31.7604        36.2429        34.2623      -999.2500        32.8513      -999.2500         6.9093         2.8607      -999.2500        -0.1479     
 7202.0000         8.6231         8.2521        -0.0201        54.3625        30.5834        35.2780        30.7289      -999.2500        36.1130      -999.2500         7.7588         2.8792      -999.2500        -0.1625     
 7202.5000         8.5868         8.2161        -0.0288        53.1775        30.2377        34.2830        29.5725      -999.2500        39.2602      -999.2500         8.0287         2.8660      -999.2500        -0.1749     
 7203.0000         8.6401         8.2551        -0.0430        53.3192        30.4958        34.4255        30.6204      -999.2500        32.4233      -999.2500         7.9019         2.8354      -999.2500        -0.1823     
 7203.5000         8.7495         8.3247        -0.0488        53.7357        34.5601        37.1241        30.6853      -999.2500        23.3501      -999.2500         8.2293         2.8159      -999.2500        -0.1898     
 7204.0000         8.8264         8.3943        -0.0442        55.6204        39.9212        41.5115        33.7095      -999.2500        16.5913      -999.2500         9.7994         2.7889      -999.2500        -0.1972     
 7204.5000         8.8528         8.4639        -0.0359        59.7087        48.0952        46.2008        39.8919      -999.2500        12.6561      -999.2500        11.6690         2.7626      -999.2500        -0.2047     
 7205.0000         8.8340         8.5280        -0.0233        61.2016        57.6087        51.5639        42.5247      -999.2500         9.9879      -999.2500        13.6706         2.7378      -999.2500        -0.2121     
 7205.5000         8.7526         8.4901        -0.0237        60.7881        65.8114        57.7341        45.2242      -999.2500         8.3086      -999.2500        15.3611         2.7160      -999.2500        -0.2196     
 7206.0000         8.7322         8.3904        -0.0268        57.6020        70.8935        61.9716        48.6463      -999.2500         8.8454      -999.2500        15.0523         2.7130      -999.2500        -0.2270     
 7206.5000         8.7140         8.2794        -0.0171        52.8514        64.7213        63.8241        52.2643      -999.2500        10.4757      -999.2500        13.3747         2.7336      -999.2500        -0.2345     
 7207.0000         8.6968         8.2211        -0.0051        50.5361        53.8797        61.1350        54.7728      -999.2500        15.4181      -999.2500        11.4733         2.7471      -999.2500        -0.2419     
