~Version Information Section
VERS.          2.0                                     : CWLS LOG ASCII Standard
WRAP.          NO                                      : One line per depth step
CREA.          03/09/17                                : LAS Creation Date
~Well Information Section
STRT.ft        763.5000                                : Start Depth
STOP.ft        8088.0000                               : Stop Depth
STEP.ft        0.5000                                  : Step
NULL.          -999.2500                               : Null Value
COMP.          OCCIDENTAL PETROLEUM CORP (UK)          : Company
WELL.          15/11-1                                 : Well
FLD .          WILDCAT                                 : Field
LOC .          NORTH SEA                               : Location
LOC1.          -                                       : Location (UTM)
CTRY.          UK                                      : Country
PROV.          UKCS                                    : Province
UWI .          875                                     : UWI Number
API .          -                                       : API Number
SECT.          -                                       : Section
TOWN.          -                                       : Township
RNGE.          -                                       : Range
PDAT.          MSL                                     : Perm Datum
EPD .ft        0.0                                     : Elevation
LMF .          KB                                      : Log Measured From
DMF .          KB                                      : Drill Measured From
APD .ft        54.0                                    : Above Perm Datum
EKB .ft        54.0                                    : Elev-Kelly Bushing
EDF .ft        53.0                                    : Elev-Drill Floor
EGL .ft        -472.0                                  : Elev-Ground Level (Water Depth)
TDD .ft        8095.0                                  : Total Depth (Driller)
TDL .ft        8088.0                                  : Total Depth (Logger)
SRVC.          SCHLUMBERGER                            : Service Company
LATI.          58 30 05.00" N                          : Latitude
LONG.          00 04 35.00" E                          : Longitude
DATE.          03-MAY-1972 - 26-JUN-1972               : Logging Date
PROJ.          UKCS                                    : Project
SET .          COMP_WIRE                               : Set
~Curve Information Section
DEPTH.ft                                               : Depth Curve
CALD.in                                                : Caliper (FDC/CNL/GR)
CALI.in                                                : Caliper (BHC/GR)
DRHO.g/cc                                              : Delta Rho
DT.us/ft                                               : Delta-T
GR.gAPI                                                : Gamma Ray (BHC/GR)
GRD.gAPI                                               : Gamma Ray (FDC/CNL/GR)
GRL.gAPI                                               : Gamma Ray (DLL/GR)
ILD.Ohmm                                               : Deep Induction Standard Processed Resistivity
LLD.Ohmm                                               : Latero-Log Deep (Resistivity)
LLS.Ohmm                                               : Latero-Log Shallow (Resistivity)
NPHI.LPU                                               : Neutron Porosity
RHOB.g/cc                                              : Bulk Density
SN.Ohmm                                                : Short Normal
SP.mV                                                  : Spontaneous Potential
~ASCII Log Data Section
# ...
 6613.5000         9.7124         9.1250        -0.0198       135.7063        51.0791        52.7091        46.0547      -999.2500         2.5159         2.3111        81.9429         1.9614      -999.2500        31.4973     
 6614.0000         9.7090        10.0311         0.0035       138.3674        48.7305        47.3299        42.5585      -999.2500         2.2996         1.9825        81.9431         1.9099      -999.2500        32.1500     
 6614.5000        10.6582        11.7970         0.0237       139.6971        52.6909        49.6574        46.2546      -999.2500         1.9251         1.9405        81.9434         1.9406      -999.2500        33.9439     
 6615.0000        11.8812        11.1799         0.0087       134.9816        57.3134        54.7157        51.0748      -999.2500         2.2049         2.1640        81.9436         1.9520      -999.2500        37.0340     
 6615.5000        11.9085        10.1045         0.0270       127.3475        60.6172        60.2410        56.6750      -999.2500         2.7451         2.5271        81.9438         1.9898      -999.2500        27.5220     
 6616.0000        11.4328         9.8809         0.0612       116.9601        64.2517        62.9300        61.5361      -999.2500         2.6128         2.6683        81.9441         1.9996      -999.2500        23.3620     
 6616.5000        10.3153         9.1942         0.0855       103.1481        68.0400        65.0941        62.4220      -999.2500         2.3732         2.2909        81.9303         2.0963      -999.2500        21.8292     
 6617.0000         9.9237         9.4395         0.1035        96.7708        73.3039        67.3133        65.8356      -999.2500         2.2213         2.0818        81.9027         2.1339      -999.2500        21.0972     
 6617.5000        10.9607         9.4361         0.1191       106.1959        76.6599        68.0148        70.2486      -999.2500         2.0700         2.0149        81.8420         2.1461      -999.2500        21.8884     
 6618.0000        11.6034        10.1601         0.0962       108.5491        74.2010        68.7981        69.9478      -999.2500         1.8987         1.9662        81.7811         2.1596      -999.2500        20.8040     
 6618.5000        12.0857         9.9146         0.0863       117.8600        72.4514        69.5817        66.9954      -999.2500         1.6825         1.8850        81.7219         2.1650      -999.2500        19.4279     
 6619.0000        12.1099        10.5211         0.1099       119.8886        72.1057        70.3342        64.0137      -999.2500         1.9940         1.7629        81.8266         2.1969      -999.2500        18.2828     
 6619.5000        10.9915        10.4353         0.1012       121.7579        71.6435        70.7278        61.5192      -999.2500         2.0120         1.8490        81.9001         2.2391      -999.2500        18.5907     
 6620.0000         9.6015        10.0274         0.0700       107.5731        70.0802        71.4297        60.8832      -999.2500         2.0116         1.9527        81.9453         2.2812      -999.2500        19.4571     
 6620.5000         9.7666         9.8677         0.0606       101.8798        69.7130        71.2663        62.6065      -999.2500         2.1519         1.9989        81.9264         2.3194      -999.2500        20.1916     
 6621.0000         9.6603         9.4667         0.0594        98.4220        68.6501        71.6303        66.1733      -999.2500         2.3448         2.0656        81.8987         2.3614      -999.2500        19.9724     
 6621.5000        10.2207        10.3740         0.0915        96.6833        66.4481        70.9177        70.7453      -999.2500         2.5305         2.2753        81.8712         2.3714      -999.2500        18.8358     
 6622.0000        11.8398        10.6536         0.1320       102.1814        65.1600        68.8495        66.3921      -999.2500         2.6737         2.4252        81.8435         2.3861      -999.2500        19.1973     
 6622.5000        11.9292        10.3322         0.1375        97.0125        67.0117        68.1180        61.5566      -999.2500         3.0449         2.6818        81.8805         2.3706      -999.2500        20.3175     
 6623.0000        11.8876         9.8951         0.0978        94.4103        69.0627        68.1980        60.5106      -999.2500         3.2751         2.9895        82.0115         2.2979      -999.2500        26.8229     
 6623.5000        10.6449         9.1915         0.0681       101.4458        69.5300        69.4460        62.1209      -999.2500         2.7526         2.6768        82.0600         2.1951      -999.2500        27.7406     
 6624.0000         9.6611         9.2928         0.0703       101.5817        68.8963        69.6424        64.1335      -999.2500         2.4283         2.5758        82.0474         2.1474      -999.2500        19.0114     
 6624.5000         9.7972         9.6648         0.0791       102.7672        66.9065        69.9189        66.0377      -999.2500         2.3181         2.4744        82.0347         2.1504      -999.2500        18.5443     
 6625.0000         9.8235         9.6730         0.0558       102.7665        67.5512        71.2846        68.5719      -999.2500         2.1920         2.2149        82.0220         2.1593      -999.2500        18.4540     
 6625.5000         9.8986         9.5259         0.0421       103.0954        70.4614        73.6476        71.9247      -999.2500         2.0184         2.0125        82.0093         2.1825      -999.2500        19.3883     
 6626.0000         9.7195         9.3891         0.0737       104.9516        71.8520        75.8280        74.6404      -999.2500         1.9516         1.9284        81.9731         2.2487      -999.2500        19.9625     
 6626.5000         9.6574         9.3694         0.0551       104.4974        72.2305        76.4144        77.8240      -999.2500         2.0008         1.8994        81.9352         2.2331      -999.2500        18.9519     
 6627.0000         9.6464         9.4513         0.0456       104.9167        72.6187        77.5102        75.6919      -999.2500         2.0005         1.9119        81.8974         2.2479      -999.2500        17.1150     
 6627.5000         9.6727         9.2520         0.0583       108.0851        73.2153        78.0142        74.4075      -999.2500         1.9224         1.9201        81.9141         2.3122      -999.2500        17.3322     
 6628.0000         9.6727         9.4648         0.0408       107.5203        74.1336        77.9607        73.6765      -999.2500         1.7863         1.8400        81.9458         2.3321      -999.2500        17.0247     
 6628.5000        10.0577         9.3650         0.0048       101.3973        75.0389        77.7512        73.7614      -999.2500         1.7045         1.7557        81.9775         2.3191      -999.2500        17.7590     
 6629.0000        10.6074         9.4854         0.0046       101.2006        75.9424        78.0640        72.3856      -999.2500         1.6811         1.7371        82.0089         2.3143      -999.2500        17.0833     
 6629.5000        10.5767         9.9224         0.0114       107.2908        76.8253        80.0124        73.1896      -999.2500         1.5900         1.6844        82.0193         2.2873      -999.2500        16.3694     
 6630.0000         9.7739         9.0420         0.0213       104.7669        75.8794        79.5219        71.4756      -999.2500         1.5964         1.6106        82.0289         2.2614      -999.2500        16.8515     
 6630.5000         9.4468         8.9541         0.0487       106.7439        75.8347        80.0031        74.1569      -999.2500         1.6164         1.5639        82.0384         2.2423      -999.2500        17.9087     
 6631.0000         9.5991         9.5300         0.0860       103.4676        77.7398        80.4321        78.9769      -999.2500         1.5252         1.5257        82.0479         2.2043      -999.2500        16.4159     
