~Version Information Section
VERS.          2.0                                     : CWLS LOG ASCII Standard
WRAP.          NO                                      : One line per depth step
CREA.          03/09/17                                : LAS Creation Date
~Well Information Section
STRT.ft        763.5000                                : Start Depth
STOP.ft        8088.0000                               : Stop Depth
STEP.ft        0.5000                                  : Step
NULL.          -999.2500                               : Null Value
COMP.          OCCIDENTAL PETROLEUM CORP (UK)          : Company
WELL.          15/11-1                                 : Well
FLD .          WILDCAT                                 : Field
LOC .          NORTH SEA                               : Location
LOC1.          -                                       : Location (UTM)
CTRY.          UK                                      : Country
PROV.          UKCS                                    : Province
UWI .          875                                     : UWI Number
API .          -                                       : API Number
SECT.          -                                       : Section
TOWN.          -                                       : Township
RNGE.          -                                       : Range
PDAT.          MSL                                     : Perm Datum
EPD .ft        0.0                                     : Elevation
LMF .          KB                                      : Log Measured From
DMF .          KB                                      : Drill Measured From
APD .ft        54.0                                    : Above Perm Datum
EKB .ft        54.0                                    : Elev-Kelly Bushing
EDF .ft        53.0                                    : Elev-Drill Floor
EGL .ft        -472.0                                  : Elev-Ground Level (Water Depth)
TDD .ft        8095.0                                  : Total Depth (Driller)
TDL .ft        8088.0                                  : Total Depth (Logger)
SRVC.          SCHLUMBERGER                            : Service Company
LATI.          58 30 05.00" N                          : Latitude
LONG.          00 04 35.00" E                          : Longitude
DATE.          03-MAY-1972 - 26-JUN-1972               : Logging Date
PROJ.          UKCS                                    : Project
SET .          COMP_WIRE                               : Set
~Curve Information Section
DEPTH.ft                                               : Depth Curve
CALD.in                                                : Caliper (FDC/CNL/GR)
CALI.in                                                : Caliper (BHC/GR)
DRHO.g/cc                                              : Delta Rho
DT.us/ft                                               : Delta-T
GR.gAPI                                                : Gamma Ray (BHC/GR)
GRD.gAPI                                               : Gamma Ray (FDC/CNL/GR)
GRL.gAPI                                               : Gamma Ray (DLL/GR)
ILD.Ohmm                                               : Deep Induction Standard Processed Resistivity
LLD.Ohmm                                               : Latero-Log Deep (Resistivity)
LLS.Ohmm                                               : Latero-Log Shallow (Resistivity)
NPHI.LPU                                               : Neutron Porosity
RHOB.g/cc                                              : Bulk Density
SN.Ohmm                                                : Short Normal
SP.mV                                                  : Spontaneous Potential
~ASCII Log Data Section
# ...
 6757.5000        12.0403        10.0072         0.0767       101.8692        74.9746        76.7497        76.0050      -999.2500         1.5414         1.5286        81.9729         2.0923      -999.2500        20.1528     
 6758.0000        12.4610         9.8788         0.0579       103.2588        77.0237        76.7946        79.3424      -999.2500         1.6062         1.5225        81.9804         2.1005      -999.2500        20.9234     
 6758.5000        12.3082        10.2797         0.0587       104.4505        78.6391        77.8454        79.2423      -999.2500         1.5974         1.5436        81.9879         2.1589      -999.2500        19.3785     
 6759.0000        11.0399         9.8669         0.0518       105.6848        79.2390        79.7077        78.2112      -999.2500         1.5767         1.5646        81.9949         2.2082      -999.2500        18.7066     
 6759.5000        10.5755         9.7656         0.0370       105.6848        78.0097        81.6660        78.1488      -999.2500         1.6350         1.5857        81.9964         2.2180      -999.2500        18.6292     
 6760.0000        10.6822         9.2848         0.0249       105.1972        76.9744        83.0846        80.7060      -999.2500         1.6444         1.6040        81.9971         2.1950      -999.2500        19.1224     
 6760.5000        10.5830         9.2952         0.0286       105.1972        78.0959        84.0754        80.9184      -999.2500         1.5870         1.5722        81.9979         2.1682      -999.2500        20.0450     
 6761.0000        10.0648         9.3739         0.0475       105.1972        78.7369        84.4795        75.2329      -999.2500         1.4830         1.5323        81.9986         2.1441      -999.2500        21.0917     
 6761.5000        10.1698         9.6533         0.0377       104.6974        77.0779        84.0344        75.5046      -999.2500         1.5083         1.4925        81.9994         2.1351      -999.2500        21.1009     
 6762.0000        10.1861        10.9326         0.0523       110.7533        75.2507        83.1824        74.8039      -999.2500         1.5384         1.4834        82.0001         2.1496      -999.2500        19.8107     
 6762.5000        11.0496        10.8892         0.0764       115.8929        74.5747        83.0263        74.8488      -999.2500         1.5759         1.5608        82.0008         2.1869      -999.2500        19.1431     
 6763.0000        11.4860         9.9468         0.0503       107.4821        74.0827        82.9392        74.1602      -999.2500         1.6143         1.6207        82.0016         2.1844      -999.2500        19.8702     
 6763.5000        11.1895         9.8386         0.0601       117.8317        75.4071        82.5429        73.1680      -999.2500         1.6101         1.5837        82.0023         2.2067      -999.2500        21.1474     
 6764.0000        11.1797         9.8029         0.0481       106.5711        78.5350        81.2018        76.1501      -999.2500         1.6098         1.5516        82.0031         2.1867      -999.2500        21.1471     
 6764.5000        10.4752        10.1227         0.0173       102.5650        76.5392        79.7235        79.3723      -999.2500         1.6096         1.5622        82.0038         2.1212      -999.2500        20.2695     
 6765.0000        10.6828         9.6992         0.0212       111.8424        76.6651        80.9269        81.5842      -999.2500         1.6093         1.5789        82.0045         2.0533      -999.2500        18.2820     
 6765.5000        10.7319         9.5056        -0.0033       105.8639        77.0838        81.4113        81.1286      -999.2500         1.6090         1.5928        82.0053         2.0095      -999.2500        17.9107     
 6766.0000        10.2730         9.5031        -0.0161       113.6911        73.3994        81.3731        80.1736      -999.2500         1.5814         1.5503        82.0060         2.0188      -999.2500        19.1601     
 6766.5000        10.4430         9.4613         0.0085       102.6604        72.4607        82.5697        76.2268      -999.2500         1.5322         1.4774        82.0068         2.0562      -999.2500        20.0624     
 6767.0000        10.5758         9.5204         0.0357       114.3357        73.2102        82.1013        76.1289      -999.2500         1.4803         1.4274        82.0070         2.0561      -999.2500        20.7494     
 6767.5000        10.7503        10.1206         0.0499       108.7954        75.1814        81.6080        76.8454      -999.2500         1.5806         1.5168        82.0028         2.0533      -999.2500        21.1549     
 6768.0000        11.4216        10.2336         0.0506       110.4181        77.0060        80.7737        76.3765      -999.2500         1.6172         1.6586        81.9978         2.0852      -999.2500        21.3830     
 6768.5000        11.2094        10.0714         0.0487       112.3852        78.3041        79.6778        78.7152      -999.2500         1.5491         1.6610        81.9928         2.1338      -999.2500        21.0925     
 6769.0000        10.9108         9.5465         0.0569       112.3852        80.1177        80.5770        78.9598      -999.2500         1.5208         1.6177        81.9879         2.2147      -999.2500        19.7103     
 6769.5000        10.5883         9.4634         0.0802       108.8113        79.2933        83.1072        76.1929      -999.2500         1.5501         1.5951        81.9829         2.2595      -999.2500        18.5062     
 6770.0000        10.3333         9.8871         0.1035       107.2746        82.3293        85.0315        74.1691      -999.2500         1.5325         1.5187        81.9780         2.2682      -999.2500        18.3489     
 6770.5000        10.9249        10.1051         0.0724       106.6898        84.9325        85.4163        72.8130      -999.2500         1.3981         1.4024        81.9730         2.2327      -999.2500        20.4494     
 6771.0000        10.7616         9.8824         0.0707       106.6898        82.9680        85.1335        74.2428      -999.2500         1.3378         1.3778        81.9680         2.2094      -999.2500        21.4746     
 6771.5000        10.5137        10.2849         0.0872       106.5462        77.7560        82.6698        74.8032      -999.2500         1.4311         1.4451        81.9630         2.2200      -999.2500        20.5232     
 6772.0000        11.0179        10.3543         0.0616       106.4500        76.2141        81.1927        74.9616      -999.2500         1.5826         1.5290        81.9581         2.2259      -999.2500        19.1527     
 6772.5000        11.4838        10.4842         0.0118       106.5157        77.1369        81.6146        74.4709      -999.2500         1.6986         1.6364        81.9624         2.2238      -999.2500        19.8163     
 6773.0000        11.4328        10.0638        -0.0028       105.9479        79.2778        82.2832        76.9589      -999.2500         1.7162         1.7194        81.9780         2.2436      -999.2500        19.8689     
 6773.5000        11.1808         9.4737         0.0231       108.2080        84.1720        84.0181        77.6517      -999.2500         1.7338         1.6736        81.9937         2.2706      -999.2500        21.0246     
 6774.0000        11.1621         9.3670         0.0493       100.0480        85.4332        85.4794        77.8178      -999.2500         1.7433         1.6843        82.0095         2.2980      -999.2500        21.0521     
 6774.5000        10.2714         9.4615         0.0643       101.3223        81.8912        86.6428        81.2515      -999.2500         1.7039         1.6565        82.0252         2.2887      -999.2500        19.0447     
 6775.0000        10.1674         9.5614         0.0505       101.7255        80.0968        87.9467        82.2013      -999.2500         1.6539         1.5995        82.0409         2.2625      -999.2500        18.5713     
