~Version Information Section
VERS.          2.0                                     : CWLS LOG ASCII Standard
WRAP.          NO                                      : One line per depth step
CREA.          03/09/17                                : LAS Creation Date
~Well Information Section
STRT.ft        763.5000                                : Start Depth
STOP.ft        8088.0000                               : Stop Depth
STEP.ft        0.5000                                  : Step
NULL.          -999.2500                               : Null Value
COMP.          OCCIDENTAL PETROLEUM CORP (UK)          : Company
WELL.          15/11-1                                 : Well
FLD .          WILDCAT                                 : Field
LOC .          NORTH SEA                               : Location
LOC1.          -                                       : Location (UTM)
CTRY.          UK                                      : Country
PROV.          UKCS                                    : Province
UWI .          875                                     : UWI Number
API .          -                                       : API Number
SECT.          -                                       : Section
TOWN.          -                                       : Township
RNGE.          -                                       : Range
PDAT.          MSL                                     : Perm Datum
EPD .ft        0.0                                     : Elevation
LMF .          KB                                      : Log Measured From
DMF .          KB                                      : Drill Measured From
APD .ft        54.0                                    : Above Perm Datum
EKB .ft        54.0                                    : Elev-Kelly Bushing
EDF .ft        53.0                                    : Elev-Drill Floor
EGL .ft        -472.0                                  : Elev-Ground Level (Water Depth)
TDD .ft        8095.0                                  : Total Depth (Driller)
TDL .ft        8088.0                                  : Total Depth (Logger)
SRVC.          SCHLUMBERGER                            : Service Company
LATI.          58 30 05.00" N                          : Latitude
LONG.          00 04 35.00" E                          : Longitude
DATE.          03-MAY-1972 - 26-JUN-1972               : Logging Date
PROJ.          UKCS                                    : Project
SET .          COMP_WIRE                               : Set
~Curve Information Section
DEPTH.ft                                               : Depth Curve
CALD.in                                                : Caliper (FDC/CNL/GR)
CALI.in                                                : Caliper (BHC/GR)
DRHO.g/cc                                              : Delta Rho
DT.us/ft                                               : Delta-T
GR.gAPI                                                : Gamma Ray (BHC/GR)
GRD.gAPI                                               : Gamma Ray (FDC/CNL/GR)
GRL.gAPI                                               : Gamma Ray (DLL/GR)
ILD.Ohmm                                               : Deep Induction Standard Processed Resistivity
LLD.Ohmm                                               : Latero-Log Deep (Resistivity)
LLS.Ohmm                                               : Latero-Log Shallow (Resistivity)
NPHI.LPU                                               : Neutron Porosity
RHOB.g/cc                                              : Bulk Density
SN.Ohmm                                                : Short Normal
SP.mV                                                  : Spontaneous Potential
~ASCII Log Data Section
# ...
 8053.5000         8.9941         8.6752        -0.0128        79.9591       101.0274      -999.2500        96.8389      -999.2500        10.3635        11.4137        20.9897         2.5721      -999.2500        36.8638     
 8054.0000         8.9946         8.6946        -0.0104        79.6540        98.6295      -999.2500        98.6295      -999.2500        10.6788        11.4538        19.9682         2.5662      -999.2500        37.4204     
 8054.5000         8.9897         8.6908        -0.0113        79.2656       109.2501      -999.2500       109.2501      -999.2500        10.8967        11.5311        20.1774         2.5565      -999.2500        37.7756     
 8055.0000         8.9757         8.6366        -0.0152        79.7147       109.3312      -999.2500       109.3312      -999.2500        11.6039        11.9642        20.3846         2.5203      -999.2500        37.7180     
 8055.5000         8.9044         8.3423        -0.0123        77.9760        96.2080      -999.2500        96.2080      -999.2500        12.0881        12.5068        21.0280         2.4908      -999.2500        36.9757     
 8056.0000         8.7386         8.1189        -0.0140        76.1474        83.6608      -999.2500        83.6608      -999.2500        11.3543        12.4423        22.8305         2.4854      -999.2500        36.9783     
 8056.5000         9.1420         8.1193        -0.0102        74.8551        72.7982      -999.2500        72.7982      -999.2500        10.3750        11.2515        26.4047         2.5139      -999.2500        37.3307     
 8057.0000         9.2542         8.1654        -0.0038        75.5694        67.6549      -999.2500        67.6549      -999.2500        10.7999        11.2156        32.7121         2.5236      -999.2500        37.1987     
 8057.5000         9.2696         8.2141         0.0115        87.1588        73.5538      -999.2500        73.5538      -999.2500        10.9238        11.5539        39.6586         2.5466      -999.2500        37.7439     
 8058.0000         9.2815         8.4253         0.0254        89.4386        79.2438      -999.2500        79.2438      -999.2500        11.3619        11.9590        41.3622         2.5640      -999.2500        38.1956     
 8058.5000         9.2934         7.6738         0.0150        90.0550        85.3563      -999.2500        85.3889      -999.2500        11.5119        12.2691        36.8716         2.5803      -999.2500        37.5905     
 8059.0000         9.3054         7.5795        -0.0025        90.0385        96.4487      -999.2500        96.4487      -999.2500        11.0197        11.6946        26.1116         2.5852      -999.2500        36.9933     
 8059.5000         9.3173         8.1206        -0.0163        86.1289       103.2440      -999.2500       103.2440      -999.2500         9.8475        10.6085        11.4498         2.5709      -999.2500        37.1570     
 8060.0000         9.3292         8.4234        -0.0151        79.1985       110.8702      -999.2500       110.8702      -999.2500         9.3215        10.1124      -999.2500         2.5438      -999.2500        37.3447     
 8060.5000         9.3389         8.5587        -0.0115        77.8414       109.3554      -999.2500       109.3554      -999.2500         9.2403        10.0556      -999.2500         2.5384      -999.2500        37.5559     
 8061.0000         9.3063         8.6625        -0.0139        78.2656       104.7789      -999.2500       104.7789      -999.2500         9.2445        10.4451      -999.2500         2.5288      -999.2500        37.7774     
 8061.5000         9.2147         8.7350        -0.0231        77.5329       100.8106      -999.2500       100.8106      -999.2500         9.3193        10.1374      -999.2500         2.5033      -999.2500        38.1560     
 8062.0000         8.8622         8.6786        -0.0267        77.2539        98.1915      -999.2500        98.1915      -999.2500         9.2851        10.3835      -999.2500         2.4689      -999.2500        37.7591     
 8062.5000         8.5579         8.2635        -0.0225        76.2809        98.5146      -999.2500        98.5146      -999.2500         9.1188        10.5084      -999.2500         2.4757      -999.2500        37.3094     
 8063.0000         8.5604         8.3590        -0.0199        77.7348        98.6873      -999.2500        98.6843      -999.2500         8.9899        10.0521      -999.2500         2.4890      -999.2500        37.3780     
 8063.5000         8.5618         8.4642        -0.0176        78.0722        97.7592      -999.2500        97.7592      -999.2500         8.7739         9.6998      -999.2500         2.5091      -999.2500        37.6685     
 8064.0000         8.5623         8.1182        -0.0156        79.0276       103.1730      -999.2500       103.1730      -999.2500         8.3280         9.6863      -999.2500         2.5170      -999.2500        38.0416     
 8064.5000         8.5620         8.0570        -0.0075        81.3414       107.4742      -999.2500       107.4742      -999.2500         8.1266         9.4723      -999.2500         2.5320      -999.2500        37.9272     
 8065.0000         8.5570         8.1783        -0.0018        80.7193       111.5763      -999.2500       111.5763      -999.2500         8.1578         9.1376      -999.2500         2.5244      -999.2500        37.9253     
 8065.5000         8.5512         8.2257        -0.0139        79.2620       114.1468      -999.2500       114.1468      -999.2500         8.5617         9.3538      -999.2500         2.5054      -999.2500        37.5005     
 8066.0000         8.5454         8.2625        -0.0164        82.3199       110.9639      -999.2500       110.9639      -999.2500         8.9844         9.2744      -999.2500         2.5099      -999.2500        37.4310     
 8066.5000         8.5652         8.1300        -0.0082        87.4377       109.6294      -999.2500       109.6294      -999.2500         8.6934         9.3223      -999.2500         2.5178      -999.2500        37.3517     
 8067.0000         8.5451         8.0949        -0.0127        91.6020       108.6808      -999.2500       108.6864      -999.2500         8.9771         9.3659      -999.2500         2.5522      -999.2500        37.2552     
 8067.5000         8.4593         8.1255        -0.0196        97.4339       110.1651      -999.2500       110.1651      -999.2500         8.5741         9.3560      -999.2500         2.5686      -999.2500        37.7698     
 8068.0000         8.4422         8.1275        -0.0223        97.7298       106.7813      -999.2500       106.7813      -999.2500         8.5683         9.6381      -999.2500         2.5551      -999.2500        38.4302     
 8068.5000         8.4369         8.1107        -0.0186        96.1089       110.8093      -999.2500       110.8093      -999.2500         9.3809        10.0488      -999.2500         2.5577      -999.2500        37.4650     
 8069.0000         8.4317         8.0892        -0.0227        85.2608       110.9259      -999.2500       110.9259      -999.2500        10.4032        10.5098      -999.2500         2.5564      -999.2500        37.0437     
 8069.5000         8.4231         8.1445        -0.0167        81.4618       112.5612      -999.2500       112.5612      -999.2500        10.3344      -999.2500      -999.2500         2.5356      -999.2500        37.0462     
 8070.0000         8.4074         8.1689        -0.0171        81.5707       108.6001      -999.2500       108.6001      -999.2500        10.0611      -999.2500      -999.2500         2.5222      -999.2500        37.0487     
 8070.5000      -999.2500         8.1304      -999.2500      -999.2500       111.0472      -999.2500       111.0472      -999.2500        10.0025      -999.2500      -999.2500      -999.2500      -999.2500        37.3692     
 8071.0000      -999.2500         8.1101      -999.2500      -999.2500       109.4219      -999.2500       109.4219      -999.2500        10.1757      -999.2500      -999.2500      -999.2500      -999.2500        37.5230     
