~Version Information Section
VERS.          2.0                                     : CWLS LOG ASCII Standard
WRAP.          NO                                      : One line per depth step
CREA.          03/09/17                                : LAS Creation Date
~Well Information Section
STRT.ft        763.5000                                : Start Depth
STOP.ft        8088.0000                               : Stop Depth
STEP.ft        0.5000                                  : Step
NULL.          -999.2500                               : Null Value
COMP.          OCCIDENTAL PETROLEUM CORP (UK)          : Company
WELL.          15/11-1                                 : Well
FLD .          WILDCAT                                 : Field
LOC .          NORTH SEA                               : Location
LOC1.          -                                       : Location (UTM)
CTRY.          UK                                      : Country
PROV.          UKCS                                    : Province
UWI .          875                                     : UWI Number
API .          -                                       : API Number
SECT.          -                                       : Section
TOWN.          -                                       : Township
RNGE.          -                                       : Range
PDAT.          MSL                                     : Perm Datum
EPD .ft        0.0                                     : Elevation
LMF .          KB                                      : Log Measured From
DMF .          KB                                      : Drill Measured From
APD .ft        54.0                                    : Above Perm Datum
EKB .ft        54.0                                    : Elev-Kelly Bushing
EDF .ft        53.0                                    : Elev-Drill Floor
EGL .ft        -472.0                                  : Elev-Ground Level (Water Depth)
TDD .ft        8095.0                                  : Total Depth (Driller)
TDL .ft        8088.0                                  : Total Depth (Logger)
SRVC.          SCHLUMBERGER                            : Service Company
LATI.          58 30 05.00" N                          : Latitude
LONG.          00 04 35.00" E                          : Longitude
DATE.          03-MAY-1972 - 26-JUN-1972               : Logging Date
PROJ.          UKCS                                    : Project
SET .          COMP_WIRE                               : Set
~Curve Information Section
DEPTH.ft                                               : Depth Curve
CALD.in                                                : Caliper (FDC/CNL/GR)
CALI.in                                                : Caliper (BHC/GR)
DRHO.g/cc                                              : Delta Rho
DT.us/ft                                               : Delta-T
GR.gAPI                                                : Gamma Ray (BHC/GR)
GRD.gAPI                                               : Gamma Ray (FDC/CNL/GR)
GRL.gAPI                                               : Gamma Ray (DLL/GR)
ILD.Ohmm                                               : Deep Induction Standard Processed Resistivity
LLD.Ohmm                                               : Latero-Log Deep (Resistivity)
LLS.Ohmm                                               : Latero-Log Shallow (Resistivity)
NPHI.LPU                                               : Neutron Porosity
RHOB.g/cc                                              : Bulk Density
SN.Ohmm                                                : Short Normal
SP.mV                                                  : Spontaneous Potential
~ASCII Log Data Section
# ...
 6901.5000        10.2816         9.4438         0.0365       109.9572        78.9795        88.1898        80.8865      -999.2500         1.7274         1.7226        81.9978         2.2927      -999.2500        21.0396     
 6902.0000        10.2181         9.7453         0.0598       111.9844        81.9456        89.3301        81.8677      -999.2500         1.7085         1.6825        81.9848         2.3039      -999.2500        18.8595     
 6902.5000        10.4726         9.6412         0.0509       111.9844        81.9211        89.2377        81.8530      -999.2500         1.6573         1.7588        81.9679         2.2770      -999.2500        18.6726     
 6903.0000        10.9707         9.4759         0.0593       112.9917        81.4057        87.1114        81.4530      -999.2500         1.6918         1.6988        81.9479         2.2386      -999.2500        20.1121     
 6903.5000        10.7657         7.8207         0.0463       111.9190        81.0923        85.2424        81.0532      -999.2500         1.6225         1.6153        81.9279         2.2043      -999.2500        21.6684     
 6904.0000        10.7178         8.6433         0.0141       104.9962        82.4365        85.3044        80.6528      -999.2500         1.4998         1.5800        81.9155         2.1798      -999.2500        19.9896     
 6904.5000        10.9694         9.3676         0.0250       104.3036        83.8911        84.7008        80.3460      -999.2500         1.5300         1.6086        81.9229         2.2004      -999.2500        19.1523     
 6905.0000        10.9093        10.0368         0.0380       112.4501        80.4878        81.5546        78.6034      -999.2500         1.5321         1.5864        81.9535         2.2484      -999.2500        19.4376     
 6905.5000        10.7564         9.8938         0.0282       114.1104        74.4653        80.6370        76.8004      -999.2500         1.5402         1.6928        81.9788         2.2697      -999.2500        22.8035     
 6906.0000        10.8759         9.4200         0.0166       106.9618        74.7819        82.9929        74.0108      -999.2500         1.6087         1.7718        81.9950         2.2794      -999.2500        21.8353     
 6906.5000        11.0852         9.3205         0.0336       111.3210        78.0938        84.4176        74.1434      -999.2500         1.7030         1.7322        82.0111         2.3024      -999.2500        18.3476     
 6907.0000        10.7306         9.3808         0.0543       110.6675        79.9220        85.3768        75.0229      -999.2500         1.7458         1.7608        82.0261         2.3213      -999.2500        18.2516     
 6907.5000        11.0316         9.2601         0.0871       107.6943        79.9618        86.3470        75.3727      -999.2500         1.7316         1.6877        82.0278         2.3367      -999.2500        18.7936     
 6908.0000        10.4894         9.3669         0.0995       116.9578        77.3423        87.7902        74.8833      -999.2500         1.6489         1.6076        82.0267         2.3171      -999.2500        19.2541     
 6908.5000        10.4688         9.5897         0.0721       105.0219        79.0306        87.5702        74.9959      -999.2500         1.5480         1.6052        82.0257         2.2721      -999.2500        19.6183     
 6909.0000        10.4538         9.6105         0.0688       104.9288        84.0909        85.6190        76.3390      -999.2500         1.5634         1.5389        82.0246         2.2238      -999.2500        19.5699     
 6909.5000        10.6843         9.2516         0.0767       105.1965        85.7726        83.7770        78.8362      -999.2500         1.5075         1.5395        82.0236         2.1979      -999.2500        20.7478     
 6910.0000        10.7833         9.4620         0.0807       108.7592        83.5725        82.0654        79.3848      -999.2500         1.4504         1.4116        82.0225         2.1945      -999.2500        19.6569     
 6910.5000        10.8762        10.1273         0.0911       113.0504        80.9527        80.4661        77.2859      -999.2500         1.3832         1.4154        82.0215         2.1971      -999.2500        19.2414     
 6911.0000        11.0395        10.3147         0.0837       106.6488        77.1106        80.2851        75.8729      -999.2500         1.4109         1.5633        82.0204         2.1874      -999.2500        19.7113     
 6911.5000        10.8909        10.2540         0.0649       104.6738        73.8300        80.4336        77.1207      -999.2500         1.4819         1.6237        82.0193         2.1934      -999.2500        19.4895     
 6912.0000        10.5760         9.5562         0.0450       103.7636        73.2379        80.2480        79.3365      -999.2500         1.5986         1.7031        82.0183         2.2241      -999.2500        18.6559     
 6912.5000        10.4156         9.1820         0.0203       103.7253        72.8603        81.9231        81.9973      -999.2500         1.7256         1.7333        82.0172         2.2055      -999.2500        19.2522     
 6913.0000        10.5817         9.3883         0.0275       100.3111        76.9186        83.3727        82.9898      -999.2500         1.7413         1.7348        82.0162         2.1983      -999.2500        19.9822     
 6913.5000        10.4704         9.2799         0.0595        97.7885        83.1117        84.3776        81.3081      -999.2500         1.7489         1.7652        82.0151         2.2021      -999.2500        19.3624     
 6914.0000        10.8811         9.6224         0.0283        97.8907        85.0414        84.7873        79.6789      -999.2500         1.7485         1.6877        82.0140         2.1698      -999.2500        19.3644     
 6914.5000        11.0929         9.1546         0.0045        98.4115        80.5641        83.8276        77.5281      -999.2500         1.8038         1.4843        82.0130         2.1769      -999.2500        20.7396     
 6915.0000        10.5144         9.2192         0.0139       106.9398        77.8359        82.4020        76.3876      -999.2500         1.6142         1.4190        82.0119         2.1850      -999.2500        21.4334     
 6915.5000        10.9930         9.7277         0.0354       113.4365        73.8512        82.6065        77.4946      -999.2500         1.4061         1.4013        82.0108         2.2072      -999.2500        19.5807     
 6916.0000        11.0876        10.2277         0.0092       114.4433        73.0279        81.1969        75.2847      -999.2500         1.3124         1.3800        82.0000         2.1711      -999.2500        19.1778     
 6916.5000        11.3709        10.5476         0.0063       115.1652        73.5100        79.2481        73.5664      -999.2500         1.3816         1.4501        81.9559         2.1714      -999.2500        19.5602     
 6917.0000        11.3917        10.5794         0.0347       115.0102        73.7109        79.6274        74.4330      -999.2500         1.5067         1.5956        81.9477         2.1854      -999.2500        19.9438     
 6917.5000        10.5441        10.2949         0.0544       109.4092        75.0530        80.9798        76.8168      -999.2500         1.5685         1.6328        81.9466         2.1816      -999.2500        20.4205     
 6918.0000        10.6652         9.3348         0.0401       107.1672        77.7599        81.2620        78.9239      -999.2500         1.5552         1.5739        81.9456         2.1527      -999.2500        20.7808     
 6918.5000        10.4941         9.3769         0.0102       107.4818        80.9248        80.2395        80.7348      -999.2500         1.5038         1.4961        81.9469         2.1212      -999.2500        19.3380     
 6919.0000        10.4398         9.4220         0.0134       109.1806        81.1443        79.7882        82.2789      -999.2500         1.4636         1.4998        81.9689         2.1387      -999.2500        19.3441     
