~Version Information Section
VERS.          2.0                                     : CWLS LOG ASCII Standard
WRAP.          NO                                      : One line per depth step
CREA.          03/09/17                                : LAS Creation Date
~Well Information Section
STRT.ft        763.5000                                : Start Depth
STOP.ft        8088.0000                               : Stop Depth
STEP.ft        0.5000                                  : Step
NULL.          -999.2500                               : Null Value
COMP.          OCCIDENTAL PETROLEUM CORP (UK)          : Company
WELL.          15/11-1                                 : Well
FLD .          WILDCAT                                 : Field
LOC .          NORTH SEA                               : Location
LOC1.          -                                       : Location (UTM)
CTRY.          UK                                      : Country
PROV.          UKCS                                    : Province
UWI .          875                                     : UWI Number
API .          -                                       : API Number
SECT.          -                                       : Section
TOWN.          -                                       : Township
RNGE.          -                                       : Range
PDAT.          MSL                                     : Perm Datum
EPD .ft        0.0                                     : Elevation
LMF .          KB                                      : Log Measured From
DMF .          KB                                      : Drill Measured From
APD .ft        54.0                                    : Above Perm Datum
EKB .ft        54.0                                    : Elev-Kelly Bushing
EDF .ft        53.0                                    : Elev-Drill Floor
EGL .ft        -472.0                                  : Elev-Ground Level (Water Depth)
TDD .ft        8095.0                                  : Total Depth (Driller)
TDL .ft        8088.0                                  : Total Depth (Logger)
SRVC.          SCHLUMBERGER                            : Service Company
LATI.          58 30 05.00" N                          : Latitude
LONG.          00 04 35.00" E                          : Longitude
DATE.          03-MAY-1972 - 26-JUN-1972               : Logging Date
PROJ.          UKCS                                    : Project
SET .          COMP_WIRE                               : Set
~Curve Information Section
DEPTH.ft                                               : Depth Curve
CALD.in                                                : Caliper (FDC/CNL/GR)
CALI.in                                                : Caliper (BHC/GR)
DRHO.g/cc                                              : Delta Rho
DT.us/ft                                               : Delta-T
GR.gAPI                                                : Gamma Ray (BHC/GR)
GRD.gAPI                                               : Gamma Ray (FDC/CNL/GR)
GRL.gAPI                                               : Gamma Ray (DLL/GR)
ILD.Ohmm                                               : Deep Induction Standard Processed Resistivity
LLD.Ohmm                                               : Latero-Log Deep (Resistivity)
LLS.Ohmm                                               : Latero-Log Shallow (Resistivity)
NPHI.LPU                                               : Neutron Porosity
RHOB.g/cc                                              : Bulk Density
SN.Ohmm                                                : Short Normal
SP.mV                                                  : Spontaneous Potential
~ASCII Log Data Section
# ...
 5893.5000      -999.2500        12.0660      -999.2500       136.3947        24.2102        19.4502        26.9855      -999.2500         1.9013      -999.2500      -999.2500      -999.2500      -999.2500      -999.2500     
 5894.0000      -999.2500        12.0388      -999.2500       129.7491        22.3417        20.0369        26.1782      -999.2500         1.8920      -999.2500      -999.2500      -999.2500      -999.2500      -999.2500     
 5894.5000      -999.2500        12.0093      -999.2500       140.2325        20.8240        19.3156        25.4124      -999.2500         1.9047      -999.2500      -999.2500      -999.2500      -999.2500      -999.2500     
 5895.0000      -999.2500        11.9949      -999.2500       124.4451        20.2893        18.4348        27.2199      -999.2500         1.8145      -999.2500      -999.2500      -999.2500      -999.2500      -999.2500     
 5895.5000      -999.2500        11.9866      -999.2500       140.3329        20.5538        18.2046        27.3088      -999.2500         1.6081      -999.2500      -999.2500      -999.2500      -999.2500      -999.2500     
 5896.0000      -999.2500        11.9792      -999.2500       152.0880        21.1982        18.3260        26.2780      -999.2500         1.4520      -999.2500      -999.2500      -999.2500      -999.2500      -999.2500     
 5896.5000      -999.2500        11.9874      -999.2500       160.8413        22.0337        18.2677        26.3785      -999.2500         1.3275      -999.2500      -999.2500      -999.2500      -999.2500      -999.2500     
 5897.0000      -999.2500        12.0154      -999.2500       150.8845        23.4037        17.8593        26.8982      -999.2500         1.2449      -999.2500      -999.2500      -999.2500      -999.2500      -999.2500     
 5897.5000      -999.2500        12.0266      -999.2500       153.9518        24.2306        17.8660        27.4176      -999.2500         1.2329      -999.2500      -999.2500      -999.2500      -999.2500      -999.2500     
 5898.0000      -999.2500        12.0293      -999.2500       163.0850        22.8683        18.3067        27.6633      -999.2500         1.2180      -999.2500      -999.2500      -999.2500      -999.2500      -999.2500     
 5898.5000      -999.2500        12.0099      -999.2500       158.9487        22.0366        17.9347        27.8379      -999.2500         1.2136      -999.2500      -999.2500      -999.2500      -999.2500      -999.2500     
 5899.0000      -999.2500        11.9906      -999.2500       150.1666        21.4150        18.0415        28.8418      -999.2500         1.3299      -999.2500      -999.2500      -999.2500      -999.2500      -999.2500     
 5899.5000      -999.2500        11.9570      -999.2500       139.9064        19.9043        18.6540        28.4088      -999.2500         1.5009      -999.2500      -999.2500      -999.2500      -999.2500      -999.2500     
 5900.0000      -999.2500        11.8734      -999.2500       135.2184        19.6787        19.6111        26.4518      -999.2500         1.6719      -999.2500      -999.2500      -999.2500      -999.2500      -999.2500     
 5900.5000      -999.2500        11.8871      -999.2500       111.0404        19.4508        19.6437        24.6518      -999.2500         1.8428      -999.2500      -999.2500      -999.2500      -999.2500      -999.2500     
 5901.0000         8.7305        11.9856      -999.2500       119.3482        18.5888        17.7507        25.7929      -999.2500         1.9157      -999.2500      -999.2500      -999.2500      -999.2500      -999.2500     
 5901.5000         8.7727        12.0257      -999.2500       110.4364        18.3404        16.7424        26.3237      -999.2500         2.0511      -999.2500      -999.2500      -999.2500      -999.2500      -999.2500     
 5902.0000         8.9100        11.9398      -999.2500       109.3286        18.3328        16.9496        26.8858      -999.2500         2.0882      -999.2500      -999.2500      -999.2500      -999.2500      -999.2500     
 5902.5000         8.9322        11.8334      -999.2500       131.1503        19.4328        18.3239        28.4712      -999.2500         2.0516      -999.2500      -999.2500      -999.2500      -999.2500      -999.2500     
 5903.0000         8.9671        11.8023      -999.2500       135.9773        22.9297        20.6767        26.8668      -999.2500         1.9685      -999.2500      -999.2500      -999.2500      -999.2500      -999.2500     
 5903.5000         9.0781        11.9112      -999.2500       140.2308        26.5917        23.1638        27.7821      -999.2500         1.8667      -999.2500      -999.2500      -999.2500      -999.2500      -999.2500     
 5904.0000         9.4187        11.9135      -999.2500       140.2308        28.9064        26.0238        29.2817      -999.2500         1.7730      -999.2500      -999.2500      -999.2500      -999.2500      -999.2500     
 5904.5000         9.8261        11.9043      -999.2500       140.2539        30.4607        27.5836        28.9204      -999.2500         1.7153      -999.2500      -999.2500      -999.2500      -999.2500      -999.2500     
 5905.0000        10.2828        11.9500         0.0311       119.6792        30.5784        28.7987        27.6036      -999.2500         1.7207         1.8370      -999.2500      -999.2500      -999.2500      -999.2500     
 5905.5000        10.3334        11.9807         0.0319       113.5659        30.5091        29.4690        27.4072      -999.2500         1.7595         1.7472      -999.2500         2.2936      -999.2500      -999.2500     
 5906.0000        10.3978        11.9959         0.0399       116.3519        31.4207        29.5319        28.4002      -999.2500         1.7827         1.5974      -999.2500         2.3222      -999.2500      -999.2500     
 5906.5000        10.8574        11.9468         0.0570       114.9855        30.9591        28.9843        29.8113      -999.2500         1.8084         1.6161      -999.2500         2.3548      -999.2500      -999.2500     
 5907.0000        11.7142        11.9606         0.0532       118.2621        30.0649        28.0693        29.1383      -999.2500         1.8497         1.8007      -999.2500         2.3582      -999.2500      -999.2500     
 5907.5000        11.8565        12.0121         0.0207       108.3274        28.6766        28.1250        27.5097      -999.2500         1.9003         1.9089      -999.2500         2.3511      -999.2500      -999.2500     
 5908.0000        12.2084        12.0588        -0.0066       112.4183        28.7999        27.6854        26.7350      -999.2500         1.9775         1.8602      -999.2500         2.3383      -999.2500      -999.2500     
 5908.5000        12.3961        12.0196        -0.0300       109.0311        31.0491        27.0263        25.8618      -999.2500         2.0575         1.8187      -999.2500         2.3464      -999.2500      -999.2500     
 5909.0000        12.4290        12.0342        -0.0284       109.2674        30.2276        26.5856        27.1423      -999.2500         2.1300         1.8095      -999.2500         2.3775      -999.2500      -999.2500     
 5909.5000        12.4399        12.0690        -0.0259       110.3692        28.8854        26.7132        28.3831      -999.2500         2.1702         1.7858      -999.2500         2.4028      -999.2500      -999.2500     
 5910.0000        12.4507        12.1069        -0.0266       110.1353        28.5358        28.0340        27.8355      -999.2500         2.2078         1.8357      -999.2500         2.3892      -999.2500      -999.2500     
 5910.5000        12.4596        12.1494        -0.0245       109.8825        28.9227        29.4323        28.3001      -999.2500         2.2781         2.0363      -999.2500         2.3905      -999.2500      -999.2500     
 5911.0000        12.4684        12.2007        -0.0206       111.0153        29.1918        30.3506        28.3423      -999.2500         2.3774         1.7661      -999.2500         2.4019      -999.2500      -999.2500     
