~Version Information Section
VERS.          2.0                                     : CWLS LOG ASCII Standard
WRAP.          NO                                      : One line per depth step
CREA.          03/09/17                                : LAS Creation Date
~Well Information Section
STRT.ft        763.5000                                : Start Depth
STOP.ft        8088.0000                               : Stop Depth
STEP.ft        0.5000                                  : Step
NULL.          -999.2500                               : Null Value
COMP.          OCCIDENTAL PETROLEUM CORP (UK)          : Company
WELL.          15/11-1                                 : Well
FLD .          WILDCAT                                 : Field
LOC .          NORTH SEA                               : Location
LOC1.          -                                       : Location (UTM)
CTRY.          UK                                      : Country
PROV.          UKCS                                    : Province
UWI .          875                                     : UWI Number
API .          -                                       : API Number
SECT.          -                                       : Section
TOWN.          -                                       : Township
RNGE.          -                                       : Range
PDAT.          MSL                                     : Perm Datum
EPD .ft        0.0                                     : Elevation
LMF .          KB                                      : Log Measured From
DMF .          KB                                      : Drill Measured From
APD .ft        54.0                                    : Above Perm Datum
EKB .ft        54.0                                    : Elev-Kelly Bushing
EDF .ft        53.0                                    : Elev-Drill Floor
EGL .ft        -472.0                                  : Elev-Ground Level (Water Depth)
TDD .ft        8095.0                                  : Total Depth (Driller)
TDL .ft        8088.0                                  : Total Depth (Logger)
SRVC.          SCHLUMBERGER                            : Service Company
LATI.          58 30 05.00" N                          : Latitude
LONG.          00 04 35.00" E                          : Longitude
DATE.          03-MAY-1972 - 26-JUN-1972               : Logging Date
PROJ.          UKCS                                    : Project
SET .          COMP_WIRE                               : Set
~Curve Information Section
DEPTH.ft                                               : Depth Curve
CALD.in                                                : Caliper (FDC/CNL/GR)
CALI.in                                                : Caliper (BHC/GR)
DRHO.g/cc                                              : Delta Rho
DT.us/ft                                               : Delta-T
GR.gAPI                                                : Gamma Ray (BHC/GR)
GRD.gAPI                                               : Gamma Ray (FDC/CNL/GR)
GRL.gAPI                                               : Gamma Ray (DLL/GR)
ILD.Ohmm                                               : Deep Induction Standard Processed Resistivity
LLD.Ohmm                                               : Latero-Log Deep (Resistivity)
LLS.Ohmm                                               : Latero-Log Shallow (Resistivity)
NPHI.LPU                                               : Neutron Porosity
RHOB.g/cc                                              : Bulk Density
SN.Ohmm                                                : Short Normal
SP.mV                                                  : Spontaneous Potential
~ASCII Log Data Section
# ...
 7045.5000         8.7893         8.3889        -0.0293        51.6138         6.0213         6.5176         6.7828      -999.2500      1968.8132      1955.2903        -0.4399         2.9325      -999.2500        13.1089     
 7046.0000         8.7892         8.3802        -0.0344        51.2338         5.5739         6.3028         6.2543      -999.2500      1970.1699      1955.7798        -0.3998         2.9199      -999.2500        13.6945     
 7046.5000         8.7840         8.3625        -0.0344        51.2523         5.6894         6.2078         6.7958      -999.2500      1971.5283      1956.2695        -0.3596         2.9243      -999.2500        14.2641     
 7047.0000         8.7788         8.3261        -0.0286        51.6183         6.7137         6.2076         6.8544      -999.2500      1972.8853      1956.7603        -0.3192         2.9484      -999.2500        11.7302     
 7047.5000         8.7735         8.3093        -0.0233        51.9082         7.9293         6.1560         7.4822      -999.2500      1974.2437      1957.2507        -0.2797         2.9579      -999.2500         9.8613     
 7048.0000         8.7682         8.2956        -0.0206        51.8358         8.2636         6.7495         8.5161      -999.2500      1975.6011      1957.7402        -0.2799         2.9682      -999.2500        10.3187     
 7048.5000         8.7630         8.2734        -0.0222        51.5788         8.2733         7.4118         9.6727      -999.2500      1976.9561      1958.2305        -0.2811         2.9738      -999.2500        11.1032     
 7049.0000         8.7577         8.2506        -0.0339        51.3327         8.5251         7.8162        11.0045      -999.2500      1977.9873      1958.7192        -0.2650         2.9447      -999.2500        11.5027     
 7049.5000         8.7525         8.2262        -0.0339        51.0867         8.8802         7.8263        11.8525      -999.2500      1978.0603      1959.2102        -0.2333         2.9516      -999.2500         7.5619     
 7050.0000         8.7510         8.2173        -0.0331        51.1558         8.8854         7.9472        11.3901      -999.2500      1978.1772      1959.7002        -0.2835         2.9507      -999.2500         4.1370     
 7050.5000         8.7513         8.2273        -0.0296        51.4674         8.8567         8.4627         9.8374      -999.2500      1978.2937      1960.1902        -0.2856         2.9443      -999.2500         2.9708     
 7051.0000         8.7516         8.2600        -0.0232        51.8082         9.9412         9.0558         9.8516      -999.2500      1978.4109      1960.6799        -0.2814         2.9498      -999.2500         2.9298     
 7051.5000         8.7519         8.3352        -0.0203        52.0641        11.3983         9.9421         9.9758      -999.2500      1978.5273      1961.1716        -0.1184         2.9627      -999.2500         3.0463     
 7052.0000         8.7634         8.6054        -0.0178        51.8122        13.1457        12.4893        10.1384      -999.2500      1978.6438      1959.5808         0.0491         2.9720      -999.2500         1.8251     
 7052.5000         8.8009         8.7476        -0.0215        50.9507        16.1528        15.3431        11.0477      -999.2500      1941.0515      1498.8591         0.3197         2.9652      -999.2500         0.4984     
 7053.0000         8.8475         8.7378        -0.0254        51.0999        18.9521        18.0107        12.2546      -999.2500       904.5182       755.5961         0.6162         2.9203      -999.2500         1.0904     
 7053.5000         8.8927         8.5523        -0.0140        50.8307        22.6592        21.0130        14.9837      -999.2500       506.9255       397.4094         0.8380         2.8863      -999.2500         1.4061     
 7054.0000         8.8890         8.4024        -0.0219        50.8063        24.8655        22.6374        19.3503      -999.2500       349.4819       287.7418         0.9111         2.8575      -999.2500        -0.0805     
 7054.5000         8.8071         8.3428        -0.0282        51.2180        24.4078        22.5933        22.6783      -999.2500       278.8743       255.2650         0.8045         2.8615      -999.2500        -1.0564     
 7055.0000         8.7574         8.3188        -0.0249        52.2746        20.7902        21.1230        22.4404      -999.2500       348.4500       287.4235         0.6259         2.8932      -999.2500        -1.4780     
 7055.5000         8.7746         8.3008        -0.0308        51.9972        16.8022        20.3987        20.2852      -999.2500       403.7551       314.6675         0.6398         2.9075      -999.2500        -0.9671     
 7056.0000         8.7751         8.2946        -0.0413        51.0793        14.4612        19.7080        17.8905      -999.2500       508.6433       340.9313         0.9229         2.8822      -999.2500        -1.1064     
 7056.5000         8.7760         8.3028        -0.0418        51.4241        15.3819        19.5328        15.5855      -999.2500      1064.4146       472.6725         2.2556         2.8522      -999.2500        -1.8682     
 7057.0000         8.8035         8.3295        -0.0407        53.1445        20.2747        21.5573        16.5259      -999.2500       974.9811       470.3810         4.8587         2.7779      -999.2500        -1.4344     
 7057.5000         8.8350         8.3625        -0.0314        55.2857        27.3401        26.3350        22.5844      -999.2500       322.0082       262.1547         8.9402         2.6789      -999.2500        -0.7661     
 7058.0000         8.8996         8.5193        -0.0257        63.9355        32.8513        31.6840        31.0794      -999.2500       122.2834       111.7240        15.5494         2.5471      -999.2500        -0.4457     
 7058.5000         8.9559         8.7776         0.0140        80.9140        38.2680        37.7441        35.3354      -999.2500        21.3425        26.5970        22.1595         2.4221      -999.2500        -0.0899     
 7059.0000         9.0286        10.9299         0.0778        96.1112        43.5327        41.9598        39.9550      -999.2500         8.4846         8.9960        29.0183         2.2705      -999.2500         1.9993     
 7059.5000         9.3753        11.2684         0.0427        99.9435        49.0413        44.8664        44.5721      -999.2500         5.6452         7.9621        42.3622         2.1412      -999.2500         3.6157     
 7060.0000        10.1174         8.9161        -0.0128        99.3186        47.9274        44.1209        49.8531      -999.2500         5.1298         8.2225        38.7876         2.2716      -999.2500         4.7256     
 7060.5000         9.9631         8.7774        -0.0059        82.9559        40.6789        38.0309        50.3227      -999.2500         5.7154        10.5181        30.0706         2.4285      -999.2500         4.5806     
 7061.0000         9.3817         8.5750        -0.0005        66.2850        30.7812        30.3327        46.8409      -999.2500         8.9864        13.9878        16.2971         2.5928      -999.2500         4.2029     
 7061.5000         8.9420         8.3492        -0.0333        60.1572        20.4127        22.7496        39.8193      -999.2500        21.1541        16.8097         7.4042         2.7742      -999.2500         6.8763     
 7062.0000         8.8041         8.2980        -0.0340        56.1679        12.2350        13.5100        27.7161      -999.2500        69.9890        23.8594         0.8004         2.8867      -999.2500         8.1939     
 7062.5000         8.7787         8.2969        -0.0274        52.8067        10.5196         9.5553        16.9263      -999.2500       370.0996        56.0777        -0.0336         2.9200      -999.2500         6.5427     
 7063.0000         8.7799         8.3079        -0.0221        53.2825        10.0455         9.3223        11.8682      -999.2500       442.3154       385.7730        -0.1200         2.9157      -999.2500         8.6366     
