~Version Information Section
VERS.          2.0                                     : CWLS LOG ASCII Standard
WRAP.          NO                                      : One line per depth step
CREA.          03/09/17                                : LAS Creation Date
~Well Information Section
STRT.ft        763.5000                                : Start Depth
STOP.ft        8088.0000                               : Stop Depth
STEP.ft        0.5000                                  : Step
NULL.          -999.2500                               : Null Value
COMP.          OCCIDENTAL PETROLEUM CORP (UK)          : Company
WELL.          15/11-1                                 : Well
FLD .          WILDCAT                                 : Field
LOC .          NORTH SEA                               : Location
LOC1.          -                                       : Location (UTM)
CTRY.          UK                                      : Country
PROV.          UKCS                                    : Province
UWI .          875                                     : UWI Number
API .          -                                       : API Number
SECT.          -                                       : Section
TOWN.          -                                       : Township
RNGE.          -                                       : Range
PDAT.          MSL                                     : Perm Datum
EPD .ft        0.0                                     : Elevation
LMF .          KB                                      : Log Measured From
DMF .          KB                                      : Drill Measured From
APD .ft        54.0                                    : Above Perm Datum
EKB .ft        54.0                                    : Elev-Kelly Bushing
EDF .ft        53.0                                    : Elev-Drill Floor
EGL .ft        -472.0                                  : Elev-Ground Level (Water Depth)
TDD .ft        8095.0                                  : Total Depth (Driller)
TDL .ft        8088.0                                  : Total Depth (Logger)
SRVC.          SCHLUMBERGER                            : Service Company
LATI.          58 30 05.00" N                          : Latitude
LONG.          00 04 35.00" E                          : Longitude
DATE.          03-MAY-1972 - 26-JUN-1972               : Logging Date
PROJ.          UKCS                                    : Project
SET .          COMP_WIRE                               : Set
~Curve Information Section
DEPTH.ft                                               : Depth Curve
CALD.in                                                : Caliper (FDC/CNL/GR)
CALI.in                                                : Caliper (BHC/GR)
DRHO.g/cc                                              : Delta Rho
DT.us/ft                                               : Delta-T
GR.gAPI                                                : Gamma Ray (BHC/GR)
GRD.gAPI                                               : Gamma Ray (FDC/CNL/GR)
GRL.gAPI                                               : Gamma Ray (DLL/GR)
ILD.Ohmm                                               : Deep Induction Standard Processed Resistivity
LLD.Ohmm                                               : Latero-Log Deep (Resistivity)
LLS.Ohmm                                               : Latero-Log Shallow (Resistivity)
NPHI.LPU                                               : Neutron Porosity
RHOB.g/cc                                              : Bulk Density
SN.Ohmm                                                : Short Normal
SP.mV                                                  : Spontaneous Potential
~ASCII Log Data Section
# ...
 7909.5000         9.1706         8.7553        -0.0212        81.3318        98.5537       108.4372       111.3658      -999.2500         5.6362         6.0402        37.9539         2.5360      -999.2500        40.5675     
 7910.0000         9.1657         8.2825        -0.0122        79.6278        92.9938       103.5199       105.9066      -999.2500         3.9596         4.9164        36.4694         2.5572      -999.2500        39.6862     
 7910.5000         9.1176         8.1910        -0.0006        78.4118        84.3554        97.5706        97.0329      -999.2500         3.9139         4.3170        34.9094         2.5701      -999.2500        39.9391     
 7911.0000         8.8763         8.2175         0.0046        77.9126        80.9222        89.2903        90.1647      -999.2500         3.9933         4.8664        34.8655         2.5641      -999.2500        40.2976     
 7911.5000         8.6385         8.2133        -0.0006        75.8127        85.5374        88.9101        82.3632      -999.2500         4.0953         5.3847        34.7548         2.5464      -999.2500        41.4436     
 7912.0000         8.6376         8.1599        -0.0141        76.4228        95.1966        94.3523        77.8439      -999.2500         4.3580         5.7541        34.1292         2.5398      -999.2500        39.3028     
 7912.5000         8.6384         8.1899        -0.0188        79.9605       100.2131       100.0252        81.3089      -999.2500         4.7431         6.0994        35.9986         2.5249      -999.2500        37.6101     
 7913.0000         8.6395         8.5289        -0.0179        84.8469       100.1697       113.1907        93.6802      -999.2500         5.0686         6.3779        38.0615         2.5153      -999.2500        37.2730     
 7913.5000         8.6634         8.4111        -0.0090        88.5036       119.0030       124.1845       104.8815      -999.2500         5.3607         6.3498        39.4910         2.5198      -999.2500        36.7696     
 7914.0000         8.7763         8.2317        -0.0025        88.5062       124.5189       130.6220       113.8334      -999.2500         5.9130         6.1277        38.5086         2.5356      -999.2500        36.6073     
 7914.5000         9.1116         8.5056        -0.0077        86.4873       123.0319       130.2413       120.9762      -999.2500         6.0096         6.2253        36.9817         2.5677      -999.2500        37.3985     
 7915.0000         9.1998         8.8802        -0.0102        83.1661       119.2716       127.3102       121.4621      -999.2500         5.3670         6.1855        35.6762         2.5841      -999.2500        36.2379     
 7915.5000         9.2006         8.9286        -0.0144        81.2132       113.8003       123.4141       118.7901      -999.2500         5.5130         6.9012        35.6384         2.5738      -999.2500        34.1572     
 7916.0000         9.1943         8.9248        -0.0189        78.3072       108.4058       118.6805       114.2128      -999.2500         6.6060         7.8043        36.0383         2.5696      -999.2500        33.4645     
 7916.5000         9.1879         8.8117        -0.0274        74.9025       102.2681       114.3149       106.3440      -999.2500         7.6988         8.5270        34.9609         2.5759      -999.2500        31.8280     
 7917.0000         9.1583         8.7221        -0.0303        74.1180        98.7733       108.6606       100.0003      -999.2500         7.9671         8.8457        33.0646         2.5826      -999.2500        32.8706     
 7917.5000         9.0588         8.6656        -0.0256        74.1157       101.4261       102.8311        93.9021      -999.2500         8.3382         9.1568        30.7436         2.5754      -999.2500        32.2260     
 7918.0000         8.9974         8.7195        -0.0214        74.4674       101.0934        99.6701        89.2673      -999.2500         8.3941         9.2577        29.1675         2.5618      -999.2500        30.8889     
 7918.5000         8.9758         8.7196        -0.0133        75.2074        97.5217        99.7424        91.4806      -999.2500         8.2082         8.6781        29.2593         2.5579      -999.2500        30.8900     
 7919.0000         8.9980         8.7166        -0.0051        75.1990        95.9128       102.1577        93.0583      -999.2500         7.6580         7.9398        31.1992         2.5554      -999.2500        30.4438     
 7919.5000         8.9895         8.6408         0.0009        75.2193        95.2415       102.4505        96.7838      -999.2500         7.1592         7.5584        33.5703         2.5288      -999.2500        31.0364     
 7920.0000         8.9259         8.3058         0.0004        76.9278        95.8537       102.1070        94.8301      -999.2500         7.2693         7.3269        36.5464         2.4899      -999.2500        31.3833     
 7920.5000         8.7882         8.5856        -0.0048        87.3749        98.8473       104.7798        95.5841      -999.2500         6.8516         7.1363        42.2998         2.4462      -999.2500        32.6254     
 7921.0000         8.8142         8.2740         0.0003        94.1500       100.3754       109.6801       102.0610      -999.2500         6.8418         7.0771        45.0055         2.4070      -999.2500        32.2354     
 7921.5000         8.7708         8.1944         0.0101        94.5180       106.4278       115.4976       112.4250      -999.2500         6.3951         6.0756        55.3176         2.3694      -999.2500        32.0661     
 7922.0000         8.6478         8.2147         0.0116        93.9323       123.0691       119.2131       121.9843      -999.2500         5.4110         5.5855        55.6764         2.3633      -999.2500        32.5977     
 7922.5000         8.5528         8.2162        -0.0115        85.1088       125.0193       125.5598       124.0784      -999.2500         4.6337         5.3196        51.4067         2.4424      -999.2500        33.1294     
 7923.0000         8.7333         8.2995        -0.0194        82.0569       122.6700       126.3393       126.7518      -999.2500         5.0822         5.5394        45.7705         2.5290      -999.2500        33.4414     
 7923.5000         8.8427         8.4733        -0.0216        80.8562       119.3155       124.6554       128.1852      -999.2500         5.4920         6.0050        40.0623         2.5672      -999.2500        33.2684     
 7924.0000         8.8681         8.4104        -0.0430        79.4916       112.8108       121.7424       125.2027      -999.2500         5.5960         6.6516        38.4621         2.5877      -999.2500        33.0431     
 7924.5000         8.8423         8.5948        -0.0581        77.2894       107.4034       117.8788       120.8715      -999.2500         5.9505         7.1214        37.2191         2.5865      -999.2500        32.3883     
 7925.0000         8.8386         8.6986        -0.0466        76.4723       109.0881       114.0997       114.7622      -999.2500         6.2819         7.4329        36.5938         2.5983      -999.2500        31.8450     
 7925.5000         8.8394         8.7179        -0.0379        76.6814       113.6351       115.5333       108.5984      -999.2500         6.3479         7.2941        35.5516         2.6118      -999.2500        31.9708     
 7926.0000         8.8402         8.7182        -0.0369        77.5714       120.0387       117.7419       108.8976      -999.2500         6.2222         7.0896        36.2833         2.6034      -999.2500        32.2750     
 7926.5000         8.8582         8.7186        -0.0293        79.2600       125.5535       120.4871       113.3918      -999.2500         6.1622         7.1070        36.8532         2.5859      -999.2500        32.6209     
 7927.0000         8.9958         8.7189        -0.0149        79.9311       125.4290       122.3146       117.9787      -999.2500         6.4222         7.2698        36.0030         2.5665      -999.2500        31.1808     
