~Version Information Section
VERS.          2.0                                     : CWLS LOG ASCII Standard
WRAP.          NO                                      : One line per depth step
CREA.          03/09/17                                : LAS Creation Date
~Well Information Section
STRT.ft        763.5000                                : Start Depth
STOP.ft        8088.0000                               : Stop Depth
STEP.ft        0.5000                                  : Step
NULL.          -999.2500                               : Null Value
COMP.          OCCIDENTAL PETROLEUM CORP (UK)          : Company
WELL.          15/11-1                                 : Well
FLD .          WILDCAT                                 : Field
LOC .          NORTH SEA                               : Location
LOC1.          -                                       : Location (UTM)
CTRY.          UK                                      : Country
PROV.          UKCS                                    : Province
UWI .          875                                     : UWI Number
API .          -                                       : API Number
SECT.          -                                       : Section
TOWN.          -                                       : Township
RNGE.          -                                       : Range
PDAT.          MSL                                     : Perm Datum
EPD .ft        0.0                                     : Elevation
LMF .          KB                                      : Log Measured From
DMF .          KB                                      : Drill Measured From
APD .ft        54.0                                    : Above Perm Datum
EKB .ft        54.0                                    : Elev-Kelly Bushing
EDF .ft        53.0                                    : Elev-Drill Floor
EGL .ft        -472.0                                  : Elev-Ground Level (Water Depth)
TDD .ft        8095.0                                  : Total Depth (Driller)
TDL .ft        8088.0                                  : Total Depth (Logger)
SRVC.          SCHLUMBERGER                            : Service Company
LATI.          58 30 05.00" N                          : Latitude
LONG.          00 04 35.00" E                          : Longitude
DATE.          03-MAY-1972 - 26-JUN-1972               : Logging Date
PROJ.          UKCS                                    : Project
SET .          COMP_WIRE                               : Set
~Curve Information Section
DEPTH.ft                                               : Depth Curve
CALD.in                                                : Caliper (FDC/CNL/GR)
CALI.in                                                : Caliper (BHC/GR)
DRHO.g/cc                                              : Delta Rho
DT.us/ft                                               : Delta-T
GR.gAPI                                                : Gamma Ray (BHC/GR)
GRD.gAPI                                               : Gamma Ray (FDC/CNL/GR)
GRL.gAPI                                               : Gamma Ray (DLL/GR)
ILD.Ohmm                                               : Deep Induction Standard Processed Resistivity
LLD.Ohmm                                               : Latero-Log Deep (Resistivity)
LLS.Ohmm                                               : Latero-Log Shallow (Resistivity)
NPHI.LPU                                               : Neutron Porosity
RHOB.g/cc                                              : Bulk Density
SN.Ohmm                                                : Short Normal
SP.mV                                                  : Spontaneous Potential
~ASCII Log Data Section
# ...
 7333.5000         9.1033         8.6292        -0.0248        75.5147        81.8842        97.0967        84.4114      -999.2500         5.0581         5.0358        34.9180         2.5523      -999.2500        36.8515     
 7334.0000         9.3075         8.8037        -0.0285        78.9916        92.4458        99.9261        91.5244      -999.2500         5.2013         5.4461        33.9929         2.5279      -999.2500        37.4642     
 7334.5000         9.4657         8.9430        -0.0361        82.4285       105.2025       100.7466        99.0959      -999.2500         5.4189         6.2714        34.2359         2.5031      -999.2500        39.8912     
 7335.0000         9.4896         8.9535        -0.0405        84.5737       120.4041       104.8656       109.2305      -999.2500         5.9814         8.0726        36.4044         2.4939      -999.2500        40.0235     
 7335.5000         9.4302         8.9233        -0.0391        84.0740       122.1947       108.7632       115.5853      -999.2500         8.3227        10.1712        39.9789         2.4778      -999.2500        38.7121     
 7336.0000         9.3101         8.8794        -0.0414        82.0920       115.2788       110.1243       110.5167      -999.2500         9.8453        11.2409        46.6187         2.4419      -999.2500        37.4357     
 7336.5000         9.1800         8.8406        -0.0390        86.3936       108.2562       102.5023       102.8513      -999.2500         8.3783        10.6562        57.7363         2.3773      -999.2500        38.5924     
 7337.0000         9.0752         8.8066        -0.0260        98.0174        92.7757        94.8677        91.3078      -999.2500         7.0901         8.7537        73.4828         2.2437      -999.2500        34.8549     
 7337.5000         9.0122         8.4812        -0.0091       109.0761        85.9436        85.4243        79.5545      -999.2500         6.7355         7.4641        82.0405         2.1111      -999.2500        35.3115     
 7338.0000         9.0140         8.3934        -0.0090       112.2557        84.0593        81.3372        74.4213      -999.2500         6.6771         7.1945        81.5294         2.0440      -999.2500        33.2584     
 7338.5000         9.2224         8.6670        -0.0265       107.0565        94.1416        81.8162        81.3997      -999.2500         6.7699         7.7759        70.0632         2.2528      -999.2500        34.9995     
 7339.0000         9.4586         9.0669        -0.0030        96.7819       105.3223        86.6573        94.1121      -999.2500         6.9460         8.6886        48.8884         2.4845      -999.2500        34.6100     
 7339.5000         9.4519         8.9472        -0.0030        85.1412       104.5684        97.2859       103.2655      -999.2500         7.2499         9.7179        37.9185         2.6094      -999.2500        30.0596     
 7340.0000         9.3631         8.8814        -0.0174        78.2257        97.5102       100.2974       100.0568      -999.2500         8.2506        10.8933        27.1065         2.6667      -999.2500        29.8458     
 7340.5000         9.2453         8.8455        -0.0271        72.2742        92.5124       102.2163        95.2040      -999.2500        10.5167        11.8673        25.9448         2.6886      -999.2500        29.6044     
 7341.0000         9.1936         8.8287        -0.0232        71.1939        92.8344        98.1054        90.3987      -999.2500         9.8446        12.0072        25.8146         2.6819      -999.2500        29.9075     
 7341.5000         9.1771         8.7990        -0.0190        70.7434        95.5645        94.5384        90.1200      -999.2500         6.5316        10.1354        24.7758         2.6697      -999.2500        29.5872     
 7342.0000         9.1904         8.7495        -0.0207        70.9023        93.8839        94.3206        88.1487      -999.2500         4.7932         7.4975        23.6415         2.6393      -999.2500        29.6122     
 7342.5000         9.1905         8.2429        -0.0224        73.1450        92.3013        95.6700        87.4943      -999.2500         4.2315         5.2753        22.5856         2.6109      -999.2500        29.3573     
 7343.0000         9.0489         8.1919        -0.0221        73.7458        92.2399        95.7742        87.8986      -999.2500         4.7924         6.0374        22.4260         2.5830      -999.2500        28.4244     
 7343.5000         8.7377         8.1518        -0.0177        74.5336        93.6191        95.1988        88.6775      -999.2500         5.3570         7.5148        23.6510         2.5811      -999.2500        29.1823     
 7344.0000         8.9223         8.2019        -0.0123        73.9862        95.6834        94.9280        92.0855      -999.2500         6.2751         9.6877        25.2325         2.5993      -999.2500        26.4748     
 7344.5000         9.0305         8.3265        -0.0153        74.6012        97.3369        98.2819        97.6418      -999.2500         7.5488        10.2022        27.0004         2.6077      -999.2500        26.6406     
 7345.0000         9.0950         8.4860        -0.0195        75.3898       104.9152        99.9777       100.7714      -999.2500         9.3300         9.8877        30.4196         2.6034      -999.2500        25.1816     
 7345.5000         9.1112         8.7897        -0.0128        77.9962       113.1614       104.2055       102.2670      -999.2500         8.2431         9.0634        33.6188         2.6051      -999.2500        24.5511     
 7346.0000         9.1114         8.4927        -0.0070        80.9398       117.5251       108.6531       106.8541      -999.2500         7.9415         8.4572        36.1843         2.6097      -999.2500        24.0987     
 7346.5000         9.1116         8.4323        -0.0072        82.5422       119.5650       113.0687       112.7378      -999.2500         8.4888         9.0156        36.6190         2.5970      -999.2500        25.4193     
 7347.0000         9.1085         8.4445        -0.0041        82.0767       118.9187       113.3559       113.0341      -999.2500         9.1806         9.9629        35.0956         2.5725      -999.2500        25.6878     
 7347.5000         9.0299         8.4629         0.0094        80.5912       113.3751       108.5940       109.0832      -999.2500         9.5177         9.4811        31.9737         2.5610      -999.2500        23.4065     
 7348.0000         8.8729         8.4255         0.0225        77.4528       105.5946       102.8093        97.8821      -999.2500         7.8846         6.2776        28.3136         2.5405      -999.2500        23.2189     
 7348.5000         8.9491         8.3062         0.0507        74.8929        96.8668        97.8562        84.1311      -999.2500         5.2957         5.3135        24.5502         2.5390      -999.2500        25.4179     
 7349.0000         9.0210         8.2663         0.0413        74.0501        83.7133        91.5954        77.4135      -999.2500         4.0883         4.7486        22.1148         2.5374      -999.2500        25.4741     
 7349.5000         9.0780         8.2838         0.0211        73.6135        77.8938        86.2623        74.7245      -999.2500         4.3357         5.2813        23.5027         2.5220      -999.2500        24.9315     
 7350.0000         9.1184         8.3502        -0.0096        81.9316        79.3735        89.5215        75.4527      -999.2500         5.1059         6.0617        26.3025         2.4919      -999.2500        24.9332     
 7350.5000         9.1660         8.3682        -0.0217        80.2103        84.0134        93.3313        80.4309      -999.2500         6.5178         6.4955        29.7840         2.4718      -999.2500        24.7983     
 7351.0000         9.1999         8.3356        -0.0232        83.4636        93.6928       106.2767        85.0328      -999.2500         7.4297         7.8575        35.1400         2.4806      -999.2500        24.4977     
