~Version Information Section
VERS.          2.0                                     : CWLS LOG ASCII Standard
WRAP.          NO                                      : One line per depth step
CREA.          03/09/17                                : LAS Creation Date
~Well Information Section
STRT.ft        763.5000                                : Start Depth
STOP.ft        8088.0000                               : Stop Depth
STEP.ft        0.5000                                  : Step
NULL.          -999.2500                               : Null Value
COMP.          OCCIDENTAL PETROLEUM CORP (UK)          : Company
WELL.          15/11-1                                 : Well
FLD .          WILDCAT                                 : Field
LOC .          NORTH SEA                               : Location
LOC1.          -                                       : Location (UTM)
CTRY.          UK                                      : Country
PROV.          UKCS                                    : Province
UWI .          875                                     : UWI Number
API .          -                                       : API Number
SECT.          -                                       : Section
TOWN.          -                                       : Township
RNGE.          -                                       : Range
PDAT.          MSL                                     : Perm Datum
EPD .ft        0.0                                     : Elevation
LMF .          KB                                      : Log Measured From
DMF .          KB                                      : Drill Measured From
APD .ft        54.0                                    : Above Perm Datum
EKB .ft        54.0                                    : Elev-Kelly Bushing
EDF .ft        53.0                                    : Elev-Drill Floor
EGL .ft        -472.0                                  : Elev-Ground Level (Water Depth)
TDD .ft        8095.0                                  : Total Depth (Driller)
TDL .ft        8088.0                                  : Total Depth (Logger)
SRVC.          SCHLUMBERGER                            : Service Company
LATI.          58 30 05.00" N                          : Latitude
LONG.          00 04 35.00" E                          : Longitude
DATE.          03-MAY-1972 - 26-JUN-1972               : Logging Date
PROJ.          UKCS                                    : Project
SET .          COMP_WIRE                               : Set
~Curve Information Section
DEPTH.ft                                               : Depth Curve
CALD.in                                                : Caliper (FDC/CNL/GR)
CALI.in                                                : Caliper (BHC/GR)
DRHO.g/cc                                              : Delta Rho
DT.us/ft                                               : Delta-T
GR.gAPI                                                : Gamma Ray (BHC/GR)
GRD.gAPI                                               : Gamma Ray (FDC/CNL/GR)
GRL.gAPI                                               : Gamma Ray (DLL/GR)
ILD.Ohmm                                               : Deep Induction Standard Processed Resistivity
LLD.Ohmm                                               : Latero-Log Deep (Resistivity)
LLS.Ohmm                                               : Latero-Log Shallow (Resistivity)
NPHI.LPU                                               : Neutron Porosity
RHOB.g/cc                                              : Bulk Density
SN.Ohmm                                                : Short Normal
SP.mV                                                  : Spontaneous Potential
~ASCII Log Data Section
# ...
 6325.5000         9.4538         8.9972        -0.0281        75.9049        14.9218        12.5209        12.7694      -999.2500         5.9049         5.5195        32.4793         2.5598      -999.2500        18.1198     
 6326.0000         9.4538         8.9663        -0.0230        73.8304        13.9161        12.5343        12.9924      -999.2500         7.8492         5.6621        32.3763         2.5707      -999.2500        17.1642     
 6326.5000         9.4538         8.9655        -0.0156        69.5335        12.3131        11.5358        12.0909      -999.2500         8.9650         6.0132        30.2535         2.5957      -999.2500        17.7746     
 6327.0000         9.4538         8.9547        -0.0178        64.8413         9.9803        10.1241        10.8734      -999.2500         8.2957         8.0947        27.5375         2.6176      -999.2500        19.4282     
 6327.5000         9.4540         8.9339        -0.0245        64.9898         9.0666         8.5266        10.0008      -999.2500         7.8259         9.2291        25.3921         2.6264      -999.2500        19.3627     
 6328.0000         9.4557         8.9531        -0.0177        64.8101         9.5036         7.3443         9.6419      -999.2500         6.9329         8.0370        24.5008         2.6096      -999.2500        18.6995     
 6328.5000         9.4579         8.9423        -0.0192        66.4061         9.6630         7.2291         9.4352      -999.2500         6.5689         7.1981        25.4854         2.6010      -999.2500        18.1427     
 6329.0000         9.4601         8.9371        -0.0266        66.0697         9.6553         7.6697         8.2791      -999.2500         6.7082         7.2555        26.4041         2.5902      -999.2500        17.8899     
 6329.5000         9.4624         8.9307        -0.0292        65.6153         9.6473         8.1765         7.8839      -999.2500         6.5145         7.3354        26.2294         2.5930      -999.2500        19.2452     
 6330.0000         9.4646         8.9399        -0.0233        65.8576         9.6393         8.1655         8.3545      -999.2500         6.2037         7.3375        26.0470         2.6111      -999.2500        19.5661     
 6330.5000         9.4668         8.9491        -0.0162        66.9538        10.6333         8.0898         8.6579      -999.2500         6.3029         7.1979        26.3167         2.6163      -999.2500        18.8321     
 6331.0000         9.4690         8.9436        -0.0165        67.9191         9.9479         8.0335         9.1185      -999.2500         6.3330         6.8846        26.5517         2.6047      -999.2500        17.8342     
 6331.5000         9.4712         8.9275        -0.0116        67.1789         8.9352         8.3843         9.5408      -999.2500         6.3141         7.0153        25.9284         2.5870      -999.2500        17.5143     
 6332.0000         9.4733         8.9267        -0.0164        67.4626         7.9659         8.4337         9.1369      -999.2500         6.1318         6.9133        25.9674         2.5823      -999.2500        17.4356     
 6332.5000         9.4739         8.9459        -0.0276        67.4018         8.3901         8.6334         9.1024      -999.2500         6.1124         6.7638        26.5078         2.5767      -999.2500        17.7010     
 6333.0000         9.4739         8.9451        -0.0339        67.1208         9.8986         8.8126        10.8015      -999.2500         6.4022         6.9780        26.4548         2.5893      -999.2500        19.2045     
 6333.5000         9.4739         8.9443        -0.0315        67.2917        10.0106         9.3007        12.5837      -999.2500         6.7340         7.2037        26.0174         2.5962      -999.2500        17.7861     
 6334.0000         9.4739         8.9535        -0.0246        66.7992        10.2873         9.3850        11.9392      -999.2500         6.8032         7.3080        25.5544         2.5916      -999.2500        16.4947     
 6334.5000         9.4739         8.9627        -0.0185        66.7008        10.4793         9.2409        10.7246      -999.2500         6.7893         7.1948        25.6348         2.5916      -999.2500        17.2805     
 6335.0000         9.4739         8.9719        -0.0188        67.2194        10.6713         8.8061         9.6324      -999.2500         6.7433         7.2014        26.2373         2.5926      -999.2500        18.2287     
 6335.5000         9.4739         8.9611        -0.0136        66.9797        10.8245         8.0506         8.6577      -999.2500         6.7944         7.2920        26.9456         2.6017      -999.2500        16.7880     
 6336.0000         9.4739         8.9904        -0.0114        66.5853        10.2284         7.4421         8.6785      -999.2500         6.8485         7.1956        27.3227         2.6057      -999.2500        16.0851     
 6336.5000         9.4739         8.9996        -0.0199        66.5866         9.0291         7.5870         9.6890      -999.2500         6.7763         7.0973        27.2844         2.6018      -999.2500        17.5453     
 6337.0000         9.4739         8.9988        -0.0239        66.7817         7.7222         7.4413         9.1825      -999.2500         6.5924         7.0993        27.4240         2.6033      -999.2500        18.4577     
 6337.5000         9.4739         8.9980        -0.0213        67.2113         7.8447         7.4466         8.4401      -999.2500         6.4090         6.9756        27.9125         2.6081      -999.2500        17.1499     
 6338.0000         9.4739         9.0172        -0.0157        67.0271         8.5219         8.0385         8.2931      -999.2500         6.2903         6.8686        27.9343         2.6103      -999.2500        17.4011     
 6338.5000         9.4739         9.0164        -0.0172        66.8872         8.5427         8.6329         8.6849      -999.2500         6.3396         6.8968        27.5880         2.5977      -999.2500        18.3272     
 6339.0000         9.4739         8.9993        -0.0220        67.0329         7.9477         9.0569         9.2575      -999.2500         6.3808         6.8914        26.9231         2.5854      -999.2500        16.8933     
 6339.5000         9.4739         8.9948        -0.0191        66.8615         8.1318         9.6496         9.5096      -999.2500         6.4048         6.8662        26.3061         2.5953      -999.2500        17.5892     
 6340.0000         9.4754         9.0140        -0.0249        67.2412         8.3176         9.8827         9.9509      -999.2500         6.4203         6.8537        26.0509         2.5838      -999.2500        18.0539     
 6340.5000         9.4839         9.0298        -0.0212        67.1628         8.0065        10.0401         9.6394      -999.2500         6.4356         6.8556        25.9162         2.5804      -999.2500        17.0927     
 6341.0000         9.4921         9.0124        -0.0212        67.4399         9.1623         9.7776        10.5529      -999.2500         6.4384         6.8574        25.6830         2.5868      -999.2500        16.7133     
 6341.5000         9.4914         9.0116        -0.0229        67.5086         9.1543         9.2451        10.1794      -999.2500         6.3666         6.8592        26.0290         2.5902      -999.2500        17.9291     
 6342.0000         9.4885         9.0208        -0.0207        67.2893         9.5662         9.0644         8.9628      -999.2500         6.1555         6.7310        26.7496         2.5975      -999.2500        18.0982     
 6342.5000         9.4857         9.0230        -0.0173        67.5097        10.0249         9.1111         7.7490      -999.2500         5.9926         6.5890        27.5898         2.5951      -999.2500        15.7411     
 6343.0000         9.4829         9.0293        -0.0242        67.7129         9.0092         8.6670         8.4912      -999.2500         5.8670         6.5558        28.1804         2.5766      -999.2500        16.4773     
