~Version Information Section
VERS.          2.0                                     : CWLS LOG ASCII Standard
WRAP.          NO                                      : One line per depth step
CREA.          03/09/17                                : LAS Creation Date
~Well Information Section
STRT.ft        763.5000                                : Start Depth
STOP.ft        8088.0000                               : Stop Depth
STEP.ft        0.5000                                  : Step
NULL.          -999.2500                               : Null Value
COMP.          OCCIDENTAL PETROLEUM CORP (UK)          : Company
WELL.          15/11-1                                 : Well
FLD .          WILDCAT                                 : Field
LOC .          NORTH SEA                               : Location
LOC1.          -                                       : Location (UTM)
CTRY.          UK                                      : Country
PROV.          UKCS                                    : Province
UWI .          875                                     : UWI Number
API .          -                                       : API Number
SECT.          -                                       : Section
TOWN.          -                                       : Township
RNGE.          -                                       : Range
PDAT.          MSL                                     : Perm Datum
EPD .ft        0.0                                     : Elevation
LMF .          KB                                      : Log Measured From
DMF .          KB                                      : Drill Measured From
APD .ft        54.0                                    : Above Perm Datum
EKB .ft        54.0                                    : Elev-Kelly Bushing
EDF .ft        53.0                                    : Elev-Drill Floor
EGL .ft        -472.0                                  : Elev-Ground Level (Water Depth)
TDD .ft        8095.0                                  : Total Depth (Driller)
TDL .ft        8088.0                                  : Total Depth (Logger)
SRVC.          SCHLUMBERGER                            : Service Company
LATI.          58 30 05.00" N                          : Latitude
LONG.          00 04 35.00" E                          : Longitude
DATE.          03-MAY-1972 - 26-JUN-1972               : Logging Date
PROJ.          UKCS                                    : Project
SET .          COMP_WIRE                               : Set
~Curve Information Section
DEPTH.ft                                               : Depth Curve
CALD.in                                                : Caliper (FDC/CNL/GR)
CALI.in                                                : Caliper (BHC/GR)
DRHO.g/cc                                              : Delta Rho
DT.us/ft                                               : Delta-T
GR.gAPI                                                : Gamma Ray (BHC/GR)
GRD.gAPI                                               : Gamma Ray (FDC/CNL/GR)
GRL.gAPI                                               : Gamma Ray (DLL/GR)
ILD.Ohmm                                               : Deep Induction Standard Processed Resistivity
LLD.Ohmm                                               : Latero-Log Deep (Resistivity)
LLS.Ohmm                                               : Latero-Log Shallow (Resistivity)
NPHI.LPU                                               : Neutron Porosity
RHOB.g/cc                                              : Bulk Density
SN.Ohmm                                                : Short Normal
SP.mV                                                  : Spontaneous Potential
~ASCII Log Data Section
# ...
 7765.5000         8.6338         8.1639        -0.0394        92.8515       103.3624       102.2594        99.1399      -999.2500         7.8448         8.2632        57.9094         2.3825      -999.2500        40.8346     
 7766.0000         8.6328         8.1883        -0.0406       102.5747        94.3361        97.8030        89.2616      -999.2500         6.8625         7.8129        61.4494         2.3404      -999.2500        41.8799     
 7766.5000         8.6367         8.1486        -0.0284       108.2025        82.9910        93.7650        82.8131      -999.2500         6.6575         6.9698        64.7040         2.2778      -999.2500        43.7050     
 7767.0000         8.6407         8.1735        -0.0044       102.5645        75.6550        91.2321        79.0327      -999.2500         6.3526         6.6238        60.1761         2.2593      -999.2500        42.9432     
 7767.5000         8.6446         8.2115        -0.0100        93.8478        72.1382        90.2846        83.4401      -999.2500         6.7129         6.8137        48.3926         2.3829      -999.2500        43.4876     
 7768.0000         8.6486         8.2119        -0.0132        85.7672        95.1023        99.8527        93.8083      -999.2500         7.7060         8.1739        45.0318         2.4922      -999.2500        43.9129     
 7768.5000         8.6525         8.2122        -0.0102        81.6291        98.3697       103.5438       106.5741      -999.2500         8.6913         9.3331        42.4825         2.5095      -999.2500        43.7565     
 7769.0000         8.6626         8.2126        -0.0159        80.8980       112.6618       109.5211       113.7089      -999.2500         8.4988         8.5299        36.2852         2.5036      -999.2500        43.6001     
 7769.5000         8.6775         8.2489        -0.0153        80.4440       118.1242       108.4303       110.6150      -999.2500         7.9600         7.1497        34.8894         2.4935      -999.2500        43.4768     
 7770.0000         8.6924         8.2345        -0.0068        80.0740       110.6862       103.7408       104.2234      -999.2500         6.4848         6.5480        32.7182         2.5090      -999.2500        43.3713     
 7770.5000         8.6597         8.1409         0.0032        79.6351       101.8989        98.9139        99.4120      -999.2500         4.0645         5.1637        29.0036         2.5367      -999.2500        44.1918     
 7771.0000         8.6185         8.1846         0.0115        78.0324        96.6363        96.3169        96.9286      -999.2500         2.9232         3.9458        25.7970         2.5466      -999.2500        45.2253     
 7771.5000         8.6196         8.2144         0.0075        76.5819        96.6114        99.1759        94.3644      -999.2500         2.7329         3.3583        24.4184         2.5370      -999.2500        45.9735     
 7772.0000         8.6260         8.1668        -0.0027        76.7040        98.3919       102.6751        96.9424      -999.2500         2.9099         3.3561        25.7122         2.5413      -999.2500        44.8503     
 7772.5000         8.6331         8.1350        -0.0028        77.2726        99.1396       105.9282       101.2679      -999.2500         3.4509         3.7763        27.8142         2.5558      -999.2500        42.6251     
 7773.0000         8.6435         8.2126        -0.0105        78.2099       103.7195       108.0691       106.8733      -999.2500         4.5607         4.9268        30.2785         2.5838      -999.2500        42.3765     
 7773.5000         8.6794         8.2846        -0.0230        79.4226       109.7546       110.0757       113.7851      -999.2500         6.6647         6.5715        33.8221         2.5894      -999.2500        45.9896     
 7774.0000         8.6734         8.2495        -0.0276        81.1201       118.0653       114.1465       114.9044      -999.2500         8.3142         8.1367        37.1166         2.5709      -999.2500        44.5158     
 7774.5000         8.6682         8.2728        -0.0195        80.0823       121.9807       116.3421       118.0520      -999.2500         8.4151         9.2894        37.1016         2.5646      -999.2500        42.9858     
 7775.0000         8.6994         8.3727        -0.0132        79.6183       119.1101       115.9886       119.7567      -999.2500         8.5512         9.1911        36.2412         2.5711      -999.2500        40.9410     
 7775.5000         8.7993         8.5354        -0.0111        79.5567       116.4167       114.9329       115.5457      -999.2500         8.9485         9.0342        35.4155         2.5723      -999.2500        39.3471     
 7776.0000         8.8978         8.5689        -0.0091        80.6731       114.5023       114.0745       113.7862      -999.2500         9.0128         8.9742        35.0450         2.5462      -999.2500        38.3402     
 7776.5000         8.9226         8.4086        -0.0087        81.1515       114.7281       113.6270       113.0383      -999.2500         9.3207         9.1113        34.4981         2.5304      -999.2500        37.4537     
 7777.0000         8.8563         8.2041        -0.0111        80.3215       117.5198       111.8867       115.1382      -999.2500        10.1202         9.3212        33.4706         2.5243      -999.2500        36.6015     
 7777.5000         8.7340         8.2164        -0.0158        80.2611       116.7128       110.0222       115.6696      -999.2500        10.8305         9.8861        31.8466         2.5181      -999.2500        34.6778     
 7778.0000         8.6699         8.2769        -0.0221        79.8879       115.0798       108.0730       112.9696      -999.2500         9.5215         9.1749        28.9869         2.5187      -999.2500        33.1042     
 7778.5000         8.6506         8.2550        -0.0288        78.4263       112.3791       105.4790       107.8247      -999.2500         7.2613         7.8375        26.1697         2.5204      -999.2500        31.8683     
 7779.0000         8.6506         8.2210        -0.0299        76.9624       107.7188        99.8719        99.6908      -999.2500         6.3459         5.8685        23.7438         2.5019      -999.2500        31.4843     
 7779.5000         8.6481         8.1855        -0.0280        76.5224       103.8907        93.4433        89.4698      -999.2500         5.6638         4.9820        22.4330         2.4906      -999.2500        32.3003     
 7780.0000         8.5943         8.1473        -0.0219        76.9444        93.3816        86.1568        84.4081      -999.2500         4.5938         3.6753        21.7359         2.4859      -999.2500        34.2771     
 7780.5000         8.4998         8.1028        -0.0149        78.0236        76.4050        78.1774        76.6351      -999.2500         3.4660         3.1210        21.5297         2.4814      -999.2500        37.2094     
 7781.0000         8.4770         8.0820        -0.0189        79.6643        64.4801        70.2697        70.6968      -999.2500         2.5016         2.6065        21.3913         2.4668      -999.2500        36.3866     
 7781.5000         8.4811         8.0623        -0.0219        78.9607        56.2228        63.3280        63.1262      -999.2500         1.9149         2.2979        21.0072         2.4366      -999.2500        34.6232     
 7782.0000         8.4891         8.0503        -0.0141        79.7858        53.3588        58.6549        55.3896      -999.2500         1.5053         2.0595        20.2620         2.4265      -999.2500        34.9592     
 7782.5000         8.4971         8.0420        -0.0175        80.8217        51.0114        55.6240        53.1866      -999.2500         1.5037         1.9295        19.5868         2.4218      -999.2500        36.8658     
 7783.0000         8.5051         8.0442        -0.0175        81.5224        49.3887        55.6391        53.4594      -999.2500         1.4704         1.5360        19.2214         2.4085      -999.2500        39.1047     
