~Version Information Section
VERS.          2.0                                     : CWLS LOG ASCII Standard
WRAP.          NO                                      : One line per depth step
CREA.          03/09/17                                : LAS Creation Date
~Well Information Section
STRT.ft        763.5000                                : Start Depth
STOP.ft        8088.0000                               : Stop Depth
STEP.ft        0.5000                                  : Step
NULL.          -999.2500                               : Null Value
COMP.          OCCIDENTAL PETROLEUM CORP (UK)          : Company
WELL.          15/11-1                                 : Well
FLD .          WILDCAT                                 : Field
LOC .          NORTH SEA                               : Location
LOC1.          -                                       : Location (UTM)
CTRY.          UK                                      : Country
PROV.          UKCS                                    : Province
UWI .          875                                     : UWI Number
API .          -                                       : API Number
SECT.          -                                       : Section
TOWN.          -                                       : Township
RNGE.          -                                       : Range
PDAT.          MSL                                     : Perm Datum
EPD .ft        0.0                                     : Elevation
LMF .          KB                                      : Log Measured From
DMF .          KB                                      : Drill Measured From
APD .ft        54.0                                    : Above Perm Datum
EKB .ft        54.0                                    : Elev-Kelly Bushing
EDF .ft        53.0                                    : Elev-Drill Floor
EGL .ft        -472.0                                  : Elev-Ground Level (Water Depth)
TDD .ft        8095.0                                  : Total Depth (Driller)
TDL .ft        8088.0                                  : Total Depth (Logger)
SRVC.          SCHLUMBERGER                            : Service Company
LATI.          58 30 05.00" N                          : Latitude
LONG.          00 04 35.00" E                          : Longitude
DATE.          03-MAY-1972 - 26-JUN-1972               : Logging Date
PROJ.          UKCS                                    : Project
SET .          COMP_WIRE                               : Set
~Curve Information Section
DEPTH.ft                                               : Depth Curve
CALD.in                                                : Caliper (FDC/CNL/GR)
CALI.in                                                : Caliper (BHC/GR)
DRHO.g/cc                                              : Delta Rho
DT.us/ft                                               : Delta-T
GR.gAPI                                                : Gamma Ray (BHC/GR)
GRD.gAPI                                               : Gamma Ray (FDC/CNL/GR)
GRL.gAPI                                               : Gamma Ray (DLL/GR)
ILD.Ohmm                                               : Deep Induction Standard Processed Resistivity
LLD.Ohmm                                               : Latero-Log Deep (Resistivity)
LLS.Ohmm                                               : Latero-Log Shallow (Resistivity)
NPHI.LPU                                               : Neutron Porosity
RHOB.g/cc                                              : Bulk Density
SN.Ohmm                                                : Short Normal
SP.mV                                                  : Spontaneous Potential
~ASCII Log Data Section
# ...
 6037.5000        11.6469        11.0044        -0.0102        72.0516        11.1222         7.4313         9.5744      -999.2500         3.9294         4.4204        38.5369         2.5245      -999.2500        25.7604     
 6038.0000        11.6056        10.9850        -0.0133        70.8901        11.1062         7.3047         8.5499      -999.2500         3.7832         4.1343        38.0597         2.5510      -999.2500        25.9161     
 6038.5000        11.5987        10.9655        -0.0157        70.7131        11.2906         7.8952         8.3712      -999.2500         3.7460         3.8708        37.3515         2.5438      -999.2500        23.5304     
 6039.0000        11.5921        10.9450        -0.0176        71.5020        11.2745         8.4951         8.1898      -999.2500         3.4665         3.6718        35.6857         2.5310      -999.2500        26.2899     
 6039.5000        11.5866        10.9194        -0.0192        71.9133        11.0581         9.1016         8.5904      -999.2500         3.3772         3.4246        36.9303         2.5300      -999.2500        32.5720     
 6040.0000        11.5798        10.8937        -0.0194        73.9616        11.0421         9.1057         8.9248      -999.2500         3.1866         3.2281        38.3286         2.5273      -999.2500        36.6021     
 6040.5000        11.5438        10.8680        -0.0148        72.3346        10.6253         8.4337         8.2925      -999.2500         3.0409         3.0880        37.6434         2.5253      -999.2500        30.7574     
 6041.0000        11.5171        10.8423        -0.0187        70.6594        10.2084         8.0129         7.7537      -999.2500         3.0519         3.0626        37.6455         2.5184      -999.2500        22.1496     
 6041.5000        11.4911        10.8167        -0.0213        71.9928         9.7916         6.9927         7.6298      -999.2500         2.7786         3.2354        38.2759         2.5176      -999.2500        21.5478     
 6042.0000        11.4651        10.7933        -0.0168        69.0743         9.5752         6.2562         7.0740      -999.2500         2.6269         3.2445        37.5956         2.5273      -999.2500        23.6112     
 6042.5000        11.4391        10.7745        -0.0210        67.9849         8.8005         5.7394         6.8413      -999.2500         2.5432         2.9048        36.6215         2.5381      -999.2500        25.9318     
 6043.0000        11.4247        10.7557        -0.0229        67.8804         7.7395         5.2280         6.9485      -999.2500         2.5201         2.6846        35.5637         2.5382      -999.2500        25.3237     
 6043.5000        11.4243        10.7369        -0.0179        67.3420         7.5230         4.9448         6.7915      -999.2500         2.6426         2.7216        36.2400         2.5411      -999.2500        29.1127     
 6044.0000        11.4241        10.7182        -0.0227        68.0942         7.7074         5.4204         6.3337      -999.2500         2.6931         2.8047        37.1418         2.5213      -999.2500        27.6330     
 6044.5000        11.4309        10.6994        -0.0256        67.7375         8.8766         6.8750         6.6225      -999.2500         2.6741         2.8697        37.1586         2.5219      -999.2500        35.6856     
 6045.0000        11.4420        10.6806        -0.0233        69.2732         9.2786         8.6352         7.7763      -999.2500         2.6531         2.8203        36.9948         2.5230      -999.2500        36.2334     
 6045.5000        11.4532        10.6677        -0.0229        71.9872         9.6633        10.1915         9.2402      -999.2500         3.0911         2.7036        38.5059         2.5130      -999.2500        36.4910     
 6046.0000        11.4643        10.6661        -0.0158        75.5095         9.8477        10.8719         9.7932      -999.2500         3.3401         3.1448        44.0396         2.5120      -999.2500        36.9401     
 6046.5000        11.4754        10.6645        -0.0150        79.0579         9.8317        10.5505        10.3474      -999.2500         3.3768         3.3781        46.9065         2.5175      -999.2500        36.3901     
 6047.0000        11.4766        10.6574        -0.0136        76.1364        10.7841         9.9396        10.8444      -999.2500         3.5000         3.4857        45.0635         2.5258      -999.2500        30.6401     
 6047.5000        11.4556        10.6493        -0.0198        74.5474        11.8036         9.8625        11.2327      -999.2500         3.6924         3.7326        39.7996         2.5215      -999.2500        25.5992     
 6048.0000        11.4341        10.6412        -0.0167        73.9541        11.2372        10.1988        11.9235      -999.2500         3.4946         3.5666        36.8079         2.5225      -999.2500        27.5282     
 6048.5000        11.4226        10.6331        -0.0121        75.7467        10.0681        11.1113        12.5279      -999.2500         3.2309         3.3100        37.7811         2.5118      -999.2500        31.3513     
 6049.0000        11.4223        10.6250        -0.0149        79.0795        12.4643        12.2497        12.5942      -999.2500         3.2752         3.3286        39.6401         2.5053      -999.2500        34.6087     
 6049.5000        11.4221        10.6169        -0.0089        80.6337        13.6619        13.3374        12.2742      -999.2500         3.7105         3.3488        39.6226         2.5194      -999.2500        29.3547     
 6050.0000        11.4219        10.6483        -0.0034        79.9317        14.0761        12.6136        12.2425      -999.2500         4.1358         3.4166        40.7292         2.5177      -999.2500        33.3968     
 6050.5000        11.4217        10.6841         0.0007        79.4138        14.1180        10.9574        12.9660      -999.2500         4.1135         3.7796        42.1364         2.5184      -999.2500        33.6596     
 6051.0000        11.4065        10.7065         0.0030        76.9915        14.5084        10.1068        13.0763      -999.2500         4.0614         4.0829        41.5980         2.5279      -999.2500        33.5221     
 6051.5000        11.3787        10.6532         0.0021        74.0562        13.8055        10.0867        11.8830      -999.2500         4.0503         4.2074        39.9955         2.5479      -999.2500        38.9371     
 6052.0000        11.3712        10.5587         0.0038        71.3759        13.0851        10.8256        12.1513      -999.2500         3.9697         4.0640        38.3564         2.5571      -999.2500        42.2449     
 6052.5000        11.3712        10.5451         0.0083        73.5006        13.4756        12.1160        12.2793      -999.2500         3.7242         3.8503        37.7178         2.5791      -999.2500        40.0083     
 6053.0000        11.3204        10.5375        -0.0048        75.6352        13.4653        13.3440        12.8687      -999.2500         3.2770         3.5114        38.6900         2.5571      -999.2500        29.4062     
 6053.5000        11.2720        10.5288        -0.0170        78.1078        13.6554        13.7969        12.9293      -999.2500         3.5310         3.4226        39.9934         2.5220      -999.2500        29.5738     
 6054.0000        11.2588        10.5202        -0.0204        81.5054        13.6451        13.5543        10.6961      -999.2500         3.9631         3.7267        41.4119         2.5111      -999.2500        34.0668     
 6054.5000        11.2552        10.5086        -0.0263        76.6578        13.6348        12.1996         9.9288      -999.2500         4.0532         4.0902        42.5926         2.5149      -999.2500        40.6515     
 6055.0000        11.2515        10.4949        -0.0226        74.7305        11.9127        10.6446        10.4748      -999.2500         3.8854         4.2375        43.0095         2.5284      -999.2500        42.2562     
