~Version Information Section
VERS.          2.0                                     : CWLS LOG ASCII Standard
WRAP.          NO                                      : One line per depth step
CREA.          03/09/17                                : LAS Creation Date
~Well Information Section
STRT.ft        763.5000                                : Start Depth
STOP.ft        8088.0000                               : Stop Depth
STEP.ft        0.5000                                  : Step
NULL.          -999.2500                               : Null Value
COMP.          OCCIDENTAL PETROLEUM CORP (UK)          : Company
WELL.          15/11-1                                 : Well
FLD .          WILDCAT                                 : Field
LOC .          NORTH SEA                               : Location
LOC1.          -                                       : Location (UTM)
CTRY.          UK                                      : Country
PROV.          UKCS                                    : Province
UWI .          875                                     : UWI Number
API .          -                                       : API Number
SECT.          -                                       : Section
TOWN.          -                                       : Township
RNGE.          -                                       : Range
PDAT.          MSL                                     : Perm Datum
EPD .ft        0.0                                     : Elevation
LMF .          KB                                      : Log Measured From
DMF .          KB                                      : Drill Measured From
APD .ft        54.0                                    : Above Perm Datum
EKB .ft        54.0                                    : Elev-Kelly Bushing
EDF .ft        53.0                                    : Elev-Drill Floor
EGL .ft        -472.0                                  : Elev-Ground Level (Water Depth)
TDD .ft        8095.0                                  : Total Depth (Driller)
TDL .ft        8088.0                                  : Total Depth (Logger)
SRVC.          SCHLUMBERGER                            : Service Company
LATI.          58 30 05.00" N                          : Latitude
LONG.          00 04 35.00" E                          : Longitude
DATE.          03-MAY-1972 - 26-JUN-1972               : Logging Date
PROJ.          UKCS                                    : Project
SET .          COMP_WIRE                               : Set
~Curve Information Section
DEPTH.ft                                               : Depth Curve
CALD.in                                                : Caliper (FDC/CNL/GR)
CALI.in                                                : Caliper (BHC/GR)
DRHO.g/cc                                              : Delta Rho
DT.us/ft                                               : Delta-T
GR.gAPI                                                : Gamma Ray (BHC/GR)
GRD.gAPI                                               : Gamma Ray (FDC/CNL/GR)
GRL.gAPI                                               : Gamma Ray (DLL/GR)
ILD.Ohmm                                               : Deep Induction Standard Processed Resistivity
LLD.Ohmm                                               : Latero-Log Deep (Resistivity)
LLS.Ohmm                                               : Latero-Log Shallow (Resistivity)
NPHI.LPU                                               : Neutron Porosity
RHOB.g/cc                                              : Bulk Density
SN.Ohmm                                                : Short Normal
SP.mV                                                  : Spontaneous Potential
~ASCII Log Data Section
# ...
 6181.5000        10.0043         9.4161        -0.0191        78.0960        21.8956        21.4588        23.1516      -999.2500         4.3192         5.5669        33.5879         2.6199      -999.2500        24.7054     
 6182.0000        10.0235         9.4627        -0.0234        76.1782        22.2324        21.3364        23.8251      -999.2500         4.9125         6.0948        35.2968         2.5999      -999.2500        23.0646     
 6182.5000        10.0427         9.5035        -0.0234        76.0054        20.9731        21.2444        21.9488      -999.2500         4.9056         6.7510        36.7757         2.5911      -999.2500        21.6883     
 6183.0000        10.0618         9.4704        -0.0172        71.6493        20.1025        20.1952        18.0885      -999.2500         4.2920         6.4515        34.9659         2.6081      -999.2500        22.3718     
 6183.5000        10.0810         9.4724        -0.0040        72.8875        20.3564        19.2429        15.2653      -999.2500         4.1578         5.8964        31.5363         2.6320      -999.2500        23.5059     
 6184.0000        10.1002         9.5080         0.0040        73.8585        21.8059        19.3751        16.2152      -999.2500         5.0698         5.4376        32.3918         2.6350      -999.2500        25.3112     
 6184.5000        10.1194         9.5854        -0.0182        77.7456        23.2452        19.6086        18.3239      -999.2500         5.6087         5.2488        37.3082         2.5933      -999.2500        22.1706     
 6185.0000        10.1527         9.6070        -0.0110        74.2469        22.7349        17.6097        17.7234      -999.2500         5.2714         5.9991        37.0428         2.6024      -999.2500        20.1010     
 6185.5000        10.1961         9.5856        -0.0086        71.2298        20.6013        15.1733        14.7973      -999.2500         5.2331         6.5798        31.9664         2.6227      -999.2500        20.6569     
 6186.0000        10.2091         9.6143        -0.0139        71.3338        17.1328        14.6324        13.5622      -999.2500         4.8366         6.1084        30.7108         2.6083      -999.2500        21.6333     
 6186.5000        10.2394         9.6431        -0.0074        72.5108        17.2959        15.4545        14.9038      -999.2500         3.9680         5.0364        34.9451         2.5795      -999.2500        26.3121     
 6187.0000        10.2896         9.7400        -0.0218        79.3275        18.8523        16.3500        16.2422      -999.2500         4.7742         5.2812        42.5810         2.5436      -999.2500        25.5085     
 6187.5000        10.3394         9.7805        -0.0260        73.8528        19.4099        16.3834        17.1940      -999.2500         4.8471         5.1472        43.0174         2.5437      -999.2500        20.5055     
 6188.0000        10.3683         9.8092        -0.0297        73.0166        19.2669        15.3280        16.6046      -999.2500         4.9901         5.1762        39.2378         2.5666      -999.2500        20.4717     
 6188.5000        10.3721         9.8174        -0.0280        72.1782        16.9494        14.7657        15.6541      -999.2500         4.6502         5.3323        36.7631         2.5666      -999.2500        19.9432     
 6189.0000        10.4047         9.8958        -0.0242        70.0703        14.9748        14.1400        15.5814      -999.2500         4.8314         5.7063        36.9406         2.5777      -999.2500        21.5177     
 6189.5000        10.4440         9.9354        -0.0285        73.3120        14.9176        13.3769        15.6432      -999.2500         4.9576         5.1806        37.6646         2.5569      -999.2500        22.2993     
 6190.0000        10.4830         9.9639        -0.0123        71.5492        14.7972        11.5899        13.4583      -999.2500         5.0579         5.4726        36.1290         2.5698      -999.2500        21.0389     
 6190.5000        10.5220        10.0128        -0.0114        70.9141        14.4895        10.7324        13.8255      -999.2500         4.9628         5.1530        35.7829         2.5630      -999.2500        20.5186     
 6191.0000        10.5611        10.0316        -0.0176        72.3073        16.5484        11.8299        15.0868      -999.2500         4.3748         4.5039        36.7756         2.5591      -999.2500        21.2532     
 6191.5000        10.6001        10.0503        -0.0230        71.5660        17.4508        13.0423        16.1927      -999.2500         4.1199         4.2861        37.7660         2.5672      -999.2500        21.0930     
 6192.0000        10.6448        10.0490        -0.0237        72.0625        17.4533        13.7538        15.9951      -999.2500         3.7652         4.0541        38.7683         2.5652      -999.2500        21.3734     
 6192.5000        10.7050        10.1884        -0.0310        75.2204        17.1491        13.2274        14.7121      -999.2500         3.5973         3.8049        41.5734         2.5479      -999.2500        22.2334     
 6193.0000        10.7533        10.2571        -0.0247        78.3128        15.2890        11.8946        13.5119      -999.2500         3.6523         3.6865        44.5572         2.5413      -999.2500        25.6633     
 6193.5000        10.7909        10.2653        -0.0084        78.3974        14.8078        11.2193        14.0004      -999.2500         3.8242         3.6592        47.7660         2.5387      -999.2500        23.2587     
 6194.0000        10.8115        10.3148        -0.0065        76.0623        14.7940        10.6192        15.6699      -999.2500         4.0009         3.7466        49.6268         2.5421      -999.2500        26.0739     
 6194.5000        10.8192        10.3428        -0.0202        72.2910        14.4851         9.5432        13.5275      -999.2500         4.2366         3.9375        45.7355         2.5512      -999.2500        32.2230     
 6195.0000        10.8267        10.3716        -0.0203        68.2802        13.0803         7.7781         9.4566      -999.2500         4.4825         4.2651        40.2997         2.5570      -999.2500        30.0225     
 6195.5000        10.8320        10.3803        -0.0186        65.5025        10.7669         6.7496         7.2754      -999.2500         4.4461         4.2676        34.9720         2.5635      -999.2500        25.8664     
 6196.0000        10.8359        10.4090        -0.0156        67.1399         8.8238         6.1730         6.0360      -999.2500         4.5210         4.1699        35.5593         2.5504      -999.2500        19.7291     
 6196.5000        10.8398        10.4191        -0.0214        67.4668         8.4303         6.2594         6.3526      -999.2500         4.7852         4.1447        37.0853         2.5374      -999.2500        19.6457     
 6197.0000        10.8437        10.4264        -0.0275        67.4075         7.9566         6.0096         6.4351      -999.2500         5.0439         4.2818        39.3217         2.5367      -999.2500        21.0718     
 6197.5000        10.8476        10.4351        -0.0260        67.3258         7.4950         5.7095         6.1862      -999.2500         5.1527         4.5160        40.3455         2.5405      -999.2500        21.5476     
 6198.0000        10.8497        10.4318        -0.0293        67.0155         8.2517         5.9842         6.9695      -999.2500         5.1492         4.6171        39.9913         2.5399      -999.2500        20.9662     
 6198.5000        10.8497        10.4425        -0.0317        66.9069         9.1403         6.0120         7.6714      -999.2500         5.2662         4.8635        38.8378         2.5323      -999.2500        21.1540     
 6199.0000        10.8497        10.4312        -0.0283        66.4751        10.0282         6.0230         8.7366      -999.2500         5.5522         5.1120        38.2412         2.5322      -999.2500        19.8859     
