~Version Information Section
VERS.          2.0                                     : CWLS LOG ASCII Standard
WRAP.          NO                                      : One line per depth step
CREA.          03/09/17                                : LAS Creation Date
~Well Information Section
STRT.ft        763.5000                                : Start Depth
STOP.ft        8088.0000                               : Stop Depth
STEP.ft        0.5000                                  : Step
NULL.          -999.2500                               : Null Value
COMP.          OCCIDENTAL PETROLEUM CORP (UK)          : Company
WELL.          15/11-1                                 : Well
FLD .          WILDCAT                                 : Field
LOC .          NORTH SEA                               : Location
LOC1.          -                                       : Location (UTM)
CTRY.          UK                                      : Country
PROV.          UKCS                                    : Province
UWI .          875                                     : UWI Number
API .          -                                       : API Number
SECT.          -                                       : Section
TOWN.          -                                       : Township
RNGE.          -                                       : Range
PDAT.          MSL                                     : Perm Datum
EPD .ft        0.0                                     : Elevation
LMF .          KB                                      : Log Measured From
DMF .          KB                                      : Drill Measured From
APD .ft        54.0                                    : Above Perm Datum
EKB .ft        54.0                                    : Elev-Kelly Bushing
EDF .ft        53.0                                    : Elev-Drill Floor
EGL .ft        -472.0                                  : Elev-Ground Level (Water Depth)
TDD .ft        8095.0                                  : Total Depth (Driller)
TDL .ft        8088.0                                  : Total Depth (Logger)
SRVC.          SCHLUMBERGER                            : Service Company
LATI.          58 30 05.00" N                          : Latitude
LONG.          00 04 35.00" E                          : Longitude
DATE.          03-MAY-1972 - 26-JUN-1972               : Logging Date
PROJ.          UKCS                                    : Project
SET .          COMP_WIRE                               : Set
~Curve Information Section
DEPTH.ft                                               : Depth Curve
CALD.in                                                : Caliper (FDC/CNL/GR)
CALI.in                                                : Caliper (BHC/GR)
DRHO.g/cc                                              : Delta Rho
DT.us/ft                                               : Delta-T
GR.gAPI                                                : Gamma Ray (BHC/GR)
GRD.gAPI                                               : Gamma Ray (FDC/CNL/GR)
GRL.gAPI                                               : Gamma Ray (DLL/GR)
ILD.Ohmm                                               : Deep Induction Standard Processed Resistivity
LLD.Ohmm                                               : Latero-Log Deep (Resistivity)
LLS.Ohmm                                               : Latero-Log Shallow (Resistivity)
NPHI.LPU                                               : Neutron Porosity
RHOB.g/cc                                              : Bulk Density
SN.Ohmm                                                : Short Normal
SP.mV                                                  : Spontaneous Potential
~ASCII Log Data Section
# ...
 6469.5000         8.6305         8.1900        -0.0173        92.7000        42.4908        36.5323        33.9759      -999.2500         0.4918         0.3966        82.1561         2.2124      -999.2500        37.4213     
 6470.0000         8.6305         8.1894        -0.0116        92.6912        40.8112        37.9079        34.1531      -999.2500         0.4948         0.3843        82.1628         2.2257      -999.2500        41.4871     
 6470.5000         8.6305         8.1868        -0.0160        92.0605        38.2298        39.3134        33.4561      -999.2500         0.4967         0.3774        82.1695         2.2199      -999.2500        46.6757     
 6471.0000         8.6305         8.1829        -0.0171        91.2796        37.7670        40.1000        32.3455      -999.2500         0.4919         0.3772        82.1763         2.2093      -999.2500        48.2272     
 6471.5000         8.6305         8.1790        -0.0133        90.8891        38.1182        40.2640        31.3208      -999.2500         0.4844         0.3791        82.1830         2.2093      -999.2500        34.6522     
 6472.0000         8.6305         8.1752        -0.0102        91.3783        38.3925        41.4640        33.1154      -999.2500         0.4973         0.3762        82.1898         2.2106      -999.2500        34.0614     
 6472.5000         8.6305         8.1713        -0.0105        92.1156        37.5013        43.1479        36.3080      -999.2500         0.4975         0.3700        82.1965         2.2145      -999.2500        34.8273     
 6473.0000         8.6305         8.1674        -0.0137        92.4199        41.1003        43.5570        39.5349      -999.2500         0.5024         0.3711        82.1966         2.2178      -999.2500        37.1275     
 6473.5000         8.6305         8.1629        -0.0150        92.5081        43.1412        43.9750        41.7294      -999.2500         0.5035         0.3679        82.1897         2.2145      -999.2500        37.2348     
 6474.0000         8.6277         8.1577        -0.0136        92.0810        42.5818        43.5863        41.5577      -999.2500         0.4943         0.3693        82.1827         2.2168      -999.2500        36.0829     
 6474.5000         8.6244         8.1524        -0.0167        91.9425        41.7990        43.5743        41.1664      -999.2500         0.4930         0.3717        82.1758         2.2085      -999.2500        36.4419     
 6475.0000         8.6211         8.1472        -0.0216        92.3418        42.9860        44.1069        40.2580      -999.2500         0.5003         0.3684        82.1689         2.2113      -999.2500        36.2112     
 6475.5000         8.6178         8.1497        -0.0248        92.4029        41.8903        43.9946        40.7895      -999.2500         0.5001         0.3572        82.1619         2.2122      -999.2500        39.9482     
 6476.0000         8.6144         8.1944        -0.0254        92.3262        42.9608        43.2511        42.7000      -999.2500         0.4966         0.3605        82.1550         2.2048      -999.2500        35.3401     
 6476.5000         8.6111         8.2266        -0.0183        92.3497        44.3048        42.2394        42.9814      -999.2500         0.4811         0.3556        82.1481         2.2040      -999.2500        35.2754     
 6477.0000         8.6118         8.2411        -0.0221        92.8757        44.2645        42.0193        42.5679      -999.2500         0.4725         0.3591        82.1411         2.1997      -999.2500        37.6607     
 6477.5000         8.6135         8.2270        -0.0243        93.0980        44.6593        42.3138        40.0754      -999.2500         0.4840         0.3704        82.1342         2.2038      -999.2500        37.5734     
 6478.0000         8.6152         8.2097        -0.0176        92.4864        44.8537        42.1337        39.4978      -999.2500         0.5072         0.3789        82.1272         2.2190      -999.2500        36.4731     
 6478.5000         8.6169         8.1940        -0.0230        91.4475        44.0138        40.7587        41.0522      -999.2500         0.5255         0.3815        82.1203         2.2221      -999.2500        36.1111     
 6479.0000         8.6186         8.1788        -0.0244        90.1487        40.2778        39.9555        42.5708      -999.2500         0.5376         0.3823        82.1134         2.2321      -999.2500        35.0670     
 6479.5000         8.6204         8.1932        -0.0206        88.4865        34.7836        39.4296        42.8635      -999.2500         0.5456         0.3861        82.1064         2.2431      -999.2500        34.5258     
 6480.0000         8.6221         8.1974        -0.0187        88.5169        34.0106        38.1955        43.1251      -999.2500         0.5326         0.3906        82.0995         2.2504      -999.2500        35.0401     
 6480.5000         8.6238         8.2029        -0.0161        88.1346        34.8809        36.5819        42.5468      -999.2500         0.5371         0.3881        82.0925         2.2511      -999.2500        35.7738     
 6481.0000         8.6255         8.2318        -0.0132        88.2063        35.7996        35.0568        40.3177      -999.2500         0.5469         0.3773        82.0856         2.2470      -999.2500        36.4984     
 6481.5000         8.6272         8.2222        -0.0130        88.9092        36.1944        33.6305        37.5813      -999.2500         0.5435         0.3686        82.0817         2.2362      -999.2500        36.2874     
 6482.0000         8.6289         8.1749        -0.0174        89.6481        36.3888        32.5834        35.9240      -999.2500         0.4958         0.3793        82.0873         2.2334      -999.2500        35.2125     
 6482.5000         8.6302         8.1743        -0.0232        90.3042        36.5832        32.5301        34.4891      -999.2500         0.5210         0.4281        82.0935         2.2240      -999.2500        34.7107     
 6483.0000         8.6285         8.1737        -0.0298        90.6498        37.1171        32.6206        31.0308      -999.2500         0.5017         0.4378        82.0996         2.2091      -999.2500        35.7035     
 6483.5000         8.6266         8.1731        -0.0274        90.2328        37.1723        33.7618        28.7258      -999.2500         0.5243         0.3814        82.1058         2.2087      -999.2500        37.6970     
 6484.0000         8.6247         8.1549        -0.0178        89.6385        37.0186        35.6097        28.1909      -999.2500         0.5234         0.3747        82.1120         2.2266      -999.2500        45.2428     
 6484.5000         8.6228         8.1166        -0.0124        89.2233        35.8909        36.1606        29.7853      -999.2500         0.4996         0.3726        82.1181         2.2310      -999.2500        35.0716     
 6485.0000         8.6209         8.0819        -0.0108        89.5020        34.1644        36.5147        32.2958      -999.2500         0.5083         0.3802        82.1243         2.2363      -999.2500        34.8886     
 6485.5000         8.6190         8.0572        -0.0100        89.5722        33.8762        36.4073        33.2376      -999.2500         0.5142         0.3825        82.1304         2.2472      -999.2500        36.1343     
 6486.0000         8.6171         8.0412        -0.0106        89.6385        36.8224        36.3457        34.0446      -999.2500         0.5066         0.3814        82.1366         2.2443      -999.2500        36.8898     
 6486.5000         8.6152         8.0299        -0.0142        89.7020        35.9913        36.4780        35.1779      -999.2500         0.5137         0.3755        81.9624         2.2343      -999.2500        36.6218     
 6487.0000         8.6133         8.0393        -0.0179        89.7097        36.3515        37.9430        35.2879      -999.2500         0.5169         0.3699        81.7724         2.2313      -999.2500        35.4655     
