~Version Information Section
VERS.          2.0                                     : CWLS LOG ASCII Standard
WRAP.          NO                                      : One line per depth step
CREA.          03/09/17                                : LAS Creation Date
~Well Information Section
STRT.ft        763.5000                                : Start Depth
STOP.ft        8088.0000                               : Stop Depth
STEP.ft        0.5000                                  : Step
NULL.          -999.2500                               : Null Value
COMP.          OCCIDENTAL PETROLEUM CORP (UK)          : Company
WELL.          15/11-1                                 : Well
FLD .          WILDCAT                                 : Field
LOC .          NORTH SEA                               : Location
LOC1.          -                                       : Location (UTM)
CTRY.          UK                                      : Country
PROV.          UKCS                                    : Province
UWI .          875                                     : UWI Number
API .          -                                       : API Number
SECT.          -                                       : Section
TOWN.          -                                       : Township
RNGE.          -                                       : Range
PDAT.          MSL                                     : Perm Datum
EPD .ft        0.0                                     : Elevation
LMF .          KB                                      : Log Measured From
DMF .          KB                                      : Drill Measured From
APD .ft        54.0                                    : Above Perm Datum
EKB .ft        54.0                                    : Elev-Kelly Bushing
EDF .ft        53.0                                    : Elev-Drill Floor
EGL .ft        -472.0                                  : Elev-Ground Level (Water Depth)
TDD .ft        8095.0                                  : Total Depth (Driller)
TDL .ft        8088.0                                  : Total Depth (Logger)
SRVC.          SCHLUMBERGER                            : Service Company
LATI.          58 30 05.00" N                          : Latitude
LONG.          00 04 35.00" E                          : Longitude
DATE.          03-MAY-1972 - 26-JUN-1972               : Logging Date
PROJ.          UKCS                                    : Project
SET .          COMP_WIRE                               : Set
~Curve Information Section
DEPTH.ft                                               : Depth Curve
CALD.in                                                : Caliper (FDC/CNL/GR)
CALI.in                                                : Caliper (BHC/GR)
DRHO.g/cc                                              : Delta Rho
DT.us/ft                                               : Delta-T
GR.gAPI                                                : Gamma Ray (BHC/GR)
GRD.gAPI                                               : Gamma Ray (FDC/CNL/GR)
GRL.gAPI                                               : Gamma Ray (DLL/GR)
ILD.Ohmm                                               : Deep Induction Standard Processed Resistivity
LLD.Ohmm                                               : Latero-Log Deep (Resistivity)
LLS.Ohmm                                               : Latero-Log Shallow (Resistivity)
NPHI.LPU                                               : Neutron Porosity
RHOB.g/cc                                              : Bulk Density
SN.Ohmm                                                : Short Normal
SP.mV                                                  : Spontaneous Potential
~ASCII Log Data Section
# ...
 7621.5000         8.5485         8.0394        -0.0188        81.7449        65.0013        65.2409        70.0773      -999.2500         1.3279         1.1953        17.6722         2.3812      -999.2500        44.0243     
 7622.0000         8.5447         8.0448        -0.0137        80.8910        68.0271        67.9614        72.3604      -999.2500         1.4581         1.1938        17.9384         2.3964      -999.2500        41.9707     
 7622.5000         8.5410         8.1778        -0.0077        81.5283        70.5701        70.7102        70.9177      -999.2500         1.4183         1.2693        18.6854         2.4137      -999.2500        42.7619     
 7623.0000         8.5389         8.1392        -0.0086        81.4550        68.2753        74.3720        68.4116      -999.2500         1.5603         1.4386        19.2266         2.4199      -999.2500        43.3900     
 7623.5000         8.5536         8.1004        -0.0084        80.8039        66.0476        75.5413        67.3315      -999.2500         1.7610         1.5600        19.5811         2.4180      -999.2500        43.3972     
 7624.0000         8.5308         8.0667        -0.0055        81.4776        66.8174        76.4686        66.6038      -999.2500         1.5994         1.3825        19.8892         2.4097      -999.2500        43.9380     
 7624.5000         8.5026         8.0494        -0.0099        80.3626        74.8544        78.5706        72.3883      -999.2500         1.6501         1.4816        20.0974         2.4091      -999.2500        43.6193     
 7625.0000         8.5070         8.0328        -0.0085        80.8626        84.0250        82.1671        84.7965      -999.2500         1.5929         1.7200        20.3044         2.4140      -999.2500        42.9215     
 7625.5000         8.5118         8.0398        -0.0100        82.1425        93.0774        86.3040        94.6566      -999.2500         1.6968         1.3454        20.5197         2.4206      -999.2500        42.8687     
 7626.0000         8.5167         8.1257        -0.0048        92.5259       104.1442        90.6863       100.3515      -999.2500         1.6883         1.5393        20.8772         2.4293      -999.2500        42.9503     
 7626.5000         8.5215         8.2889        -0.0016        94.4232       114.7330        95.9592       103.3141      -999.2500         1.9024         1.7524        21.5483         2.4346      -999.2500        43.0319     
 7627.0000         8.5264         8.1525        -0.0031        87.1391       119.4450        96.6534       106.0119      -999.2500         2.1333         2.0438        22.6894         2.4222      -999.2500        43.6198     
 7627.5000         8.5312         8.0709        -0.0122        98.8058       103.4586        90.6084        89.3865      -999.2500         2.4933         1.9655        23.3229         2.3950      -999.2500        43.2922     
 7628.0000         8.5361         8.0704        -0.0196        99.9346        78.4241        74.3091        62.3380      -999.2500         2.1962         1.6960        23.4652         2.3551      -999.2500        42.0494     
 7628.5000         8.5409         8.0711        -0.0242        93.0475        65.3105        59.0926        52.4870      -999.2500         1.6009         1.2628        23.3176         2.3369      -999.2500        44.3221     
 7629.0000         8.5457         8.0717        -0.0217        90.1179        53.0788        50.2611        54.9201      -999.2500         1.2241         1.1249        22.6229         2.3545      -999.2500        42.6947     
 7629.5000         8.5494         8.0724        -0.0200        85.0512        51.8394        47.8186        53.7920      -999.2500         1.1415         0.9892        21.7967         2.3691      -999.2500        42.4239     
 7630.0000         8.5480         8.0731        -0.0214        82.9370        50.7142        46.3880        50.3739      -999.2500         1.3331         0.9776        21.1099         2.3634      -999.2500        42.6516     
 7630.5000         8.5465         8.0838        -0.0230        82.1646        49.3774        45.3942        49.5812      -999.2500         1.2546         1.0668        20.6873         2.3708      -999.2500        42.5492     
 7631.0000         8.5449         8.0946        -0.0229        81.3174        47.9433        44.7509        49.9664      -999.2500         1.3313         1.1965        20.8445         2.3869      -999.2500        42.8933     
 7631.5000         8.5434         8.1104        -0.0290        81.3542        47.0359        45.1447        49.8916      -999.2500         1.2435         1.0473        21.1125         2.3857      -999.2500        43.0426     
 7632.0000         8.5418         8.1157        -0.0281        81.4625        48.4790        45.8440        49.9596      -999.2500         1.2346         1.0171        21.2269         2.3834      -999.2500        43.5378     
 7632.5000         8.5403         8.1134        -0.0192        81.3788        49.9295        46.5423        51.7023      -999.2500         1.2273         1.0157        20.9048         2.3955      -999.2500        43.6253     
 7633.0000         8.5387         8.0990        -0.0167        80.8658        50.1591        47.5916        52.6394      -999.2500         1.2217         1.0696        20.4676         2.4026      -999.2500        43.2681     
 7633.5000         8.5372         8.0976        -0.0240        80.9452        47.9622        48.7850        49.9464      -999.2500         1.4507         1.1266        20.3455         2.4001      -999.2500        42.8982     
 7634.0000         8.5357         8.0982        -0.0218        80.4617        49.1483        49.5060        47.6766      -999.2500         1.3948         1.1374        20.1212         2.3947      -999.2500        43.1691     
 7634.5000         8.5341         8.0989        -0.0182        79.8556        49.1802        49.5683        46.2663      -999.2500         1.3418         0.9750        19.8796         2.4018      -999.2500        43.9458     
 7635.0000         8.5326         8.0995        -0.0176        79.4520        50.2969        48.5389        45.5421      -999.2500         1.3121         1.1104        19.7978         2.4085      -999.2500        43.9525     
 7635.5000         8.5310         8.1002        -0.0196        79.2839        51.1769        47.2388        45.3237      -999.2500         1.4239         1.0963        19.8257         2.4070      -999.2500        44.4215     
 7636.0000         8.5295         8.1008        -0.0215        79.1056        45.7082        46.8300        45.5998      -999.2500         1.5345         1.1296        19.9230         2.4069      -999.2500        44.8925     
 7636.5000         8.5279         8.1014        -0.0221        78.9053        46.3175        46.9782        46.2768      -999.2500         1.4354         1.0636        19.8749         2.4079      -999.2500        42.7612     
 7637.0000         8.5264         8.1021        -0.0222        78.7198        46.8248        47.0478        46.0009      -999.2500         1.4069         1.1184        19.5338         2.4016      -999.2500        42.4415     
 7637.5000         8.5249         8.1027        -0.0272        78.5602        46.6580        46.8661        44.2720      -999.2500         1.4582         1.1334        18.9615         2.4013      -999.2500        41.9029     
 7638.0000         8.5243         8.1034        -0.0223        78.4489        47.9536        46.8690        46.5688      -999.2500         1.4808         1.1848        18.9632         2.4021      -999.2500        40.9593     
 7638.5000         8.5252         8.1040        -0.0135        78.6555        48.3999        47.2735        46.9666      -999.2500         1.5354         1.1245        19.4555         2.4113      -999.2500        42.6039     
 7639.0000         8.5260         8.1047        -0.0094        78.8914        47.4219        48.0611        46.1871      -999.2500         1.5475         1.1122        19.7248         2.4134      -999.2500        44.1221     
