~Version Information Section
VERS.          2.0                                     : CWLS LOG ASCII Standard
WRAP.          NO                                      : One line per depth step
CREA.          03/09/17                                : LAS Creation Date
~Well Information Section
STRT.ft        763.5000                                : Start Depth
STOP.ft        8088.0000                               : Stop Depth
STEP.ft        0.5000                                  : Step
NULL.          -999.2500                               : Null Value
COMP.          OCCIDENTAL PETROLEUM CORP (UK)          : Company
WELL.          15/11-1                                 : Well
FLD .          WILDCAT                                 : Field
LOC .          NORTH SEA                               : Location
LOC1.          -                                       : Location (UTM)
CTRY.          UK                                      : Country
PROV.          UKCS                                    : Province
UWI .          875                                     : UWI Number
API .          -                                       : API Number
SECT.          -                                       : Section
TOWN.          -                                       : Township
RNGE.          -                                       : Range
PDAT.          MSL                                     : Perm Datum
EPD .ft        0.0                                     : Elevation
LMF .          KB                                      : Log Measured From
DMF .          KB                                      : Drill Measured From
APD .ft        54.0                                    : Above Perm Datum
EKB .ft        54.0                                    : Elev-Kelly Bushing
EDF .ft        53.0                                    : Elev-Drill Floor
EGL .ft        -472.0                                  : Elev-Ground Level (Water Depth)
TDD .ft        8095.0                                  : Total Depth (Driller)
TDL .ft        8088.0                                  : Total Depth (Logger)
SRVC.          SCHLUMBERGER                            : Service Company
LATI.          58 30 05.00" N                          : Latitude
LONG.          00 04 35.00" E                          : Longitude
DATE.          03-MAY-1972 - 26-JUN-1972               : Logging Date
PROJ.          UKCS                                    : Project
SET .          COMP_WIRE                               : Set
~Curve Information Section
DEPTH.ft                                               : Depth Curve
CALD.in                                                : Caliper (FDC/CNL/GR)
CALI.in                                                : Caliper (BHC/GR)
DRHO.g/cc                                              : Delta Rho
DT.us/ft                                               : Delta-T
GR.gAPI                                                : Gamma Ray (BHC/GR)
GRD.gAPI                                               : Gamma Ray (FDC/CNL/GR)
GRL.gAPI                                               : Gamma Ray (DLL/GR)
ILD.Ohmm                                               : Deep Induction Standard Processed Resistivity
LLD.Ohmm                                               : Latero-Log Deep (Resistivity)
LLS.Ohmm                                               : Latero-Log Shallow (Resistivity)
NPHI.LPU                                               : Neutron Porosity
RHOB.g/cc                                              : Bulk Density
SN.Ohmm                                                : Short Normal
SP.mV                                                  : Spontaneous Potential
~ASCII Log Data Section
# ...
 7477.5000         9.2562         8.9291        -0.0026        79.1221       111.5382       110.4709       108.3443      -999.2500         6.2524         6.7575        42.6740         2.5436      -999.2500        25.2536     
 7478.0000         9.2497         8.9250        -0.0095        79.7009       114.5063       108.7221       107.0863      -999.2500         6.0221         6.4087        33.2319         2.5241      -999.2500        25.5443     
 7478.5000         9.2176         8.8892        -0.0055        78.6122       112.4772       104.2839       102.7489      -999.2500         6.2543         6.2988        27.2192         2.5040      -999.2500        26.5483     
 7479.0000         8.9720         8.6449        -0.0088        76.2390       107.8430        97.5211        93.4639      -999.2500         6.5433         6.5512        23.8026         2.4815      -999.2500        27.0434     
 7479.5000         8.6853         8.4250        -0.0163        76.6742       100.6220        90.9413        85.5623      -999.2500         6.5373         6.8766        21.8249         2.4589      -999.2500        28.2750     
 7480.0000         8.6457         8.1293        -0.0178        76.9431        81.6553        82.9082        80.4482      -999.2500         5.8510         6.5898        20.4773         2.4550      -999.2500        33.1159     
 7480.5000         8.6246         8.2233        -0.0121        77.5005        74.0784        79.3533        80.0639      -999.2500         5.1133         5.5264        20.3374         2.4455      -999.2500        34.1725     
 7481.0000         8.5959         8.2358        -0.0216        79.2327        75.1483        79.7589        80.4672      -999.2500         4.3040         4.5124        22.0431         2.4297      -999.2500        35.0234     
 7481.5000         8.5879         8.1432        -0.0203        80.2115        80.5122        83.3980        80.3474      -999.2500         3.4015         3.8491        24.3604         2.4299      -999.2500        35.0141     
 7482.0000         8.5896         8.1550        -0.0141        80.9773        85.5365        85.6739        83.6551      -999.2500         2.4402         3.1399        27.1758         2.4311      -999.2500        36.1489     
 7482.5000         8.6089         8.2505        -0.0106        82.9271        90.4295        88.3167        91.0032      -999.2500         2.1697         2.8975        32.1136         2.4238      -999.2500        37.4221     
 7483.0000         8.6608         8.2993        -0.0187        84.8064       100.6934        93.4094        96.0544      -999.2500         2.0657         2.6363        37.8058         2.4142      -999.2500        41.3053     
 7483.5000         8.6954         8.3036        -0.0250        86.1950       101.5206        98.5523       101.2708      -999.2500         1.9595         2.4347        43.8651         2.4136      -999.2500        38.5633     
 7484.0000         8.7248         8.2489        -0.0151        90.4906       111.9568       102.0425       104.2932      -999.2500         1.9319         2.1993        45.5747         2.4178      -999.2500        29.8536     
 7484.5000         8.7383         8.2730        -0.0069        89.1808       110.9760       100.1092        98.9808      -999.2500         2.1565         2.3432        39.5144         2.4202      -999.2500        28.5865     
 7485.0000         8.8234         8.4681        -0.0269        86.3607       102.5538        95.2523        92.6629      -999.2500         2.4021         2.6452        32.0840         2.4396      -999.2500        28.7387     
 7485.5000         8.6855         8.4283        -0.0396        81.3800        90.1688        91.2607        90.3680      -999.2500         2.5496         3.9221        24.4944         2.5011      -999.2500        28.8984     
 7486.0000         8.6833         8.1963        -0.0291        75.5491        83.8050        91.1797        90.2493      -999.2500         2.8669         5.7371        20.8674         2.5202      -999.2500        28.9055     
 7486.5000         8.7923         8.2737        -0.0023        72.7986        83.8150        94.2543        94.7719      -999.2500         4.5480         8.2193        24.1860         2.5396      -999.2500        30.0103     
 7487.0000         8.8578         8.5305         0.0119        74.0086        94.0834        98.1085       106.5845      -999.2500         6.9469         9.0126        27.8381         2.5527      -999.2500        29.2434     
 7487.5000         8.8574         8.5003         0.0043        75.0479       100.2987       106.3668       117.8769      -999.2500         5.9774         8.2792        35.7956         2.5168      -999.2500        28.9272     
 7488.0000         8.7405         8.3851        -0.0098        77.3987       109.7156       114.0327       120.3311      -999.2500         4.1050         5.2648        40.2678         2.4924      -999.2500        29.5473     
 7488.5000         8.7310         8.3763        -0.0162        80.7544       122.4297       116.8776       120.9660      -999.2500         4.2023         4.3575        42.5899         2.4828      -999.2500        30.5272     
 7489.0000         8.7574         8.4121        -0.0125        79.6966       125.5912       115.6846       118.4025      -999.2500         4.3812         4.2333        39.4948         2.4906      -999.2500        30.3414     
 7489.5000         8.7350         8.4681        -0.0062        77.9972       122.4447       111.7665       113.5483      -999.2500         4.6831         4.7456        33.9129         2.5059      -999.2500        31.1995     
 7490.0000         8.6677         8.4088        -0.0197        76.6582       114.8824       104.7590       106.8960      -999.2500         5.7039         6.4318        27.5980         2.5123      -999.2500        33.5562     
 7490.5000         8.6078         8.2202        -0.0328        74.4832       101.9126        95.1655        92.3038      -999.2500         6.5139         6.9421        21.7421         2.5152      -999.2500        34.4001     
 7491.0000         8.5438         8.1315        -0.0278        72.3832        86.1918        86.9002        76.1332      -999.2500         6.9414         6.8251        18.2849         2.5345      -999.2500        34.0201     
 7491.5000         8.5276         8.1205        -0.0293        73.7052        83.5903        80.8883        71.0338      -999.2500         6.8825         6.8621        17.5712         2.5269      -999.2500        34.8577     
 7492.0000         8.5209         8.0322        -0.0278        75.2120        83.8388        79.3545        80.6393      -999.2500         6.6183         6.2912        17.4029         2.5109      -999.2500        35.4659     
 7492.5000         8.5324         8.1924        -0.0261        75.2638        85.8769        79.7990        89.6560      -999.2500         5.8015         5.3112        17.6746         2.4992      -999.2500        36.8551     
 7493.0000         8.5396         8.1807        -0.0252        73.7594        93.7538        80.2849        86.1371      -999.2500         4.6515         4.2357        17.4717         2.4905      -999.2500        37.4330     
 7493.5000         8.5128         8.1146        -0.0247        72.6445        85.7924        76.4561        74.0137      -999.2500         3.5069         3.3393        16.6218         2.4718      -999.2500        37.3001     
 7494.0000         8.5014         8.0703        -0.0202        71.8876        71.9192        66.8440        66.5302      -999.2500         3.1203         3.1528        15.5391         2.4761      -999.2500        39.2697     
 7494.5000         8.4970         8.0537        -0.0107        72.1414        65.6491        64.7202        67.6134      -999.2500         3.3268         3.1472        15.1258         2.4875      -999.2500        38.1665     
 7495.0000         8.4926         8.0628        -0.0119        73.2101        65.1598        65.4016        65.2719      -999.2500         3.5095         3.3418        15.5430         2.4790      -999.2500        36.2807     
