~Version Information Section
VERS.          2.0                                     : CWLS LOG ASCII Standard
WRAP.          NO                                      : One line per depth step
CREA.          17/09/15                                : LAS Creation Date
~Well Information Section
STRT.m         157.4292                                : Start Depth
STOP.m         2528.0112                               : Stop Depth
STEP.m         0.1524                                  : Step
NULL.          -999.2500                               : Null Value
COMP.          BP                                      : Company
WELL.          15/13-2                                 : Well
FLD .          EXPLORATION                             : Field
LOC .          NORTH SEA                               : Location
LOC1.          356416.20mE 64934767.81mN               : Location (UTM)
CTRY.          UK                                      : Country
PROV.          UKCS                                    : Province
UWI .          881                                     : UWI Number
API .                                                  : API Number
SECT.                                                  : Section
TOWN.                                                  : Township
RNGE.                                                  : Range
PDAT.          MSL                                     : Perm Datum
EPD .m         0.00                                    : Elevation
LMF .          RT                                      : Log Measured From
DMF .          RT                                      : Drill Measured From
APD .m         30.00                                   : Above Perm Datum
EKB .m         30.30                                   : Elev-Kelly Bushing
EDF .m         30.00                                   : Elev-Drill Floor
EGL .m         -140.00                                 : Elev-Ground Level (Water Depth)
TDD .m         2528.00                                 : Total Depth (Driller)
SRVC.          SCHLUMBERGER                            : Service Company
LATI.          58 33 24.4 N                            : Latitude
LONG.          00 31 55.1 E                            : Longitude
DATE.          AUG-OCT-1975                            : Logging Date
PROJ.          UKCS                                    : Project
SET .          COMP WIRE                               : Set
~Curve Information Section
DEPTH.m                                                : Depth Curve
CALI.in                                                : FDC Caliper
DRHO.g/cc                                              : Density Correction
DT.us/ft                                               : Delta-T
GR.gAPI                                                : ISF Gamma Ray
GRD.gAPI                                               : FDC Gamma Ray
ILD.ohmm                                               : Deep Induction Resistivity
MCAL.in                                                : Micro Caliper
MINV.ohmm                                              : Micro-Inverse Resistivity
MLL.ohmm                                               : Microlaterolog Resistivity
MNOR.ohmm                                              : Micro-Normal Resistivity
NPHI.%                                                 : Neutron Porosity
RHOB.g/cc                                              : Bulk Density
SFL.ohmm                                               : Spherically Focussed log Resistivity
SP.mV                                                  : Spontaneous Potential
~ASCII Log Data Section
# ...
 2280.6660        11.5241         0.1244       107.5575       122.9662       114.0558         1.4862      -999.2500      -999.2500      -999.2500      -999.2500        37.1243         2.2221         1.5353        65.5014     
 2280.8184        11.5449         0.1306       107.7305       122.6906       114.1722         1.5163      -999.2500      -999.2500      -999.2500      -999.2500        37.4399         2.2239         1.5179        65.0561     
 2280.9708        11.5792         0.1405       107.8149       122.5317       112.7998         1.5295      -999.2500      -999.2500      -999.2500      -999.2500        37.4179         2.2356         1.5741        64.5440     
 2281.1232        11.5988         0.1371       105.6590       122.3198       109.8067         1.5383      -999.2500      -999.2500      -999.2500      -999.2500        37.0626         2.2243         1.6929        64.4536     
 2281.2756        11.5318         0.1372       102.7686       121.5849       108.8484         1.5472      -999.2500      -999.2500      -999.2500      -999.2500        35.9733         2.2179         1.7493        64.4261     
 2281.4280        11.6345         0.1286       100.0282       120.4298       109.6321         1.5571      -999.2500      -999.2500      -999.2500      -999.2500        34.8504         2.2183         1.8350        64.5526     
 2281.5804        11.6910         0.1049        99.0553       119.7856       109.9559         1.5741      -999.2500      -999.2500      -999.2500      -999.2500        34.2222         2.2142         1.8834        64.7769     
 2281.7328        11.6429         0.0953       100.3599       119.8337       109.9476         1.5981      -999.2500      -999.2500      -999.2500      -999.2500        33.6885         2.2116         1.8300        64.7664     
 2281.8852        11.5730         0.1271       104.6425       120.0217       109.8353         1.6062      -999.2500      -999.2500      -999.2500      -999.2500        33.6873         2.2488         1.7586        64.9788     
 2282.0376        11.6276         0.1359       106.6568       120.1843       108.1103         1.6158      -999.2500      -999.2500      -999.2500      -999.2500        34.3691         2.2629         1.7316        64.8638     
 2282.1900        11.6148         0.1365       107.5371       120.3099       106.3874         1.6002      -999.2500      -999.2500      -999.2500      -999.2500        35.2683         2.2497         1.6880        64.7319     
 2282.3424        11.5367         0.1402       106.3851       120.2874       108.6490         1.5735      -999.2500      -999.2500      -999.2500      -999.2500        36.9102         2.2353         1.6673        64.7421     
 2282.4948        11.5022         0.1289       103.7318       119.9485       109.9010         1.5500      -999.2500      -999.2500      -999.2500      -999.2500        36.9947         2.2268         1.7107        64.5854     
 2282.6472        11.5005         0.1137       103.0392       118.6991       110.6104         1.5295      -999.2500      -999.2500      -999.2500      -999.2500        37.1672         2.2198         1.7037        64.7006     
 2282.7996        11.4844         0.1199       103.3499       117.1395       111.1642         1.5281      -999.2500      -999.2500      -999.2500      -999.2500        37.9927         2.2080         1.6924        64.7328     
 2282.9520        11.4154         0.1237       104.7548       116.8569       110.7797         1.5297      -999.2500      -999.2500      -999.2500      -999.2500        38.7737         2.1958         1.6804        64.7580     
 2283.1044        11.4150         0.1037       104.7200       117.1988       109.2205         1.5305      -999.2500      -999.2500      -999.2500      -999.2500        38.9644         2.1655         1.6604        64.7832     
 2283.2568        11.4687         0.1092       105.2006       116.7831       109.2173         1.5216      -999.2500      -999.2500      -999.2500      -999.2500        38.2411         2.1677         1.6532        64.7387     
 2283.4092        11.5109         0.1061       106.4569       116.5244       112.1398         1.5062      -999.2500      -999.2500      -999.2500      -999.2500        37.8064         2.2024         1.6597        65.0841     
 2283.5616        11.4921         0.0874       105.8001       118.2666       114.4578         1.4804      -999.2500      -999.2500      -999.2500      -999.2500        37.0681         2.2117         1.6661        65.3244     
 2283.7140        11.4246         0.0706       105.6477       120.2851       115.4256         1.4522      -999.2500      -999.2500      -999.2500      -999.2500        36.4270         2.2295         1.6509        65.3477     
 2283.8664        11.3634         0.0856       106.1529       121.5577       113.3237         1.4240      -999.2500      -999.2500      -999.2500      -999.2500        35.7957         2.2592         1.6006        65.3080     
 2284.0188        11.3747         0.1133       107.3275       121.3632       112.7541         1.4024      -999.2500      -999.2500      -999.2500      -999.2500        34.7104         2.2807         1.5517        65.3444     
 2284.1712        11.3792         0.1414       108.3432       120.5621       112.0343         1.4009      -999.2500      -999.2500      -999.2500      -999.2500        34.6030         2.2774         1.5115        65.6033     
 2284.3236        11.4525         0.1521       109.6321       119.3482       109.7928         1.4250      -999.2500      -999.2500      -999.2500      -999.2500        34.7298         2.2575         1.4938        65.5765     
 2284.4760        11.6757         0.1617       111.4554       117.9786       108.3669         1.4511      -999.2500      -999.2500      -999.2500      -999.2500        34.6499         2.2091         1.5105        65.1912     
 2284.6284        11.8255         0.1769       109.6482       117.1570       107.5282         1.4509      -999.2500      -999.2500      -999.2500      -999.2500        35.4817         2.1910         1.5499        64.8660     
 2284.7808        11.6832         0.1792       107.2458       117.6195       107.9048         1.4424      -999.2500      -999.2500      -999.2500      -999.2500        36.1294         2.1770         1.6040        64.6612     
 2284.9332        11.6780         0.1626       106.0523       119.3697       109.0670         1.4765      -999.2500      -999.2500      -999.2500      -999.2500        36.0625         2.1703         1.6581        64.6864     
 2285.0856        11.6447         0.1429       103.4397       121.4316       110.9094         1.5334      -999.2500      -999.2500      -999.2500      -999.2500        35.5387         2.1789         1.7140        64.7116     
 2285.2380        11.5315         0.1237       101.0327       123.4226       113.9742         1.6043      -999.2500      -999.2500      -999.2500      -999.2500        35.1262         2.2174         1.7556        64.7367     
 2285.3904        11.5017         0.1015       100.8609       124.9130       115.1594         1.6750      -999.2500      -999.2500      -999.2500      -999.2500        34.9128         2.2416         1.7810        64.7619     
 2285.5428        11.5057         0.0780       100.3659       126.1931       115.7536         1.7080      -999.2500      -999.2500      -999.2500      -999.2500        34.3997         2.2403         1.8466        64.7870     
 2285.6952        11.6004         0.0877       100.1456       126.5912       115.5011         1.7098      -999.2500      -999.2500      -999.2500      -999.2500        33.7559         2.2321         1.9179        64.6794     
 2285.8476        11.6464         0.1249        99.8397       125.9555       113.7265         1.7124      -999.2500      -999.2500      -999.2500      -999.2500        34.1697         2.2334         1.9469        64.7613     
 2286.0000        11.4221         0.1509        98.3782       124.9698       112.6281         1.7202      -999.2500      -999.2500      -999.2500      -999.2500        34.6228         2.2270         1.9365        64.9007     
