~Version Information Section
VERS.          2.0                                     : CWLS LOG ASCII Standard
WRAP.          NO                                      : One line per depth step
CREA.          17/09/15                                : LAS Creation Date
~Well Information Section
STRT.m         157.4292                                : Start Depth
STOP.m         2528.0112                               : Stop Depth
STEP.m         0.1524                                  : Step
NULL.          -999.2500                               : Null Value
COMP.          BP                                      : Company
WELL.          15/13-2                                 : Well
FLD .          EXPLORATION                             : Field
LOC .          NORTH SEA                               : Location
LOC1.          356416.20mE 64934767.81mN               : Location (UTM)
CTRY.          UK                                      : Country
PROV.          UKCS                                    : Province
UWI .          881                                     : UWI Number
API .                                                  : API Number
SECT.                                                  : Section
TOWN.                                                  : Township
RNGE.                                                  : Range
PDAT.          MSL                                     : Perm Datum
EPD .m         0.00                                    : Elevation
LMF .          RT                                      : Log Measured From
DMF .          RT                                      : Drill Measured From
APD .m         30.00                                   : Above Perm Datum
EKB .m         30.30                                   : Elev-Kelly Bushing
EDF .m         30.00                                   : Elev-Drill Floor
EGL .m         -140.00                                 : Elev-Ground Level (Water Depth)
TDD .m         2528.00                                 : Total Depth (Driller)
SRVC.          SCHLUMBERGER                            : Service Company
LATI.          58 33 24.4 N                            : Latitude
LONG.          00 31 55.1 E                            : Longitude
DATE.          AUG-OCT-1975                            : Logging Date
PROJ.          UKCS                                    : Project
SET .          COMP WIRE                               : Set
~Curve Information Section
DEPTH.m                                                : Depth Curve
CALI.in                                                : FDC Caliper
DRHO.g/cc                                              : Density Correction
DT.us/ft                                               : Delta-T
GR.gAPI                                                : ISF Gamma Ray
GRD.gAPI                                               : FDC Gamma Ray
ILD.ohmm                                               : Deep Induction Resistivity
MCAL.in                                                : Micro Caliper
MINV.ohmm                                              : Micro-Inverse Resistivity
MLL.ohmm                                               : Microlaterolog Resistivity
MNOR.ohmm                                              : Micro-Normal Resistivity
NPHI.%                                                 : Neutron Porosity
RHOB.g/cc                                              : Bulk Density
SFL.ohmm                                               : Spherically Focussed log Resistivity
SP.mV                                                  : Spontaneous Potential
~ASCII Log Data Section
# ...
 2335.5300        10.9810         0.1075        95.2122       116.6879       116.1608         1.9360      -999.2500      -999.2500      -999.2500      -999.2500        32.9997         2.4157         2.3303        66.4782     
 2335.6824        10.8993         0.0743        95.4328       118.5788       119.1135         1.9518      -999.2500      -999.2500      -999.2500      -999.2500        33.1331         2.3874         2.3653        66.4286     
 2335.8348        10.5350         0.0757        95.9994       119.6436       119.6400         1.9675      -999.2500      -999.2500      -999.2500      -999.2500        32.8143         2.3753         2.3900        66.3791     
 2335.9872        10.4082         0.0910        96.9641       120.4154       119.7171         1.9832      -999.2500      -999.2500      -999.2500      -999.2500        32.0545         2.4049         2.3601        66.3295     
 2336.1396        10.2356         0.0996        97.7105       121.1200       121.2021         1.9933      -999.2500      -999.2500      -999.2500      -999.2500        31.2291         2.4216         2.2627        66.2799     
 2336.2920        10.1510         0.1030        98.0421       121.6801       123.1918         1.9940      -999.2500      -999.2500      -999.2500      -999.2500        31.2876         2.4191         2.1940        66.2304     
 2336.4444        10.2089         0.0900        97.0444       122.5428       122.7611         1.9877      -999.2500      -999.2500      -999.2500      -999.2500        32.0824         2.3992         2.2179        66.1808     
 2336.5968        10.5626         0.0844        96.1000       121.5024       121.7336         1.9487      -999.2500      -999.2500      -999.2500      -999.2500        32.9012         2.3887         2.2976        66.1312     
 2336.7492        10.8039         0.0774        96.6973       120.1206       121.4146         1.9275      -999.2500      -999.2500      -999.2500      -999.2500        33.3342         2.3853         2.3258        66.0817     
 2336.9016        10.5633         0.0485        97.0036       119.9368       121.3795         1.9353      -999.2500      -999.2500      -999.2500      -999.2500        32.6610         2.3717         2.2885        66.0321     
 2337.0540        10.2233         0.0265        97.1111       120.4418       120.5525         1.9528      -999.2500      -999.2500      -999.2500      -999.2500        31.6763         2.3696         2.2294        65.9826     
 2337.2064        10.2011         0.0393        97.8040       120.9735       120.0514         1.9737      -999.2500      -999.2500      -999.2500      -999.2500        31.3751         2.3708         2.1790        65.9329     
 2337.3588        10.1994         0.0588        98.0280       118.8566       122.0044         1.9760      -999.2500      -999.2500      -999.2500      -999.2500        31.8734         2.3649         2.1782        65.8834     
 2337.5112        10.2603         0.0844        98.4976       116.6516       122.7647         1.9760      -999.2500      -999.2500      -999.2500      -999.2500        32.6840         2.3626         2.1949        65.8338     
 2337.6636        10.4028         0.1150        99.0191       115.7137       121.6083         1.9768      -999.2500      -999.2500      -999.2500      -999.2500        33.5627         2.3690         2.2117        65.7843     
 2337.8160        10.5067         0.1168        96.5520       116.0474       121.7999         1.9875      -999.2500      -999.2500      -999.2500      -999.2500        34.1724         2.3613         2.2584        65.7347     
 2337.9684        10.4225         0.0940        94.7375       117.8456       122.5740         2.0035      -999.2500      -999.2500      -999.2500      -999.2500        33.6259         2.3516         2.3663        65.5579     
 2338.1208        10.0375         0.0969        93.5790       121.5457       124.1217         2.0454      -999.2500      -999.2500      -999.2500      -999.2500        32.9667         2.3719         2.4747        65.1183     
 2338.2732        10.0508         0.0871        93.2804       122.8088       124.1930         2.1171      -999.2500      -999.2500      -999.2500      -999.2500        32.9659         2.3954         2.5513        64.6910     
 2338.4256         9.9612         0.0723        93.9998       122.1148       123.0535         2.1901      -999.2500      -999.2500      -999.2500      -999.2500        32.6530         2.4034         2.6052        64.4988     
 2338.5780         9.7933         0.0557        96.3891       119.9031       120.6694         2.2633      -999.2500      -999.2500      -999.2500      -999.2500        32.1095         2.4110         2.6342        65.1811     
 2338.7304         9.8600         0.0541        96.2425       118.1994       118.3773         2.3363      -999.2500      -999.2500      -999.2500      -999.2500        31.5557         2.4166         2.6618        65.6280     
 2338.8828         9.9181         0.0597        93.6194       116.9873       115.8710         2.4106      -999.2500      -999.2500      -999.2500      -999.2500        31.1100         2.4134         2.6893        65.4322     
 2339.0352         9.8414         0.0567        92.4180       115.9451       114.0255         2.4933      -999.2500      -999.2500      -999.2500      -999.2500        31.0290         2.4117         2.7124        65.3475     
 2339.1876         9.7907         0.0628        92.6773       116.3931       113.2353         2.5782      -999.2500      -999.2500      -999.2500      -999.2500        30.5276         2.4212         2.7044        65.3540     
 2339.3400         9.8702         0.0693        92.2940       119.7766       113.6848         2.6495      -999.2500      -999.2500      -999.2500      -999.2500        30.1493         2.4302         2.7019        65.3605     
 2339.4924         9.9272         0.0616        91.9657       123.5179       116.5440         2.7073      -999.2500      -999.2500      -999.2500      -999.2500        30.2569         2.4138         2.7336        65.3480     
 2339.6448         9.8897         0.0533        91.4954       124.5291       119.1628         2.7612      -999.2500      -999.2500      -999.2500      -999.2500        30.6247         2.4061         2.9727        64.5399     
 2339.7972         9.8808         0.0584        90.6763       122.1538       119.2581         2.8096      -999.2500      -999.2500      -999.2500      -999.2500        30.8990         2.4182         3.3432        64.0893     
 2339.9496         9.9196         0.0783        90.3329       119.4828       118.8187         2.8147      -999.2500      -999.2500      -999.2500      -999.2500        30.1137         2.4283         3.2763        64.4554     
 2340.1020        10.0242         0.0729        89.5670       117.5925       117.6058         2.7378      -999.2500      -999.2500      -999.2500      -999.2500        28.3144         2.4197         2.9254        65.2162     
 2340.2544         9.8865         0.0750        89.9924       116.7156       117.0408         2.6728      -999.2500      -999.2500      -999.2500      -999.2500        28.0002         2.4068         2.8036        65.6734     
 2340.4068         9.9421         0.0447        90.9177       117.7106       115.6389         2.6205      -999.2500      -999.2500      -999.2500      -999.2500        28.9012         2.3800         2.8782        65.7596     
 2340.5592        10.2011         0.0227        91.6932       120.0805       114.6558         2.5075      -999.2500      -999.2500      -999.2500      -999.2500        30.2795         2.3828         2.7889        65.6688     
 2340.7116        10.5164         0.0306        93.1656       121.7189       115.0567         2.4426      -999.2500      -999.2500      -999.2500      -999.2500        31.2093         2.4091         2.6346        65.7359     
 2340.8640        10.3239         0.0462        95.2181       121.4719       118.3197         2.4369      -999.2500      -999.2500      -999.2500      -999.2500        31.7192         2.4240         2.4845        65.9467     
