~Version Information Section
VERS.          2.0                                     : CWLS LOG ASCII Standard
WRAP.          NO                                      : One line per depth step
CREA.          17/09/15                                : LAS Creation Date
~Well Information Section
STRT.m         157.4292                                : Start Depth
STOP.m         2528.0112                               : Stop Depth
STEP.m         0.1524                                  : Step
NULL.          -999.2500                               : Null Value
COMP.          BP                                      : Company
WELL.          15/13-2                                 : Well
FLD .          EXPLORATION                             : Field
LOC .          NORTH SEA                               : Location
LOC1.          356416.20mE 64934767.81mN               : Location (UTM)
CTRY.          UK                                      : Country
PROV.          UKCS                                    : Province
UWI .          881                                     : UWI Number
API .                                                  : API Number
SECT.                                                  : Section
TOWN.                                                  : Township
RNGE.                                                  : Range
PDAT.          MSL                                     : Perm Datum
EPD .m         0.00                                    : Elevation
LMF .          RT                                      : Log Measured From
DMF .          RT                                      : Drill Measured From
APD .m         30.00                                   : Above Perm Datum
EKB .m         30.30                                   : Elev-Kelly Bushing
EDF .m         30.00                                   : Elev-Drill Floor
EGL .m         -140.00                                 : Elev-Ground Level (Water Depth)
TDD .m         2528.00                                 : Total Depth (Driller)
SRVC.          SCHLUMBERGER                            : Service Company
LATI.          58 33 24.4 N                            : Latitude
LONG.          00 31 55.1 E                            : Longitude
DATE.          AUG-OCT-1975                            : Logging Date
PROJ.          UKCS                                    : Project
SET .          COMP WIRE                               : Set
~Curve Information Section
DEPTH.m                                                : Depth Curve
CALI.in                                                : FDC Caliper
DRHO.g/cc                                              : Density Correction
DT.us/ft                                               : Delta-T
GR.gAPI                                                : ISF Gamma Ray
GRD.gAPI                                               : FDC Gamma Ray
ILD.ohmm                                               : Deep Induction Resistivity
MCAL.in                                                : Micro Caliper
MINV.ohmm                                              : Micro-Inverse Resistivity
MLL.ohmm                                               : Microlaterolog Resistivity
MNOR.ohmm                                              : Micro-Normal Resistivity
NPHI.%                                                 : Neutron Porosity
RHOB.g/cc                                              : Bulk Density
SFL.ohmm                                               : Spherically Focussed log Resistivity
SP.mV                                                  : Spontaneous Potential
~ASCII Log Data Section
# ...
 2417.8260         9.0025         0.0215        52.3095        33.0731        26.2111       196.8146      -999.2500      -999.2500      -999.2500      -999.2500         0.7723         2.9461       426.8477        55.8615     
 2417.9784         9.0023         0.0060        52.3327        34.9981        27.7506       178.2822      -999.2500      -999.2500      -999.2500      -999.2500         0.9402         2.9242       394.5825        56.4770     
 2418.1308         9.0021        -0.0007        52.3716        36.0314        29.8119       165.4603      -999.2500      -999.2500      -999.2500      -999.2500         1.0790         2.9012       362.3690        57.0009     
 2418.2832         9.0018        -0.0042        52.7346        35.1791        29.8805       163.7076      -999.2500      -999.2500      -999.2500      -999.2500         1.1462         2.8824       323.8880        56.7485     
 2418.4356         9.0015         0.0023        52.8022        33.9351        30.2817       149.9302      -999.2500      -999.2500      -999.2500      -999.2500         1.1360         2.8765       276.8463        55.9849     
 2418.5880         8.9992         0.0089        53.0329        32.7222        29.2269       134.0541      -999.2500      -999.2500      -999.2500      -999.2500         1.1258         2.8843       276.0499        55.3427     
 2418.7404         8.9958         0.0149        53.2606        31.5126        26.7755       120.0088      -999.2500      -999.2500      -999.2500      -999.2500         1.1156         2.8914       317.4418        55.8725     
 2418.8928         8.9925         0.0198        53.2717        30.5222        26.0838       106.0668      -999.2500      -999.2500      -999.2500      -999.2500         1.1054         2.8967       348.4952        57.1100     
 2419.0452         8.9891         0.0157        53.4893        30.7674        27.4395       105.4805      -999.2500      -999.2500      -999.2500      -999.2500         1.1146         2.8974       273.5626        57.4473     
 2419.1976         8.9858         0.0123        54.4046        31.6449        29.5786       102.5086      -999.2500      -999.2500      -999.2500      -999.2500         1.1642         2.9016       179.3412        57.6256     
 2419.3500         8.9825         0.0117        54.9739        32.3424        32.1919        99.8342      -999.2500      -999.2500      -999.2500      -999.2500         1.1294         2.9005       148.7435        57.8013     
 2419.5024         8.9784         0.0073        55.1225        32.9315        33.7796       105.4421      -999.2500      -999.2500      -999.2500      -999.2500         0.9172         2.9050       253.8389        57.8683     
 2419.6548         8.9727         0.0059        54.6196        33.3301        33.5734       112.5544      -999.2500      -999.2500      -999.2500      -999.2500         0.6906         2.8964       415.4716        57.8371     
 2419.8072         8.9670         0.0158        54.1069        33.7434        32.6630       126.8567      -999.2500      -999.2500      -999.2500      -999.2500         0.5401         2.8892       564.1163        57.7451     
 2419.9596         8.9613         0.0185        54.0339        34.5006        32.0547       202.0732      -999.2500      -999.2500      -999.2500      -999.2500         0.5502         2.8824       591.8975        57.6362     
 2420.1120         8.9555         0.0109        54.0170        35.9185        32.4607       253.3752      -999.2500      -999.2500      -999.2500      -999.2500         0.7470         2.8748       568.9948        57.7015     
 2420.2644         8.9498         0.0053        53.6009        37.2883        33.8564       291.0541      -999.2500      -999.2500      -999.2500      -999.2500         1.0419         2.8771       709.2761        57.9053     
 2420.4168         8.9440         0.0001        52.5434        37.9763        34.9522       383.4982      -999.2500      -999.2500      -999.2500      -999.2500         1.3523         2.8716      1173.5383        58.4448     
 2420.5692         8.9361        -0.0076        51.0518        37.7571        34.5213       404.6377      -999.2500      -999.2500      -999.2500      -999.2500         1.5451         2.8769      1704.0381        58.9304     
 2420.7216         8.9197        -0.0009        49.8102        35.1158        31.7597       370.8354      -999.2500      -999.2500      -999.2500      -999.2500         1.4931         2.9048      1341.2942        58.9890     
 2420.8740         8.9013         0.0130        49.5389        32.8185        29.0068       409.7975      -999.2500      -999.2500      -999.2500      -999.2500         1.2662         2.9351       669.5693        58.6762     
 2421.0264         8.8840         0.0178        50.2375        31.7186        27.6987       444.1440      -999.2500      -999.2500      -999.2500      -999.2500         1.0335         2.9506      1549.8252        58.3977     
 2421.1788         8.9103         0.0181        51.1808        30.7287        28.3065       410.1650      -999.2500      -999.2500      -999.2500      -999.2500         0.8438         2.9315      1407.3738        58.2664     
 2421.3312         8.9392         0.0171        52.4926        30.3605        28.2370       314.3351      -999.2500      -999.2500      -999.2500      -999.2500         0.6740         2.9062       620.7400        58.1466     
 2421.4836         8.9440         0.0156        53.3120        30.3216        28.7183       224.7364      -999.2500      -999.2500      -999.2500      -999.2500         0.5727         2.8833       368.8187        58.0269     
 2421.6360         8.9488         0.0156        53.4484        30.2964        30.0569       165.6232      -999.2500      -999.2500      -999.2500      -999.2500         0.5773         2.9016       289.6968        58.0363     
 2421.7884         8.9536         0.0169        53.1073        29.9757        30.7043       149.1724      -999.2500      -999.2500      -999.2500      -999.2500         0.6051         2.9305       266.1949        58.5992     
 2421.9408         8.9561         0.0201        52.5707        29.1746        30.3767       161.7517      -999.2500      -999.2500      -999.2500      -999.2500         0.6516         2.9454       287.9130        59.0204     
 2422.0932         8.9559         0.0235        51.7455        28.9819        30.3077       191.1475      -999.2500      -999.2500      -999.2500      -999.2500         0.6980         2.9412       457.0151        59.2385     
 2422.2456         8.9557         0.0175        51.0002        30.2697        30.8466       230.4913      -999.2500      -999.2500      -999.2500      -999.2500         0.7375         2.9302      1068.7715        59.3480     
 2422.3980         8.9554         0.0079        50.8512        30.9478        31.8373       383.6020      -999.2500      -999.2500      -999.2500      -999.2500         0.7350         2.9193      1667.1731        59.2652     
 2422.5504         8.9552         0.0043        50.6454        31.3115        32.8556       846.5780      -999.2500      -999.2500      -999.2500      -999.2500         0.6524         2.9124      1739.1560        59.0808     
 2422.7028         8.9549         0.0010        50.6508        30.4871        33.6458      1367.2866      -999.2500      -999.2500      -999.2500      -999.2500         0.5389         2.9163      1753.8809        58.9921     
 2422.8552         8.9547        -0.0021        50.8340        30.1670        34.6622      1118.1631      -999.2500      -999.2500      -999.2500      -999.2500         0.4862         2.9059      1767.9124        58.9112     
 2423.0076         8.9544         0.0026        51.0677        31.7032        37.2682       660.7198      -999.2500      -999.2500      -999.2500      -999.2500         0.5404         2.8928      1780.8708        58.4566     
 2423.1600         8.9542         0.0097        51.5384        34.9155        40.0519       337.5163      -999.2500      -999.2500      -999.2500      -999.2500         0.7660         2.8852      1776.1270        58.7934     
