~Version Information Section
VERS.          2.0                                     : CWLS LOG ASCII Standard
WRAP.          NO                                      : One line per depth step
CREA.          17/09/15                                : LAS Creation Date
~Well Information Section
STRT.m         157.4292                                : Start Depth
STOP.m         2528.0112                               : Stop Depth
STEP.m         0.1524                                  : Step
NULL.          -999.2500                               : Null Value
COMP.          BP                                      : Company
WELL.          15/13-2                                 : Well
FLD .          EXPLORATION                             : Field
LOC .          NORTH SEA                               : Location
LOC1.          356416.20mE 64934767.81mN               : Location (UTM)
CTRY.          UK                                      : Country
PROV.          UKCS                                    : Province
UWI .          881                                     : UWI Number
API .                                                  : API Number
SECT.                                                  : Section
TOWN.                                                  : Township
RNGE.                                                  : Range
PDAT.          MSL                                     : Perm Datum
EPD .m         0.00                                    : Elevation
LMF .          RT                                      : Log Measured From
DMF .          RT                                      : Drill Measured From
APD .m         30.00                                   : Above Perm Datum
EKB .m         30.30                                   : Elev-Kelly Bushing
EDF .m         30.00                                   : Elev-Drill Floor
EGL .m         -140.00                                 : Elev-Ground Level (Water Depth)
TDD .m         2528.00                                 : Total Depth (Driller)
SRVC.          SCHLUMBERGER                            : Service Company
LATI.          58 33 24.4 N                            : Latitude
LONG.          00 31 55.1 E                            : Longitude
DATE.          AUG-OCT-1975                            : Logging Date
PROJ.          UKCS                                    : Project
SET .          COMP WIRE                               : Set
~Curve Information Section
DEPTH.m                                                : Depth Curve
CALI.in                                                : FDC Caliper
DRHO.g/cc                                              : Density Correction
DT.us/ft                                               : Delta-T
GR.gAPI                                                : ISF Gamma Ray
GRD.gAPI                                               : FDC Gamma Ray
ILD.ohmm                                               : Deep Induction Resistivity
MCAL.in                                                : Micro Caliper
MINV.ohmm                                              : Micro-Inverse Resistivity
MLL.ohmm                                               : Microlaterolog Resistivity
MNOR.ohmm                                              : Micro-Normal Resistivity
NPHI.%                                                 : Neutron Porosity
RHOB.g/cc                                              : Bulk Density
SFL.ohmm                                               : Spherically Focussed log Resistivity
SP.mV                                                  : Spontaneous Potential
~ASCII Log Data Section
# ...
 2494.6356         8.4619         0.0406        77.0450        69.9374        77.7039         1.6136      -999.2500      -999.2500      -999.2500      -999.2500        18.7128         2.3791         2.4868        76.0213     
 2494.7880         8.6012         0.0447        79.4964        67.4384        75.6127         1.6843      -999.2500      -999.2500      -999.2500      -999.2500        19.2528         2.4046         2.4734        76.0437     
 2494.9404         8.6278         0.0502        80.5624        66.5300        73.3634         1.7524      -999.2500      -999.2500      -999.2500      -999.2500        19.8923         2.4169         2.4557        76.0661     
 2495.0928         8.5459         0.0669        80.2595        68.1049        72.2534         1.7955      -999.2500      -999.2500      -999.2500      -999.2500        20.8450         2.4187         2.5697        76.0885     
 2495.2452         8.3403         0.0828        78.4771        69.5921        71.7943         1.8280      -999.2500      -999.2500      -999.2500      -999.2500        21.7796         2.4189         2.7240        76.1109     
 2495.3976         8.2627         0.0846        76.6992        68.1241        69.4921         1.8604      -999.2500      -999.2500      -999.2500      -999.2500        22.0975         2.4181         2.7724        76.1333     
 2495.5500         8.2638         0.0590        76.2232        64.1763        67.3568         1.8928      -999.2500      -999.2500      -999.2500      -999.2500        21.5033         2.3952         2.7061        76.1773     
 2495.7024         8.3059         0.0364        77.4166        59.9528        64.7884         1.9245      -999.2500      -999.2500      -999.2500      -999.2500        20.4382         2.3621         2.5138        76.2490     
 2495.8548         8.3539         0.0295        78.7105        55.8591        61.3932         1.9562      -999.2500      -999.2500      -999.2500      -999.2500        19.3712         2.3464         2.4013        76.3218     
 2496.0072         8.3234         0.0299        78.8308        55.6770        59.7095         1.9908      -999.2500      -999.2500      -999.2500      -999.2500        18.3202         2.3438         2.4128        76.3947     
 2496.1596         8.1372         0.0397        78.7473        56.6363        60.2430         2.0274      -999.2500      -999.2500      -999.2500      -999.2500        17.7869         2.3463         2.5076        76.3804     
 2496.3120         8.1725         0.0626        78.2909        57.3502        60.9849         2.0639      -999.2500      -999.2500      -999.2500      -999.2500        18.2014         2.3531         2.5707        76.0682     
 2496.4644         8.2612         0.0644        78.2350        58.7215        62.3125         2.1004      -999.2500      -999.2500      -999.2500      -999.2500        18.9449         2.3508         2.6454        75.7875     
 2496.6168         8.2671         0.0620        78.3824        61.0260        64.3081         2.1370      -999.2500      -999.2500      -999.2500      -999.2500        19.7470         2.3465         2.7101        75.6578     
 2496.7692         8.2188         0.0704        78.0968        62.2557        66.7019         2.1841      -999.2500      -999.2500      -999.2500      -999.2500        20.5804         2.3506         2.7109        75.8306     
 2496.9216         8.1483         0.0842        77.9221        63.0158        69.0993         2.2565      -999.2500      -999.2500      -999.2500      -999.2500        21.2724         2.3699         2.6625        76.1112     
 2497.0740         8.1049         0.0851        77.4063        65.0470        71.6603         2.3315      -999.2500      -999.2500      -999.2500      -999.2500        21.3261         2.3880         2.6044        76.3899     
 2497.2264         8.1310         0.0764        77.1518        69.2555        76.5070         2.4066      -999.2500      -999.2500      -999.2500      -999.2500        20.9329         2.3858         2.7117        76.4566     
 2497.3788         8.1561         0.0681        77.0917        75.3612        82.2654         2.4868      -999.2500      -999.2500      -999.2500      -999.2500        20.7840         2.3740         2.8816        76.3216     
 2497.5312         8.1372         0.0623        76.8129        81.8144        89.8974         2.5901      -999.2500      -999.2500      -999.2500      -999.2500        21.4000         2.3716         2.7852        76.1868     
 2497.6836         8.1327         0.0602        77.4439        91.1626        98.3250         2.6586      -999.2500      -999.2500      -999.2500      -999.2500        23.6493         2.3714         2.6506        76.0488     
 2497.8360         8.2575         0.0684        78.9685        99.9140       100.9439         2.6663      -999.2500      -999.2500      -999.2500      -999.2500        26.9718         2.3608         2.8271        75.8992     
 2497.9884         8.3186         0.0879        81.0676       111.1738       114.1264         2.6526      -999.2500      -999.2500      -999.2500      -999.2500        30.5659         2.3444         3.0203        75.8203     
 2498.1408         8.4289         0.1137        82.9593       123.0978       126.3399         2.8756      -999.2500      -999.2500      -999.2500      -999.2500        34.5444         2.3290         3.4774        75.8490     
 2498.2932         8.5971         0.1224        85.6790       131.1983       135.9131         3.0305      -999.2500      -999.2500      -999.2500      -999.2500        38.3322         2.3172         3.4288        75.9339     
 2498.4456         8.7501         0.1229        88.4280       131.5486       139.4547         3.0707      -999.2500      -999.2500      -999.2500      -999.2500        41.0499         2.3156         3.1557        75.9459     
 2498.5980         8.7768         0.1360        88.6396       127.5820       135.3263         3.0878      -999.2500      -999.2500      -999.2500      -999.2500        41.0374         2.3349         3.2497        75.6382     
 2498.7504         8.7781         0.1242        86.1474       123.1219       130.7274         3.0658      -999.2500      -999.2500      -999.2500      -999.2500        38.4024         2.4024         3.8380        75.1428     
 2498.9028         9.0152         0.1047        82.0334       118.5299       128.0524         2.9991      -999.2500      -999.2500      -999.2500      -999.2500        35.4178         2.4724         5.2361        74.8122     
 2499.0552         9.1485         0.1290        77.9421       112.8814       126.2949         2.9159      -999.2500      -999.2500      -999.2500      -999.2500        31.8802         2.5381         5.6674        75.1786     
 2499.2076         8.9570         0.1362        76.1078       109.9773       124.5401         2.8292      -999.2500      -999.2500      -999.2500      -999.2500        29.0073         2.5517         4.8659        75.6527     
 2499.3600         8.8706         0.1339        77.2283       107.7605       122.5703         2.7567      -999.2500      -999.2500      -999.2500      -999.2500        29.1511         2.5376         3.5835        75.9841     
 2499.5124         8.8172         0.1399        79.2839       105.1675       120.5792         2.6821      -999.2500      -999.2500      -999.2500      -999.2500        29.9434         2.5230         2.8968        75.9354     
 2499.6648         8.6676         0.1391        80.5601       101.8288       118.4277         2.6061      -999.2500      -999.2500      -999.2500      -999.2500        29.9725         2.4958         2.6740        75.8445     
 2499.8172         8.5182         0.1069        81.1827        98.6227       116.0412         2.5280      -999.2500      -999.2500      -999.2500      -999.2500        29.1406         2.4595         2.5732        75.6797     
 2499.9696         8.4031         0.0903        81.5190        98.9543       115.9729         2.4694      -999.2500      -999.2500      -999.2500      -999.2500        27.6601         2.4442         2.5238        75.4116     
