~Version Information Section
VERS.          2.0                                     : CWLS LOG ASCII Standard
WRAP.          NO                                      : One line per depth step
CREA.          17/09/15                                : LAS Creation Date
~Well Information Section
STRT.m         157.4292                                : Start Depth
STOP.m         2528.0112                               : Stop Depth
STEP.m         0.1524                                  : Step
NULL.          -999.2500                               : Null Value
COMP.          BP                                      : Company
WELL.          15/13-2                                 : Well
FLD .          EXPLORATION                             : Field
LOC .          NORTH SEA                               : Location
LOC1.          356416.20mE 64934767.81mN               : Location (UTM)
CTRY.          UK                                      : Country
PROV.          UKCS                                    : Province
UWI .          881                                     : UWI Number
API .                                                  : API Number
SECT.                                                  : Section
TOWN.                                                  : Township
RNGE.                                                  : Range
PDAT.          MSL                                     : Perm Datum
EPD .m         0.00                                    : Elevation
LMF .          RT                                      : Log Measured From
DMF .          RT                                      : Drill Measured From
APD .m         30.00                                   : Above Perm Datum
EKB .m         30.30                                   : Elev-Kelly Bushing
EDF .m         30.00                                   : Elev-Drill Floor
EGL .m         -140.00                                 : Elev-Ground Level (Water Depth)
TDD .m         2528.00                                 : Total Depth (Driller)
SRVC.          SCHLUMBERGER                            : Service Company
LATI.          58 33 24.4 N                            : Latitude
LONG.          00 31 55.1 E                            : Longitude
DATE.          AUG-OCT-1975                            : Logging Date
PROJ.          UKCS                                    : Project
SET .          COMP WIRE                               : Set
~Curve Information Section
DEPTH.m                                                : Depth Curve
CALI.in                                                : FDC Caliper
DRHO.g/cc                                              : Density Correction
DT.us/ft                                               : Delta-T
GR.gAPI                                                : ISF Gamma Ray
GRD.gAPI                                               : FDC Gamma Ray
ILD.ohmm                                               : Deep Induction Resistivity
MCAL.in                                                : Micro Caliper
MINV.ohmm                                              : Micro-Inverse Resistivity
MLL.ohmm                                               : Microlaterolog Resistivity
MNOR.ohmm                                              : Micro-Normal Resistivity
NPHI.%                                                 : Neutron Porosity
RHOB.g/cc                                              : Bulk Density
SFL.ohmm                                               : Spherically Focussed log Resistivity
SP.mV                                                  : Spontaneous Potential
~ASCII Log Data Section
# ...
 2148.9924         9.8319         0.1590       112.0271       104.5378        82.5134         0.9643         8.9679         0.2047         1.1129         0.3545        52.1066         2.3728         1.2482        58.7137     
 2149.1448        10.0044         0.1123       113.9342       105.6714        85.1138         1.0059         8.9623         0.2511         1.0168         0.3857        51.3607         2.3749         1.2381        59.0474     
 2149.2972         9.9225         0.0768       114.4725       102.6481        88.2478         1.0476         8.9610         0.2935         0.8061         0.4016        51.8518         2.3957         1.1790        59.4708     
 2149.4496         9.8138         0.0982       114.4450        98.0490        89.9159         1.0892         8.8932         0.3057         0.9295         0.4024        51.7964         2.4221         1.0911        59.6747     
 2149.6020         9.7881         0.0782       114.2026        87.3016        83.5104         1.1308         8.5914         0.2422         1.0359         0.3302        51.3004         2.3757         1.1974        59.7352     
 2149.7544         9.8522         0.0532       111.2552        81.7092        74.7582         1.1737         8.5332         0.2321         0.8566         0.3505        51.6369         2.3323         1.4161        59.0996     
 2149.9068         9.9389         0.0577       106.9617        81.5825        69.2171         1.2259         8.5721         0.6103         2.1840         1.0659        51.3393         2.3385         1.7033        58.5978     
 2150.0592         9.7930         0.0677       101.8166        85.5581        68.5499         1.2796         8.3162         1.0811         1.7849         1.5405        50.0902         2.3635         1.9301        58.3830     
 2150.2116         9.5927         0.0539        99.0421        87.0227        69.6949         1.3232         8.1781         0.4686         0.9054         0.9077        48.4163         2.3770         1.6866        58.4762     
 2150.3640         9.5364         0.0340        98.6472        86.5704        70.1692         1.3384         8.6380         1.0129         2.0598         0.9937        45.9244         2.3822         1.5273        58.6669     
 2150.5164         9.4040         0.0204        97.9204        84.8927        69.6258         1.2863         8.6403         1.2337         2.2504         0.9252        44.3770         2.3890         1.5894        58.7191     
 2150.6688         9.1721         0.0348        96.4079        82.9264        69.5156         1.1961         8.7083         0.2871         0.7123         0.5754        45.2941         2.3999         1.6562        58.5203     
 2150.8212         9.0958         0.0436        96.3369        82.2009        70.1265         1.1298         8.5906         0.6516         1.0266         1.1479        47.3980         2.3919         1.5701        58.2233     
 2150.9736         9.1625         0.0231        99.5047        82.7498        68.6019         1.0647         8.7908         0.4492         0.6472         0.7245        48.8063         2.3657         1.2577        57.9793     
 2151.1260         9.1857         0.0115       107.4267        86.9161        66.6012         0.9996         8.8899         0.3408         0.7726         0.3701        48.0300         2.3481         1.0260        57.9444     
 2151.2784         9.1884         0.0343       113.9052        91.7745        67.2649         0.9345         8.9838         0.4272         0.9040         0.3587        47.4784         2.3532         0.9896        57.8536     
 2151.4308         9.2470         0.0583       114.4113        94.2930        69.9438         0.8702         9.0212         0.2929         0.7624         0.3691        48.0067         2.3561         1.0014        58.0797     
 2151.5832         9.3666         0.0665       113.9093        94.6978        72.3704         0.8252         9.0080         0.5171         0.7638         0.2084        49.2091         2.3403         0.9863        58.0297     
 2151.7356         9.3086         0.0819       116.1259        92.8666        74.5496         0.7956         9.0018         0.5516         0.6659         0.6171        50.4336         2.3474         0.9601        58.0075     
 2151.8880         9.3726         0.0743       119.4838        92.5454        74.2054         0.7660         9.0007         0.3653         0.8459         0.4774        50.6621         2.3335         0.9364        57.8750     
 2152.0404         9.5511         0.0539       123.6637        94.8080        73.3371         0.7468         8.9842         0.5737         0.9163         0.4336        50.8733         2.3112         0.9464        57.8031     
 2152.1928         9.6398         0.0623       124.4427        96.2058        74.5464         0.7393         8.9669         0.3082         0.8437         0.4617        52.9470         2.3163         0.9838        57.7935     
 2152.3452         9.6367         0.0754       124.2290        95.9862        75.7725         0.7330         9.0439         0.2777         0.6861         0.2617        53.9394         2.3193         0.9771        57.6289     
 2152.4976         9.6049         0.0644       124.5344        94.6414        76.9494         0.7341         9.2696         0.2862         0.5264         0.3188        53.9442         2.3047         0.9450        57.5241     
 2152.6500         9.5458         0.0683       126.5272        93.2002        77.5158         0.7382         9.3573         0.3067         0.6849         0.2729        54.0283         2.2876         0.9123        57.4160     
 2152.8024         9.5338         0.0844       130.0063        91.7857        76.5434         0.7422         9.7790         0.0936         0.8876         0.1741        53.1418         2.2781         0.8850        57.4007     
 2152.9548         9.6050         0.0788       133.3472        90.2260        74.6823         0.7468        11.0178         0.0858         0.7388         0.2074        52.1957         2.2492         0.8779        57.4861     
 2153.1072         9.6726         0.0636       137.2951        88.4276        74.5974         0.7549        11.8100         0.2168         0.8237         0.1945        51.7191         2.2214         0.8900        58.0446     
 2153.2596         9.6971         0.0515       140.3589        87.5375        75.4935         0.7642        12.1948         0.2527         0.6120         0.2903        50.9737         2.1908         0.8984        58.5911     
 2153.4120         9.6745         0.0425       140.5172        88.4610        76.2785         0.7734        12.3885         0.1466         0.3743         0.2676        50.1536         2.1711         0.9013        58.7980     
 2153.5644         9.5833         0.0276       140.1119        89.7854        77.2903         0.7823        11.8897         0.0838         0.3435         0.1532        51.1505         2.1515         0.9036        58.7127     
 2153.7168         9.2737         0.0149       139.9360        89.1159        77.9444         0.7881        10.6174         0.0740         0.4615         0.1093        52.5495         2.1395         0.9059        58.6581     
 2153.8692         9.0210         0.0090       140.4536        87.0421        78.4249         0.7926         9.9052         0.0961         0.5258         0.2502        54.0643         2.1390         0.9083        58.5257     
 2154.0216         8.7378         0.0064       141.6261        86.3736        78.8136         0.7971         9.5627         0.1888         0.6898         0.2465        55.6211         2.1381         0.9106        58.4131     
 2154.1740         8.6177         0.0108       142.7127        86.3933        79.8658         0.8000         9.8888         0.0613         0.4795         0.1097        56.5240         2.1338         0.9129        57.8843     
 2154.3264         8.5971         0.0158       142.8577        86.4602        81.7436         0.7945         9.5512         0.1102         0.4068         0.1395        54.6820         2.1308         0.9152        57.7446     
