~Version Information Section
VERS.          2.0                                     : CWLS LOG ASCII Standard
WRAP.          NO                                      : One line per depth step
CREA.          17/09/15                                : LAS Creation Date
~Well Information Section
STRT.m         157.4292                                : Start Depth
STOP.m         2528.0112                               : Stop Depth
STEP.m         0.1524                                  : Step
NULL.          -999.2500                               : Null Value
COMP.          BP                                      : Company
WELL.          15/13-2                                 : Well
FLD .          EXPLORATION                             : Field
LOC .          NORTH SEA                               : Location
LOC1.          356416.20mE 64934767.81mN               : Location (UTM)
CTRY.          UK                                      : Country
PROV.          UKCS                                    : Province
UWI .          881                                     : UWI Number
API .                                                  : API Number
SECT.                                                  : Section
TOWN.                                                  : Township
RNGE.                                                  : Range
PDAT.          MSL                                     : Perm Datum
EPD .m         0.00                                    : Elevation
LMF .          RT                                      : Log Measured From
DMF .          RT                                      : Drill Measured From
APD .m         30.00                                   : Above Perm Datum
EKB .m         30.30                                   : Elev-Kelly Bushing
EDF .m         30.00                                   : Elev-Drill Floor
EGL .m         -140.00                                 : Elev-Ground Level (Water Depth)
TDD .m         2528.00                                 : Total Depth (Driller)
SRVC.          SCHLUMBERGER                            : Service Company
LATI.          58 33 24.4 N                            : Latitude
LONG.          00 31 55.1 E                            : Longitude
DATE.          AUG-OCT-1975                            : Logging Date
PROJ.          UKCS                                    : Project
SET .          COMP WIRE                               : Set
~Curve Information Section
DEPTH.m                                                : Depth Curve
CALI.in                                                : FDC Caliper
DRHO.g/cc                                              : Density Correction
DT.us/ft                                               : Delta-T
GR.gAPI                                                : ISF Gamma Ray
GRD.gAPI                                               : FDC Gamma Ray
ILD.ohmm                                               : Deep Induction Resistivity
MCAL.in                                                : Micro Caliper
MINV.ohmm                                              : Micro-Inverse Resistivity
MLL.ohmm                                               : Microlaterolog Resistivity
MNOR.ohmm                                              : Micro-Normal Resistivity
NPHI.%                                                 : Neutron Porosity
RHOB.g/cc                                              : Bulk Density
SFL.ohmm                                               : Spherically Focussed log Resistivity
SP.mV                                                  : Spontaneous Potential
~ASCII Log Data Section
# ...
 2176.4244         9.1294         0.0487       114.1937       115.3270        96.5563         1.4716      -999.2500      -999.2500      -999.2500      -999.2500        44.9215         2.1687         1.7559        58.7421     
 2176.5768         9.1669         0.0280       103.7314       111.4461        95.2020         1.5443      -999.2500      -999.2500      -999.2500      -999.2500        44.3896         2.1957         2.6552        58.5614     
 2176.7292         9.1402         0.0129        93.2845       110.4919        95.6152         1.6036      -999.2500      -999.2500      -999.2500      -999.2500        41.3785         2.2390         3.7750        58.3740     
 2176.8816         9.0617         0.0048        85.8905       110.7079        96.2250         1.6446      -999.2500      -999.2500      -999.2500      -999.2500        37.7665         2.3275         4.6713        58.0056     
 2177.0340         9.2266        -0.0011        85.0367       112.0303        96.6678         1.6694      -999.2500      -999.2500      -999.2500      -999.2500        36.8611         2.3729         4.2770        57.4466     
 2177.1864         9.3446         0.0027        93.3917       116.3855        99.6542         1.6890      -999.2500      -999.2500      -999.2500      -999.2500        37.9144         2.3369         2.8626        56.7203     
 2177.3388         9.3661         0.0257       105.9086       121.8585       102.6052         1.6457      -999.2500      -999.2500      -999.2500      -999.2500        39.9354         2.2885         1.7090        56.0093     
 2177.4912         9.3728         0.0452       112.9314       125.5312       107.3127         1.5051      -999.2500      -999.2500      -999.2500      -999.2500        43.2447         2.2376         1.3937        55.7208     
 2177.6436         9.4297         0.0363       115.8024       126.6360       108.7194         1.3337      -999.2500      -999.2500      -999.2500      -999.2500        44.9444         2.1918         1.3811        56.3693     
 2177.7960         9.5037         0.0239       116.0463       127.3058       107.9371         1.1989      -999.2500      -999.2500      -999.2500      -999.2500        44.4395         2.1619         1.4243        57.3851     
 2177.9484         9.5004         0.0402       115.3667       128.6758       107.9025         1.1485      -999.2500      -999.2500      -999.2500      -999.2500        44.9983         2.1742         1.3914        58.3626     
 2178.1008         9.4705         0.0731       115.4339       131.6023       110.0022         1.1215      -999.2500      -999.2500      -999.2500      -999.2500        44.9756         2.2182         1.3307        59.2036     
 2178.2532         9.5337         0.0736       117.0305       134.5394       111.5084         1.1084      -999.2500      -999.2500      -999.2500      -999.2500        46.3835         2.2020         1.3049        59.4356     
 2178.4056         9.7313         0.0832       118.5519       137.2222       111.0952         1.1053      -999.2500      -999.2500      -999.2500      -999.2500        46.6352         2.1784         1.3407        59.4273     
 2178.5580         9.6887         0.0734       118.8158       138.4629       110.2993         1.1028      -999.2500      -999.2500      -999.2500      -999.2500        45.6926         2.1668         1.3916        59.1766     
 2178.7104         9.9140         0.0750       116.7052       138.3618       109.9242         1.1002      -999.2500      -999.2500      -999.2500      -999.2500        45.4695         2.1873         1.3985        58.5593     
 2178.8628         9.8182         0.0695       114.3885       135.6788       109.0302         1.0977      -999.2500      -999.2500      -999.2500      -999.2500        45.9956         2.2020         1.3711        57.5607     
 2179.0152         9.5637         0.0937       113.1463       130.7926       107.5729         1.0950      -999.2500      -999.2500      -999.2500      -999.2500        46.2198         2.2315         1.3609        56.9611     
 2179.1676         9.7303         0.1054       112.5555       129.0237       106.6506         1.0911      -999.2500      -999.2500      -999.2500      -999.2500        46.4583         2.2368         1.3944        56.9916     
 2179.3200         9.8419         0.0961       113.8935       131.8045       107.2650         1.0900      -999.2500      -999.2500      -999.2500      -999.2500        45.0493         2.2264         1.3809        57.4972     
 2179.4724         9.5499         0.0988       115.5556       133.6753       109.1775         1.1121      -999.2500      -999.2500      -999.2500      -999.2500        44.1557         2.2185         1.4044        58.0667     
 2179.6248         9.5982         0.0998       117.5449       131.8024       107.1992         1.1438      -999.2500      -999.2500      -999.2500      -999.2500        43.9023         2.1958         1.4082        58.2981     
 2179.7772         9.6587         0.0901       119.1856       128.7845       104.3967         1.1841      -999.2500      -999.2500      -999.2500      -999.2500        44.8408         2.1611         1.3910        58.4922     
 2179.9296         9.7222         0.0760       119.7176       125.7666       101.6491         1.2274      -999.2500      -999.2500      -999.2500      -999.2500        45.8261         2.1493         1.3435        58.6716     
 2180.0820         9.7239         0.0520       118.0071       122.7180       100.7724         1.2267      -999.2500      -999.2500      -999.2500      -999.2500        45.1552         2.1801         1.3796        58.6911     
 2180.2344         9.6424         0.0263       110.7876       119.3301       100.1485         1.1785      -999.2500      -999.2500      -999.2500      -999.2500        43.2619         2.2158         1.6116        58.6336     
 2180.3868         9.5057         0.0270       104.6347       116.3675        97.6384         1.1531      -999.2500      -999.2500      -999.2500      -999.2500        41.9162         2.2757         1.8616        58.5761     
 2180.5392         9.4502         0.0437       103.8715       115.1029        96.1162         1.1700      -999.2500      -999.2500      -999.2500      -999.2500        41.6537         2.3049         1.7168        58.5186     
 2180.6916         9.4195         0.0550       107.2668       116.5266        99.8445         1.1853      -999.2500      -999.2500      -999.2500      -999.2500        44.1195         2.2857         1.3965        58.4669     
 2180.8440         9.4121         0.0475       114.4684       120.8779       103.3990         1.1610      -999.2500      -999.2500      -999.2500      -999.2500        44.9309         2.2381         1.1973        58.5054     
 2180.9964         9.4528         0.0345       119.9365       124.1963       106.4468         1.1156      -999.2500      -999.2500      -999.2500      -999.2500        47.1829         2.1911         1.1748        58.6020     
 2181.1488         9.5096         0.0248       119.6060       125.3424       108.6020         1.0663      -999.2500      -999.2500      -999.2500      -999.2500        48.2721         2.1824         1.1936        58.6984     
 2181.3012         9.3200         0.0184       118.6477       126.3171       109.4749         1.0304      -999.2500      -999.2500      -999.2500      -999.2500        47.0938         2.1893         1.2183        58.7948     
 2181.4536         9.1293         0.0246       117.0357       127.6907       109.3605         0.9891      -999.2500      -999.2500      -999.2500      -999.2500        45.1019         2.1931         1.2811        58.8912     
 2181.6060         9.1826         0.0387       115.8163       128.2531       108.3190         0.9636      -999.2500      -999.2500      -999.2500      -999.2500        44.5617         2.1829         1.3447        58.9876     
 2181.7584         9.2161         0.0462       115.9055       127.9955       107.3018         0.9606      -999.2500      -999.2500      -999.2500      -999.2500        45.4786         2.1605         1.3401        59.0840     
