~Version Information Section
VERS.          2.0                                     : CWLS LOG ASCII Standard
WRAP.          NO                                      : One line per depth step
CREA.          17/09/15                                : LAS Creation Date
~Well Information Section
STRT.m         157.4292                                : Start Depth
STOP.m         2528.0112                               : Stop Depth
STEP.m         0.1524                                  : Step
NULL.          -999.2500                               : Null Value
COMP.          BP                                      : Company
WELL.          15/13-2                                 : Well
FLD .          EXPLORATION                             : Field
LOC .          NORTH SEA                               : Location
LOC1.          356416.20mE 64934767.81mN               : Location (UTM)
CTRY.          UK                                      : Country
PROV.          UKCS                                    : Province
UWI .          881                                     : UWI Number
API .                                                  : API Number
SECT.                                                  : Section
TOWN.                                                  : Township
RNGE.                                                  : Range
PDAT.          MSL                                     : Perm Datum
EPD .m         0.00                                    : Elevation
LMF .          RT                                      : Log Measured From
DMF .          RT                                      : Drill Measured From
APD .m         30.00                                   : Above Perm Datum
EKB .m         30.30                                   : Elev-Kelly Bushing
EDF .m         30.00                                   : Elev-Drill Floor
EGL .m         -140.00                                 : Elev-Ground Level (Water Depth)
TDD .m         2528.00                                 : Total Depth (Driller)
SRVC.          SCHLUMBERGER                            : Service Company
LATI.          58 33 24.4 N                            : Latitude
LONG.          00 31 55.1 E                            : Longitude
DATE.          AUG-OCT-1975                            : Logging Date
PROJ.          UKCS                                    : Project
SET .          COMP WIRE                               : Set
~Curve Information Section
DEPTH.m                                                : Depth Curve
CALI.in                                                : FDC Caliper
DRHO.g/cc                                              : Density Correction
DT.us/ft                                               : Delta-T
GR.gAPI                                                : ISF Gamma Ray
GRD.gAPI                                               : FDC Gamma Ray
ILD.ohmm                                               : Deep Induction Resistivity
MCAL.in                                                : Micro Caliper
MINV.ohmm                                              : Micro-Inverse Resistivity
MLL.ohmm                                               : Microlaterolog Resistivity
MNOR.ohmm                                              : Micro-Normal Resistivity
NPHI.%                                                 : Neutron Porosity
RHOB.g/cc                                              : Bulk Density
SFL.ohmm                                               : Spherically Focussed log Resistivity
SP.mV                                                  : Spontaneous Potential
~ASCII Log Data Section
# ...
 2203.8564         9.1062         0.0043       116.9377       110.9108        98.0701         1.0529      -999.2500      -999.2500      -999.2500      -999.2500        46.5387         2.2446         1.4768        58.4533     
 2204.0088         9.1366         0.0129       117.9135       112.3397        98.6931         1.0919      -999.2500      -999.2500      -999.2500      -999.2500        46.1167         2.2699         1.4290        58.3889     
 2204.1612         9.1992         0.0185       119.3534       117.1369        99.9101         1.1219      -999.2500      -999.2500      -999.2500      -999.2500        46.7114         2.2684         1.3836        58.3623     
 2204.3136         9.2742         0.0186       120.2588       122.0688       101.1270         1.1320      -999.2500      -999.2500      -999.2500      -999.2500        47.0433         2.2555         1.3405        58.3358     
 2204.4660         9.3269         0.0218       120.4586       125.1015       102.3426         1.1239      -999.2500      -999.2500      -999.2500      -999.2500        47.1518         2.2610         1.3057        58.2943     
 2204.6184         9.3313         0.0269       119.6828       126.4250       103.7599         1.1037      -999.2500      -999.2500      -999.2500      -999.2500        47.8549         2.2721         1.3056        58.1387     
 2204.7708         9.3251         0.0150       118.0499       126.2798       106.0623         1.0777      -999.2500      -999.2500      -999.2500      -999.2500        48.3126         2.2783         1.3418        57.9523     
 2204.9232         9.3025         0.0050       117.1519       125.3666       106.8689         1.0606      -999.2500      -999.2500      -999.2500      -999.2500        47.6089         2.2803         1.4102        57.7661     
 2205.0756         9.1488         0.0031       117.0470       127.0682       106.1949         1.0685      -999.2500      -999.2500      -999.2500      -999.2500        45.9119         2.2869         1.3933        57.5800     
 2205.2280         9.1397         0.0019       117.0677       128.5178       106.4304         1.0814      -999.2500      -999.2500      -999.2500      -999.2500        44.2721         2.2889         1.3254        57.4519     
 2205.3804         9.1021         0.0028       117.2286       129.4353       108.3403         1.0962      -999.2500      -999.2500      -999.2500      -999.2500        43.0567         2.2811         1.2837        57.5169     
 2205.5328         9.0487         0.0041       117.7787       130.2695       111.1598         1.1091      -999.2500      -999.2500      -999.2500      -999.2500        41.9043         2.2685         1.3019        57.6060     
 2205.6852         9.0517         0.0043       119.5508       132.1998       113.3145         1.1072      -999.2500      -999.2500      -999.2500      -999.2500        41.7721         2.2637         1.3403        57.7452     
 2205.8376         9.0627         0.0018       121.8626       136.9645       115.3024         1.0637      -999.2500      -999.2500      -999.2500      -999.2500        42.9804         2.2453         1.3806        58.0243     
 2205.9900         9.0734         0.0005       123.6065       140.0111       118.1872         0.9825      -999.2500      -999.2500      -999.2500      -999.2500        44.5357         2.2029         1.4209        58.3560     
 2206.1424         9.0816         0.0000       123.5678       138.7047       119.3355         0.8976      -999.2500      -999.2500      -999.2500      -999.2500        44.9882         2.1636         1.4354        58.6646     
 2206.2948         9.0879         0.0017       122.2503       135.4066       118.1889         0.8270      -999.2500      -999.2500      -999.2500      -999.2500        47.2310         2.1358         1.3500        58.6257     
 2206.4472         9.0991         0.0064       121.7896       132.0222       115.6733         0.8101      -999.2500      -999.2500      -999.2500      -999.2500        49.6684         2.1122         1.1760        58.3882     
 2206.5996         9.1254        -0.0019       127.5718       128.6378       111.9799         0.8184      -999.2500      -999.2500      -999.2500      -999.2500        50.7620         2.0851         0.9706        58.7134     
 2206.7520         9.1596         0.0061       137.6366       125.2535       108.4662         0.8404      -999.2500      -999.2500      -999.2500      -999.2500        52.0094         2.0407         0.8139        59.3857     
 2206.9044         9.2054         0.0301       141.2070       121.9260       105.3674         0.8590      -999.2500      -999.2500      -999.2500      -999.2500        53.9789         1.9977         0.7922        59.5721     
 2207.0568         9.2266         0.0218       141.6204       120.2891       100.2711         0.8621      -999.2500      -999.2500      -999.2500      -999.2500        56.3335         1.9690         0.8946        59.4604     
 2207.2092         9.1054         0.0352       133.7507       120.7183        98.5868         0.8466      -999.2500      -999.2500      -999.2500      -999.2500        57.3974         1.9981         1.1401        59.3847     
 2207.3616         9.2411         0.0118       120.3781       121.2214        99.7088         0.8431      -999.2500      -999.2500      -999.2500      -999.2500        55.3436         2.1272         1.3992        59.2732     
 2207.5140         9.3462         0.0052       113.5982       120.9324       103.0542         0.9194      -999.2500      -999.2500      -999.2500      -999.2500        52.3655         2.2124         1.5629        58.9301     
 2207.6664         9.1664         0.0087       114.1445       120.3753       104.9680         1.0299      -999.2500      -999.2500      -999.2500      -999.2500        50.2147         2.2567         1.4979        58.6459     
 2207.8188         9.1406         0.0149       116.5706       120.4621       105.4130         1.1267      -999.2500      -999.2500      -999.2500      -999.2500        48.3621         2.2746         1.3498        58.4485     
 2207.9712         9.1506         0.0362       117.1648       121.1609       105.8768         1.1926      -999.2500      -999.2500      -999.2500      -999.2500        47.3769         2.2915         1.2703        58.2510     
 2208.1236         9.1646         0.0491       117.6519       121.4109       106.8291         1.2387      -999.2500      -999.2500      -999.2500      -999.2500        46.8289         2.3168         1.3401        58.0661     
 2208.2760         9.1644         0.0341       116.6435       120.6258       105.9379         1.2501      -999.2500      -999.2500      -999.2500      -999.2500        45.9587         2.3281         1.3684        57.9764     
 2208.4284         9.1205         0.0400       115.8641       119.0538       102.8314         1.2473      -999.2500      -999.2500      -999.2500      -999.2500        45.8916         2.3578         1.3429        57.9116     
 2208.5808         9.0768         0.0336       115.4276       117.1487       100.9580         1.2300      -999.2500      -999.2500      -999.2500      -999.2500        45.8667         2.3512         1.3271        57.8388     
 2208.7332         9.0529         0.0197       111.1039       114.6002       100.1785         1.1987      -999.2500      -999.2500      -999.2500      -999.2500        45.2635         2.3396         1.4266        57.7629     
 2208.8856         9.0412         0.0187       104.1399       112.4504       101.0703         1.1025      -999.2500      -999.2500      -999.2500      -999.2500        44.3736         2.3392         1.7403        57.7692     
 2209.0380         9.0294         0.0083       100.9267       112.0832       103.0996         1.0403      -999.2500      -999.2500      -999.2500      -999.2500        42.8232         2.3215         1.9601        58.0615     
 2209.1904         9.0279         0.0061       102.3668       116.0420       103.5362         1.0097      -999.2500      -999.2500      -999.2500      -999.2500        42.4295         2.3003         1.8473        58.6126     
