~Version Information Section
VERS.          2.0                                     : CWLS LOG ASCII Standard
WRAP.          NO                                      : One line per depth step
CREA.          17/09/15                                : LAS Creation Date
~Well Information Section
STRT.m         157.4292                                : Start Depth
STOP.m         2528.0112                               : Stop Depth
STEP.m         0.1524                                  : Step
NULL.          -999.2500                               : Null Value
COMP.          BP                                      : Company
WELL.          15/13-2                                 : Well
FLD .          EXPLORATION                             : Field
LOC .          NORTH SEA                               : Location
LOC1.          356416.20mE 64934767.81mN               : Location (UTM)
CTRY.          UK                                      : Country
PROV.          UKCS                                    : Province
UWI .          881                                     : UWI Number
API .                                                  : API Number
SECT.                                                  : Section
TOWN.                                                  : Township
RNGE.                                                  : Range
PDAT.          MSL                                     : Perm Datum
EPD .m         0.00                                    : Elevation
LMF .          RT                                      : Log Measured From
DMF .          RT                                      : Drill Measured From
APD .m         30.00                                   : Above Perm Datum
EKB .m         30.30                                   : Elev-Kelly Bushing
EDF .m         30.00                                   : Elev-Drill Floor
EGL .m         -140.00                                 : Elev-Ground Level (Water Depth)
TDD .m         2528.00                                 : Total Depth (Driller)
SRVC.          SCHLUMBERGER                            : Service Company
LATI.          58 33 24.4 N                            : Latitude
LONG.          00 31 55.1 E                            : Longitude
DATE.          AUG-OCT-1975                            : Logging Date
PROJ.          UKCS                                    : Project
SET .          COMP WIRE                               : Set
~Curve Information Section
DEPTH.m                                                : Depth Curve
CALI.in                                                : FDC Caliper
DRHO.g/cc                                              : Density Correction
DT.us/ft                                               : Delta-T
GR.gAPI                                                : ISF Gamma Ray
GRD.gAPI                                               : FDC Gamma Ray
ILD.ohmm                                               : Deep Induction Resistivity
MCAL.in                                                : Micro Caliper
MINV.ohmm                                              : Micro-Inverse Resistivity
MLL.ohmm                                               : Microlaterolog Resistivity
MNOR.ohmm                                              : Micro-Normal Resistivity
NPHI.%                                                 : Neutron Porosity
RHOB.g/cc                                              : Bulk Density
SFL.ohmm                                               : Spherically Focussed log Resistivity
SP.mV                                                  : Spontaneous Potential
~ASCII Log Data Section
# ...
 2467.2036         8.9289         0.0722        79.1080       128.8766       134.3305         4.2745      -999.2500      -999.2500      -999.2500      -999.2500        33.7836         2.4731         6.1966        73.1811     
 2467.3560         8.9266         0.0726        79.2796       127.2715       131.5206         4.3452      -999.2500      -999.2500      -999.2500      -999.2500        33.0631         2.4652         6.2916        74.2223     
 2467.5084         8.9242         0.0597        79.0054       125.9845       130.2899         4.2718      -999.2500      -999.2500      -999.2500      -999.2500        31.9447         2.4657         6.4223        74.9880     
 2467.6608         8.9367         0.0457        78.2446       124.5231       129.4591         4.1272      -999.2500      -999.2500      -999.2500      -999.2500        30.5598         2.4774         6.5699        75.3003     
 2467.8132         8.9951         0.0316        77.9092       122.3028       128.5729         4.0587      -999.2500      -999.2500      -999.2500      -999.2500        29.5037         2.4853         6.4793        75.1678     
 2467.9656         9.0141         0.0232        78.7094       119.9843       127.4672         4.0717      -999.2500      -999.2500      -999.2500      -999.2500        29.1626         2.4872         6.0111        74.6069     
 2468.1180         9.0121         0.0362        79.6947       117.8455       126.5066         4.1302      -999.2500      -999.2500      -999.2500      -999.2500        29.7869         2.4937         5.1696        73.6777     
 2468.2704         9.0486         0.0488        80.4149       116.4836       125.0493         4.2043      -999.2500      -999.2500      -999.2500      -999.2500        30.5572         2.5165         4.3379        72.7004     
 2468.4228         9.0858         0.0490        80.4395       115.6433       123.5831         4.2970      -999.2500      -999.2500      -999.2500      -999.2500        31.1902         2.5214         4.1632        72.0663     
 2468.5752         9.1263         0.0319        79.7429       115.9205       122.1362         4.3078      -999.2500      -999.2500      -999.2500      -999.2500        31.3363         2.5113         4.6780        72.5011     
 2468.7276         9.1581         0.0174        79.3598       117.0786       121.0530         4.2988      -999.2500      -999.2500      -999.2500      -999.2500        31.0633         2.5041         5.4668        73.6377     
 2468.8800         9.1632         0.0147        79.0832       118.5576       120.5080         4.3307      -999.2500      -999.2500      -999.2500      -999.2500        30.3974         2.4953         6.0706        74.7487     
 2469.0324         9.1993         0.0136        78.7828       119.8278       119.4591         4.4363      -999.2500      -999.2500      -999.2500      -999.2500        29.9303         2.4922         6.1995        75.3057     
 2469.1848         9.2178         0.0140        77.8585       120.1485       119.9478         4.5559      -999.2500      -999.2500      -999.2500      -999.2500        29.8649         2.4963         6.4373        75.6186     
 2469.3372         9.1926         0.0170        77.9091       119.0484       120.6733         4.6311      -999.2500      -999.2500      -999.2500      -999.2500        29.7068         2.4963         6.3123        75.5660     
 2469.4896         9.1615         0.0191        78.2815       116.5428       119.7317         4.6212      -999.2500      -999.2500      -999.2500      -999.2500        29.1750         2.5036         5.4784        74.6017     
 2469.6420         9.1496         0.0175        79.6091       114.8522       119.4798         4.4541      -999.2500      -999.2500      -999.2500      -999.2500        28.4447         2.5042         4.5322        73.5422     
 2469.7944         9.1744         0.0221        80.4069       117.2296       121.2027         4.2026      -999.2500      -999.2500      -999.2500      -999.2500        28.7464         2.4931         4.1911        73.0657     
 2469.9468         9.2001         0.0413        81.0440       120.2004       125.2675         4.0447      -999.2500      -999.2500      -999.2500      -999.2500        30.9901         2.4921         4.7460        73.5091     
 2470.0992         9.1783         0.0624        81.8005       123.1712       127.5165         3.9957      -999.2500      -999.2500      -999.2500      -999.2500        33.9117         2.4951         5.2612        74.5163     
 2470.2516         9.1692         0.0651        84.0030       125.6052       127.6449         4.0252      -999.2500      -999.2500      -999.2500      -999.2500        35.8936         2.4763         5.1749        75.2453     
 2470.4040         9.1677         0.0769        85.6938       124.5020       126.6067         4.0696      -999.2500      -999.2500      -999.2500      -999.2500        37.1794         2.4414         4.8419        75.3197     
 2470.5564         9.2021         0.1036        85.2113       122.0743       126.2919         4.1787      -999.2500      -999.2500      -999.2500      -999.2500        37.9553         2.4451         4.7945        74.8588     
 2470.7088         9.2931         0.1027        83.2813       120.2411       124.5246         4.3232      -999.2500      -999.2500      -999.2500      -999.2500        38.0369         2.4430         4.9847        74.1269     
 2470.8612         9.1225         0.0897        81.0889       118.4050       122.6861         4.3626      -999.2500      -999.2500      -999.2500      -999.2500        37.1823         2.4542         5.2751        73.5974     
 2471.0136         9.0508         0.1000        79.7382       116.5718       120.9123         4.4687      -999.2500      -999.2500      -999.2500      -999.2500        35.4705         2.4930         5.5674        73.8055     
 2471.1660         9.1134         0.0776        79.5274       115.1880       119.1385         4.6069      -999.2500      -999.2500      -999.2500      -999.2500        32.8897         2.5002         5.8598        74.6075     
 2471.3184         9.1652         0.0675        78.8191       113.4364       117.4985         4.5660      -999.2500      -999.2500      -999.2500      -999.2500        29.7382         2.4990         5.9843        75.2255     
 2471.4708         9.1403         0.0752        78.1635       110.7419       117.0724         4.3624      -999.2500      -999.2500      -999.2500      -999.2500        27.7528         2.4875         5.7369        75.5477     
 2471.6232         9.1136         0.0840        78.1610       108.0674       117.2169         4.1375      -999.2500      -999.2500      -999.2500      -999.2500        28.7042         2.4652         5.3150        75.5679     
 2471.7756         9.0770         0.0998        79.0922       107.1068       119.6675         3.9127      -999.2500      -999.2500      -999.2500      -999.2500        30.8934         2.4513         4.9550        75.5441     
 2471.9280         9.0013         0.1175        81.2217       109.8254       122.7394         3.6878      -999.2500      -999.2500      -999.2500      -999.2500        33.5192         2.4333         4.8047        75.5203     
 2472.0804         8.9301         0.1344        84.9032       113.4234       125.2240         3.5380      -999.2500      -999.2500      -999.2500      -999.2500        36.9628         2.4256         4.3658        75.4296     
 2472.2328         8.8262         0.1380        89.1983       116.2575       125.4350         3.5362      -999.2500      -999.2500      -999.2500      -999.2500        40.3874         2.4122         3.8771        74.8743     
 2472.3852         9.0945         0.1472        90.2405       118.7591       124.4166         3.6174      -999.2500      -999.2500      -999.2500      -999.2500        41.6702         2.4021         3.7037        74.5746     
 2472.5376         9.3711         0.1785        88.9764       123.9998       126.1683         3.6767      -999.2500      -999.2500      -999.2500      -999.2500        41.1486         2.4123         3.9517        74.5118     
