~Version Information Section
VERS.          2.0                                     : CWLS LOG ASCII Standard
WRAP.          NO                                      : One line per depth step
CREA.          17/09/15                                : LAS Creation Date
~Well Information Section
STRT.m         157.4292                                : Start Depth
STOP.m         2528.0112                               : Stop Depth
STEP.m         0.1524                                  : Step
NULL.          -999.2500                               : Null Value
COMP.          BP                                      : Company
WELL.          15/13-2                                 : Well
FLD .          EXPLORATION                             : Field
LOC .          NORTH SEA                               : Location
LOC1.          356416.20mE 64934767.81mN               : Location (UTM)
CTRY.          UK                                      : Country
PROV.          UKCS                                    : Province
UWI .          881                                     : UWI Number
API .                                                  : API Number
SECT.                                                  : Section
TOWN.                                                  : Township
RNGE.                                                  : Range
PDAT.          MSL                                     : Perm Datum
EPD .m         0.00                                    : Elevation
LMF .          RT                                      : Log Measured From
DMF .          RT                                      : Drill Measured From
APD .m         30.00                                   : Above Perm Datum
EKB .m         30.30                                   : Elev-Kelly Bushing
EDF .m         30.00                                   : Elev-Drill Floor
EGL .m         -140.00                                 : Elev-Ground Level (Water Depth)
TDD .m         2528.00                                 : Total Depth (Driller)
SRVC.          SCHLUMBERGER                            : Service Company
LATI.          58 33 24.4 N                            : Latitude
LONG.          00 31 55.1 E                            : Longitude
DATE.          AUG-OCT-1975                            : Logging Date
PROJ.          UKCS                                    : Project
SET .          COMP WIRE                               : Set
~Curve Information Section
DEPTH.m                                                : Depth Curve
CALI.in                                                : FDC Caliper
DRHO.g/cc                                              : Density Correction
DT.us/ft                                               : Delta-T
GR.gAPI                                                : ISF Gamma Ray
GRD.gAPI                                               : FDC Gamma Ray
ILD.ohmm                                               : Deep Induction Resistivity
MCAL.in                                                : Micro Caliper
MINV.ohmm                                              : Micro-Inverse Resistivity
MLL.ohmm                                               : Microlaterolog Resistivity
MNOR.ohmm                                              : Micro-Normal Resistivity
NPHI.%                                                 : Neutron Porosity
RHOB.g/cc                                              : Bulk Density
SFL.ohmm                                               : Spherically Focussed log Resistivity
SP.mV                                                  : Spontaneous Potential
~ASCII Log Data Section
# ...
 2308.0980        11.1338         0.1471        98.5139       120.2434       115.6001         1.7796      -999.2500      -999.2500      -999.2500      -999.2500        33.9218         2.3375         1.8810        65.9960     
 2308.2504        11.1889         0.1239        99.4257       118.5531       112.7104         1.7980      -999.2500      -999.2500      -999.2500      -999.2500        34.0768         2.3134         1.8647        66.0450     
 2308.4028        11.1843         0.0996        99.7738       116.9929       110.3818         1.7814      -999.2500      -999.2500      -999.2500      -999.2500        33.3510         2.3085         1.9171        66.0641     
 2308.5552        11.1107         0.0796        98.4903       116.1420       109.2309         1.7298      -999.2500      -999.2500      -999.2500      -999.2500        32.2878         2.3151         1.9825        66.0820     
 2308.7076        11.0987         0.0897        97.7148       115.5409       110.1600         1.6726      -999.2500      -999.2500      -999.2500      -999.2500        31.6528         2.3322         1.9862        66.1066     
 2308.8600        11.1289         0.1101        97.8725       114.8125       112.1374         1.6584      -999.2500      -999.2500      -999.2500      -999.2500        31.9439         2.3401         1.9307        66.1776     
 2309.0124        11.1744         0.1112        98.0607       113.4894       112.0319         1.6706      -999.2500      -999.2500      -999.2500      -999.2500        32.6512         2.3267         1.8584        66.2567     
 2309.1648        11.2165         0.0936        99.5186       112.7741       110.1187         1.6866      -999.2500      -999.2500      -999.2500      -999.2500        33.3086         2.3118         1.7861        66.3222     
 2309.3172        11.2246         0.0759       100.7946       113.7078       109.4288         1.6895      -999.2500      -999.2500      -999.2500      -999.2500        33.9026         2.2983         1.7137        66.2294     
 2309.4696        11.1202         0.0837       101.0173       116.2973       111.3468         1.6861      -999.2500      -999.2500      -999.2500      -999.2500        34.4947         2.3065         1.6814        66.0542     
 2309.6220        11.0949         0.1129       101.6442       119.4638       113.6241         1.6475      -999.2500      -999.2500      -999.2500      -999.2500        35.0868         2.3206         1.7003        65.8885     
 2309.7744        11.1732         0.1498       102.3939       120.0725       116.5026         1.6105      -999.2500      -999.2500      -999.2500      -999.2500        35.5306         2.3422         1.7676        65.8911     
 2309.9268        11.2011         0.1578       102.1507       118.9712       117.8205         1.5877      -999.2500      -999.2500      -999.2500      -999.2500        35.4651         2.3332         1.8404        66.0111     
 2310.0792        11.2253         0.1441       100.5527       117.1541       115.8809         1.6070      -999.2500      -999.2500      -999.2500      -999.2500        35.0002         2.3120         1.9004        66.1313     
 2310.2316        11.4300         0.1589        99.8341       115.9120       114.6285         1.6490      -999.2500      -999.2500      -999.2500      -999.2500        34.9215         2.3149         1.8960        66.2513     
 2310.3840        11.2886         0.1801       100.1751       114.8978       114.2583         1.6816      -999.2500      -999.2500      -999.2500      -999.2500        35.2280         2.3120         1.8768        66.3713     
 2310.5364        11.3386         0.1570       101.8165       115.6301       114.2181         1.7250      -999.2500      -999.2500      -999.2500      -999.2500        34.6372         2.2848         1.8598        66.4913     
 2310.6888        11.6182         0.1417       101.9031       117.0236       115.6370         1.7623      -999.2500      -999.2500      -999.2500      -999.2500        32.8870         2.2885         1.8761        66.6113     
 2310.8412        11.2155         0.1224        99.4200       118.2251       116.7315         1.7549      -999.2500      -999.2500      -999.2500      -999.2500        31.4507         2.3017         1.9218        66.7233     
 2310.9936        11.0406         0.0946        97.5895       119.3157       115.7976         1.7297      -999.2500      -999.2500      -999.2500      -999.2500        31.3780         2.3094         1.9746        66.7652     
 2311.1460        11.0755         0.0887        96.1748       119.2056       112.7661         1.7359      -999.2500      -999.2500      -999.2500      -999.2500        32.5984         2.3205         2.0152        66.7830     
 2311.2984        11.2398         0.0959        95.4294       117.7637       111.4556         1.7466      -999.2500      -999.2500      -999.2500      -999.2500        34.4038         2.3171         2.0071        66.8008     
 2311.4508        11.4243         0.1015        96.3118       116.8893       111.7388         1.7574      -999.2500      -999.2500      -999.2500      -999.2500        36.1554         2.2989         1.9449        66.8186     
 2311.6032        11.4213         0.1067        99.0122       117.7052       112.3703         1.7641      -999.2500      -999.2500      -999.2500      -999.2500        37.5971         2.2938         1.8599        66.8225     
 2311.7556        11.1729         0.1242       101.1627       117.5941       112.7241         1.7514      -999.2500      -999.2500      -999.2500      -999.2500        38.6590         2.3020         1.7678        66.7814     
 2311.9080        11.1539         0.1378       103.0327       117.0628       111.8979         1.7109      -999.2500      -999.2500      -999.2500      -999.2500        39.4390         2.2953         1.7182        66.7349     
 2312.0604        11.3220         0.1482       104.8381       117.7385       110.0824         1.6563      -999.2500      -999.2500      -999.2500      -999.2500        39.0191         2.2954         1.7459        66.6485     
 2312.2128        11.3485         0.1448       104.1864       119.8775       109.5622         1.6051      -999.2500      -999.2500      -999.2500      -999.2500        38.3920         2.2925         1.7833        66.3629     
 2312.3652        11.1931         0.1502       102.7475       122.2915       110.0438         1.5692      -999.2500      -999.2500      -999.2500      -999.2500        36.8434         2.2901         1.7899        66.1123     
 2312.5176        11.1778         0.1599       102.3733       124.1612       110.6301         1.5530      -999.2500      -999.2500      -999.2500      -999.2500        37.2820         2.2765         1.7897        65.9998     
 2312.6700        11.2129         0.1690       102.4088       125.5167       111.2888         1.5486      -999.2500      -999.2500      -999.2500      -999.2500        37.7013         2.2538         1.7670        65.9921     
 2312.8224        11.2726         0.1615       103.0797       124.1358       109.7856         1.5635      -999.2500      -999.2500      -999.2500      -999.2500        37.4206         2.2312         1.7329        66.0523     
 2312.9748        11.2636         0.1447       105.0654       120.6637       109.1930         1.6064      -999.2500      -999.2500      -999.2500      -999.2500        37.3998         2.2176         1.7000        66.1123     
 2313.1272        11.2642         0.1450       106.6119       117.6403       108.5920         1.6465      -999.2500      -999.2500      -999.2500      -999.2500        37.7872         2.2277         1.6873        66.1723     
 2313.2796        11.4137         0.1331       106.1150       116.1798       108.3176         1.6720      -999.2500      -999.2500      -999.2500      -999.2500        37.7291         2.2219         1.6941        66.2324     
 2313.4320        11.4971         0.1189       105.3731       115.1279       110.1642         1.6754      -999.2500      -999.2500      -999.2500      -999.2500        36.7581         2.2325         1.7351        66.2925     
