~Version Information Section
VERS.          2.0                                     : CWLS LOG ASCII Standard
WRAP.          NO                                      : One line per depth step
CREA.          17/09/15                                : LAS Creation Date
~Well Information Section
STRT.m         157.4292                                : Start Depth
STOP.m         2528.0112                               : Stop Depth
STEP.m         0.1524                                  : Step
NULL.          -999.2500                               : Null Value
COMP.          BP                                      : Company
WELL.          15/13-2                                 : Well
FLD .          EXPLORATION                             : Field
LOC .          NORTH SEA                               : Location
LOC1.          356416.20mE 64934767.81mN               : Location (UTM)
CTRY.          UK                                      : Country
PROV.          UKCS                                    : Province
UWI .          881                                     : UWI Number
API .                                                  : API Number
SECT.                                                  : Section
TOWN.                                                  : Township
RNGE.                                                  : Range
PDAT.          MSL                                     : Perm Datum
EPD .m         0.00                                    : Elevation
LMF .          RT                                      : Log Measured From
DMF .          RT                                      : Drill Measured From
APD .m         30.00                                   : Above Perm Datum
EKB .m         30.30                                   : Elev-Kelly Bushing
EDF .m         30.00                                   : Elev-Drill Floor
EGL .m         -140.00                                 : Elev-Ground Level (Water Depth)
TDD .m         2528.00                                 : Total Depth (Driller)
SRVC.          SCHLUMBERGER                            : Service Company
LATI.          58 33 24.4 N                            : Latitude
LONG.          00 31 55.1 E                            : Longitude
DATE.          AUG-OCT-1975                            : Logging Date
PROJ.          UKCS                                    : Project
SET .          COMP WIRE                               : Set
~Curve Information Section
DEPTH.m                                                : Depth Curve
CALI.in                                                : FDC Caliper
DRHO.g/cc                                              : Density Correction
DT.us/ft                                               : Delta-T
GR.gAPI                                                : ISF Gamma Ray
GRD.gAPI                                               : FDC Gamma Ray
ILD.ohmm                                               : Deep Induction Resistivity
MCAL.in                                                : Micro Caliper
MINV.ohmm                                              : Micro-Inverse Resistivity
MLL.ohmm                                               : Microlaterolog Resistivity
MNOR.ohmm                                              : Micro-Normal Resistivity
NPHI.%                                                 : Neutron Porosity
RHOB.g/cc                                              : Bulk Density
SFL.ohmm                                               : Spherically Focussed log Resistivity
SP.mV                                                  : Spontaneous Potential
~ASCII Log Data Section
# ...
 2253.2340        10.9524         0.1047       108.3058       125.1627       108.6641         1.5421      -999.2500      -999.2500      -999.2500      -999.2500        37.7486         2.2253         1.5314        64.4642     
 2253.3864        11.4381         0.1134       108.3201       125.6866       109.6853         1.5378      -999.2500      -999.2500      -999.2500      -999.2500        38.6957         2.2226         1.5757        64.4212     
 2253.5388        12.0993         0.1224       107.0734       127.3538       109.7303         1.5334      -999.2500      -999.2500      -999.2500      -999.2500        39.0891         2.2337         1.6263        64.2923     
 2253.6912        11.7900         0.1164       104.8678       126.6519       109.5235         1.5291      -999.2500      -999.2500      -999.2500      -999.2500        38.3951         2.2451         1.6546        64.1486     
 2253.8436        11.2216         0.1164       103.6491       124.1042       109.6180         1.5247      -999.2500      -999.2500      -999.2500      -999.2500        37.9846         2.2662         1.6514        64.0049     
 2253.9960        11.1323         0.1016       103.3181       121.8390       110.2845         1.5203      -999.2500      -999.2500      -999.2500      -999.2500        38.6640         2.2686         1.6464        63.8609     
 2254.1484        10.9787         0.0876       103.2193       121.2430       110.3606         1.5071      -999.2500      -999.2500      -999.2500      -999.2500        39.6187         2.2589         1.6406        63.7171     
 2254.3008        10.6302         0.1018       104.3966       122.0510       109.0067         1.4778      -999.2500      -999.2500      -999.2500      -999.2500        40.5688         2.2607         1.6169        63.5734     
 2254.4532        10.8601         0.0967       105.7783       122.1995       107.4613         1.4930      -999.2500      -999.2500      -999.2500      -999.2500        40.2163         2.2487         1.5405        63.4281     
 2254.6056        11.1906         0.0963       107.6190       121.5258       106.0959         1.5378      -999.2500      -999.2500      -999.2500      -999.2500        39.2057         2.2420         1.5177        63.2704     
 2254.7580        11.2077         0.1177       108.1293       120.6561       105.3679         1.5935      -999.2500      -999.2500      -999.2500      -999.2500        38.7922         2.2526         1.5561        63.1679     
 2254.9104        11.0018         0.1232       106.9650       120.9691       106.3257         1.6501      -999.2500      -999.2500      -999.2500      -999.2500        39.0035         2.2460         1.6589        63.6865     
 2255.0628        10.8434         0.1256       104.0172       122.5912       109.6108         1.6984      -999.2500      -999.2500      -999.2500      -999.2500        37.8329         2.2267         1.7664        63.4811     
 2255.2152        10.8769         0.1273       101.2032       124.8129       112.9794         1.6948      -999.2500      -999.2500      -999.2500      -999.2500        36.0540         2.2116         1.8233        62.9096     
 2255.3676        11.1223         0.1136        99.9809       127.8599       115.6467         1.6697      -999.2500      -999.2500      -999.2500      -999.2500        35.2713         2.2027         1.8474        63.2233     
 2255.5200        11.1320         0.1055        98.2542       130.2862       118.5639         1.6475      -999.2500      -999.2500      -999.2500      -999.2500        35.1566         2.2131         1.9222        63.6551     
 2255.6724        10.6358         0.1266        97.0903       129.8962       119.5820         1.6408      -999.2500      -999.2500      -999.2500      -999.2500        35.3006         2.2567         1.9863        64.1151     
 2255.8248        10.5794         0.1260        97.2730       126.7106       119.6979         1.6479      -999.2500      -999.2500      -999.2500      -999.2500        35.5242         2.2591         1.9370        64.1874     
 2255.9772        10.5691         0.1076       100.6167       124.8506       117.9141         1.6699      -999.2500      -999.2500      -999.2500      -999.2500        35.7679         2.2761         1.7989        63.6952     
 2256.1296        10.4622         0.1317       104.8151       126.4331       114.6891         1.6832      -999.2500      -999.2500      -999.2500      -999.2500        37.1071         2.3062         1.6509        63.5841     
 2256.2820        10.3097         0.1214       108.2716       128.5005       113.4232         1.6875      -999.2500      -999.2500      -999.2500      -999.2500        39.8850         2.2818         1.5426        63.8982     
 2256.4344        10.2989         0.1043       109.0016       129.6140       112.4463         1.6518      -999.2500      -999.2500      -999.2500      -999.2500        41.8005         2.2532         1.5571        64.3460     
 2256.5868        10.2479         0.1234       105.9898       129.5133       112.0378         1.5736      -999.2500      -999.2500      -999.2500      -999.2500        41.3200         2.2617         1.6348        64.8998     
 2256.7392        10.4910         0.1333       102.5636       127.7930       112.2956         1.4863      -999.2500      -999.2500      -999.2500      -999.2500        39.9966         2.2578         1.6830        64.8921     
 2256.8916        10.6817         0.1316       100.9977       125.6931       110.0796         1.4652      -999.2500      -999.2500      -999.2500      -999.2500        38.6993         2.2415         1.6822        64.4564     
 2257.0440        10.7037         0.1256       102.4154       124.8920       109.0104         1.5358      -999.2500      -999.2500      -999.2500      -999.2500        38.1294         2.2194         1.6553        64.1657     
 2257.1964        11.1224         0.1286       106.0118       125.8433       109.6154         1.6444      -999.2500      -999.2500      -999.2500      -999.2500        38.6026         2.2019         1.6137        63.9088     
 2257.3488        10.9441         0.1435       107.1984       126.9207       109.6012         1.7079      -999.2500      -999.2500      -999.2500      -999.2500        39.4061         2.1856         1.5554        63.6524     
 2257.5012        10.7547         0.1571       106.5548       126.6937       106.8316         1.7242      -999.2500      -999.2500      -999.2500      -999.2500        40.2084         2.1713         1.5476        63.3959     
 2257.6536        10.8761         0.1420       103.4481       125.6461       106.1452         1.7483      -999.2500      -999.2500      -999.2500      -999.2500        39.8491         2.1692         1.7031        63.1762     
 2257.8060        11.1017         0.1191        99.6559       124.0300       109.5586         1.7420      -999.2500      -999.2500      -999.2500      -999.2500        39.7124         2.1952         1.9245        63.2104     
 2257.9584        11.1867         0.0851        96.7206       122.6776       112.4807         1.7308      -999.2500      -999.2500      -999.2500      -999.2500        38.5914         2.2165         2.1104        63.2928     
 2258.1108        10.6692         0.0595        94.8276       123.0822       113.1965         1.7392      -999.2500      -999.2500      -999.2500      -999.2500        36.7844         2.2398         2.1318        63.3750     
 2258.2632        10.4448         0.0591        96.0643       123.8776       112.2431         1.7770      -999.2500      -999.2500      -999.2500      -999.2500        34.9538         2.2646         2.0342        63.4279     
 2258.4156        10.2791         0.0519        98.8207       124.8725       111.4617         1.8060      -999.2500      -999.2500      -999.2500      -999.2500        34.1184         2.2503         1.9169        63.4525     
 2258.5680        10.1806         0.0728       101.2293       125.6259       111.6933         1.7906      -999.2500      -999.2500      -999.2500      -999.2500        35.1379         2.2283         1.8165        63.4906     
