~Version Information Section
VERS.          2.0                                     : CWLS LOG ASCII Standard
WRAP.          NO                                      : One line per depth step
CREA.          17/09/15                                : LAS Creation Date
~Well Information Section
STRT.m         157.4292                                : Start Depth
STOP.m         2528.0112                               : Stop Depth
STEP.m         0.1524                                  : Step
NULL.          -999.2500                               : Null Value
COMP.          BP                                      : Company
WELL.          15/13-2                                 : Well
FLD .          EXPLORATION                             : Field
LOC .          NORTH SEA                               : Location
LOC1.          356416.20mE 64934767.81mN               : Location (UTM)
CTRY.          UK                                      : Country
PROV.          UKCS                                    : Province
UWI .          881                                     : UWI Number
API .                                                  : API Number
SECT.                                                  : Section
TOWN.                                                  : Township
RNGE.                                                  : Range
PDAT.          MSL                                     : Perm Datum
EPD .m         0.00                                    : Elevation
LMF .          RT                                      : Log Measured From
DMF .          RT                                      : Drill Measured From
APD .m         30.00                                   : Above Perm Datum
EKB .m         30.30                                   : Elev-Kelly Bushing
EDF .m         30.00                                   : Elev-Drill Floor
EGL .m         -140.00                                 : Elev-Ground Level (Water Depth)
TDD .m         2528.00                                 : Total Depth (Driller)
SRVC.          SCHLUMBERGER                            : Service Company
LATI.          58 33 24.4 N                            : Latitude
LONG.          00 31 55.1 E                            : Longitude
DATE.          AUG-OCT-1975                            : Logging Date
PROJ.          UKCS                                    : Project
SET .          COMP WIRE                               : Set
~Curve Information Section
DEPTH.m                                                : Depth Curve
CALI.in                                                : FDC Caliper
DRHO.g/cc                                              : Density Correction
DT.us/ft                                               : Delta-T
GR.gAPI                                                : ISF Gamma Ray
GRD.gAPI                                               : FDC Gamma Ray
ILD.ohmm                                               : Deep Induction Resistivity
MCAL.in                                                : Micro Caliper
MINV.ohmm                                              : Micro-Inverse Resistivity
MLL.ohmm                                               : Microlaterolog Resistivity
MNOR.ohmm                                              : Micro-Normal Resistivity
NPHI.%                                                 : Neutron Porosity
RHOB.g/cc                                              : Bulk Density
SFL.ohmm                                               : Spherically Focussed log Resistivity
SP.mV                                                  : Spontaneous Potential
~ASCII Log Data Section
# ...
 2390.3940         8.9709         0.0057        53.0780        27.0915        22.1208       147.9695      -999.2500      -999.2500      -999.2500      -999.2500         0.5554         2.8894       596.4894        57.4869     
 2390.5464         8.9663         0.0096        52.7585        26.9486        22.3470       172.8705      -999.2500      -999.2500      -999.2500      -999.2500         0.5800         2.8995       665.0980        57.2029     
 2390.6988         8.9657         0.0196        52.6976        26.8288        22.9461       196.3089      -999.2500      -999.2500      -999.2500      -999.2500         0.6045         2.9169       806.3369        56.7408     
 2390.8512         8.9636         0.0227        52.8210        27.3649        23.4331       212.3061      -999.2500      -999.2500      -999.2500      -999.2500         0.6290         2.9238       910.3795        56.1783     
 2391.0036         8.9717         0.0209        53.1780        27.5961        23.4804       204.8407      -999.2500      -999.2500      -999.2500      -999.2500         0.6536         2.9161       869.2211        55.5386     
 2391.1560         8.9737         0.0247        53.5965        27.0931        23.5232       181.7089      -999.2500      -999.2500      -999.2500      -999.2500         0.6781         2.9199       789.3619        55.3642     
 2391.3084         8.9731         0.0423        54.0041        27.0566        23.5069       193.7767      -999.2500      -999.2500      -999.2500      -999.2500         0.6570         2.9621       876.3752        55.2081     
 2391.4608         8.9724         0.0388        54.0919        27.0209        23.0310       206.8362      -999.2500      -999.2500      -999.2500      -999.2500         0.5303         2.9677       897.6550        55.0503     
 2391.6132         8.9718         0.0234        53.5817        26.4669        22.5728       226.7245      -999.2500      -999.2500      -999.2500      -999.2500         0.3640         2.9560       787.1429        54.6080     
 2391.7656         8.9586         0.0171        53.0253        25.5445        22.3073       277.8130      -999.2500      -999.2500      -999.2500      -999.2500         0.2293         2.9484      1277.3284        54.0360     
 2391.9180         8.9238         0.0131        52.4610        24.6593        21.7572       307.2880      -999.2500      -999.2500      -999.2500      -999.2500         0.1317         2.9556      1672.7244        53.1721     
 2392.0704         8.9550         0.0077        52.3182        24.2754        20.7851       343.0853      -999.2500      -999.2500      -999.2500      -999.2500         0.0820         2.9429      1700.9646        52.7270     
 2392.2228         8.9631         0.0132        52.5037        23.9696        19.7418       398.5377      -999.2500      -999.2500      -999.2500      -999.2500         0.0671         2.9301      1692.3513        52.4624     
 2392.3752         8.9686         0.0117        52.7001        23.8266        19.6928       382.5622      -999.2500      -999.2500      -999.2500      -999.2500         0.0814         2.9241      1605.0144        52.3053     
 2392.5276         8.9675         0.0051        52.8964        24.0081        20.0677       337.7664      -999.2500      -999.2500      -999.2500      -999.2500         0.1150         2.9081      1226.5618        52.3354     
 2392.6800         8.9606         0.0025        53.0372        24.2634        21.0717       341.1826      -999.2500      -999.2500      -999.2500      -999.2500         0.1946         2.8837      1497.6941        52.5793     
 2392.8324         8.9572         0.0038        52.8551        24.3479        22.0405       337.1001      -999.2500      -999.2500      -999.2500      -999.2500         0.3269         2.8835      1266.6921        52.8336     
 2392.9848         8.9517         0.0030        52.5249        24.9144        22.1095       295.0468      -999.2500      -999.2500      -999.2500      -999.2500         0.4348         2.8814       497.1093        52.9950     
 2393.1372         8.9466        -0.0013        52.1071        26.1833        22.1657       245.1335      -999.2500      -999.2500      -999.2500      -999.2500         0.5023         2.8798      1071.4104        53.2153     
 2393.2896         8.9471        -0.0020        52.2250        27.4418        22.7095       200.9238      -999.2500      -999.2500      -999.2500      -999.2500         0.6450         2.8815      1660.3020        53.2518     
 2393.4420         8.9457         0.0010        52.9202        29.0070        23.0513       181.5329      -999.2500      -999.2500      -999.2500      -999.2500         0.9329         2.8910      1651.8792        53.0641     
 2393.5944         8.9617         0.0033        54.2083        31.3598        22.9342       178.6826      -999.2500      -999.2500      -999.2500      -999.2500         1.2684         2.8937      1158.6123        52.5913     
 2393.7468         8.9628         0.0051        54.6938        32.9967        23.6083       184.5309      -999.2500      -999.2500      -999.2500      -999.2500         1.6127         2.9008       433.6136        52.0861     
 2393.8992         8.9621         0.0115        54.7422        33.4514        24.5472       184.7421      -999.2500      -999.2500      -999.2500      -999.2500         1.9400         2.8894       202.8549        51.5604     
 2394.0516         8.9615         0.0129        54.5834        32.4411        26.2935       165.1557      -999.2500      -999.2500      -999.2500      -999.2500         2.1552         2.8780       278.3651        52.2040     
 2394.2040         8.9609         0.0145        54.2325        30.7435        26.4926       147.4552      -999.2500      -999.2500      -999.2500      -999.2500         1.9821         2.8874       504.2056        53.0392     
 2394.3564         8.9602         0.0128        53.7220        30.1963        24.9348       143.5696      -999.2500      -999.2500      -999.2500      -999.2500         1.4753         2.9012       730.9811        53.4160     
 2394.5088         8.9596         0.0088        53.7132        29.9717        23.7976       158.0087      -999.2500      -999.2500      -999.2500      -999.2500         1.0713         2.8925       692.2052        53.7344     
 2394.6612         8.9589         0.0116        53.9207        29.2354        24.1690       177.4671      -999.2500      -999.2500      -999.2500      -999.2500         0.9374         2.8797       462.1832        53.9162     
 2394.8136         8.9583         0.0149        53.6945        27.9464        24.5812       197.2742      -999.2500      -999.2500      -999.2500      -999.2500         0.9528         2.8881       521.2631        53.9751     
 2394.9660         8.9576         0.0154        53.3801        26.6626        24.3373       242.1216      -999.2500      -999.2500      -999.2500      -999.2500         0.8984         2.9100       897.3584        54.1927     
 2395.1184         8.9570         0.0136        53.0577        24.9876        23.0354       306.8953      -999.2500      -999.2500      -999.2500      -999.2500         0.7337         2.9324      1531.6719        54.4327     
 2395.2708         8.9563         0.0058        52.8038        24.3512        20.7178       361.7629      -999.2500      -999.2500      -999.2500      -999.2500         0.4972         2.9286      1689.3171        54.4392     
 2395.4232         8.9557         0.0012        52.7560        24.1077        20.0040       479.0828      -999.2500      -999.2500      -999.2500      -999.2500         0.3315         2.9205      1692.3340        54.3587     
 2395.5756         8.9551         0.0034        52.7707        23.9679        20.5082       977.9685      -999.2500      -999.2500      -999.2500      -999.2500         0.2725         2.9228      1682.8271        53.9422     
 2395.7280         8.9544         0.0078        52.7855        24.4320        20.8750      1363.8401      -999.2500      -999.2500      -999.2500      -999.2500         0.2907         2.9138      1680.7002        54.0385     
