~Version Information Section
VERS.          2.0                                     : CWLS LOG ASCII Standard
WRAP.          NO                                      : One line per depth step
CREA.          17/09/15                                : LAS Creation Date
~Well Information Section
STRT.m         157.4292                                : Start Depth
STOP.m         2528.0112                               : Stop Depth
STEP.m         0.1524                                  : Step
NULL.          -999.2500                               : Null Value
COMP.          BP                                      : Company
WELL.          15/13-2                                 : Well
FLD .          EXPLORATION                             : Field
LOC .          NORTH SEA                               : Location
LOC1.          356416.20mE 64934767.81mN               : Location (UTM)
CTRY.          UK                                      : Country
PROV.          UKCS                                    : Province
UWI .          881                                     : UWI Number
API .                                                  : API Number
SECT.                                                  : Section
TOWN.                                                  : Township
RNGE.                                                  : Range
PDAT.          MSL                                     : Perm Datum
EPD .m         0.00                                    : Elevation
LMF .          RT                                      : Log Measured From
DMF .          RT                                      : Drill Measured From
APD .m         30.00                                   : Above Perm Datum
EKB .m         30.30                                   : Elev-Kelly Bushing
EDF .m         30.00                                   : Elev-Drill Floor
EGL .m         -140.00                                 : Elev-Ground Level (Water Depth)
TDD .m         2528.00                                 : Total Depth (Driller)
SRVC.          SCHLUMBERGER                            : Service Company
LATI.          58 33 24.4 N                            : Latitude
LONG.          00 31 55.1 E                            : Longitude
DATE.          AUG-OCT-1975                            : Logging Date
PROJ.          UKCS                                    : Project
SET .          COMP WIRE                               : Set
~Curve Information Section
DEPTH.m                                                : Depth Curve
CALI.in                                                : FDC Caliper
DRHO.g/cc                                              : Density Correction
DT.us/ft                                               : Delta-T
GR.gAPI                                                : ISF Gamma Ray
GRD.gAPI                                               : FDC Gamma Ray
ILD.ohmm                                               : Deep Induction Resistivity
MCAL.in                                                : Micro Caliper
MINV.ohmm                                              : Micro-Inverse Resistivity
MLL.ohmm                                               : Microlaterolog Resistivity
MNOR.ohmm                                              : Micro-Normal Resistivity
NPHI.%                                                 : Neutron Porosity
RHOB.g/cc                                              : Bulk Density
SFL.ohmm                                               : Spherically Focussed log Resistivity
SP.mV                                                  : Spontaneous Potential
~ASCII Log Data Section
# ...
 2121.5604        12.4175         0.0269        70.5622        51.6858        36.8205         3.8445        11.0723         2.0183         5.1930         1.1808        26.5341         2.3720         5.1138        49.0721     
 2121.7128        12.4966         0.0201        70.5891        52.1149        37.5543         3.6394        11.0883         1.6937         5.6357         1.0978        26.2902         2.3776         4.8999        49.4172     
 2121.8652        12.4761         0.0165        71.7233        53.5916        39.5970         3.4343        11.0600         0.7680         6.4654         0.9181        25.4474         2.3936         4.5914        49.9389     
 2122.0176        12.5755         0.0147        73.7828        56.0730        41.8554         3.2450        11.0162         0.5500         5.4291         0.6308        24.5345         2.4119         4.2703        50.4606     
 2122.1700        12.7003         0.0143        77.6374        58.7243        43.9317         3.1727        10.9517         0.4377         4.9642         0.4901        23.6215         2.4306         3.6679        50.9372     
 2122.3224        12.8252         0.0307        80.9142        59.7099        45.0771         3.1314        10.8703         0.5744         1.6728         0.4717        23.1884         2.4637         3.1730        51.0581     
 2122.4748        12.8876         0.0613        82.8732        60.9034        46.4122         3.0273        10.9891         0.3190         2.8240         0.3713        23.3769         2.4909         3.0657        50.8834     
 2122.6272        12.8273         0.0838        84.2524        61.8561        46.3630         2.8150        11.0363         0.5943         4.3337         0.4137        23.4047         2.5087         3.1285        50.4476     
 2122.7796        12.8757         0.1124        83.7698        62.7182        45.8971         2.6386        11.0420         0.6048         4.0414         0.5652        23.9822         2.5392         3.2451        49.9878     
 2122.9320        12.8551         0.1386        82.8781        63.2822        45.3093         2.5594        11.0316         0.6262         4.5756         0.6178        25.6854         2.5518         3.2893        49.7786     
 2123.0844        12.8221         0.1219        82.5963        63.1555        45.2834         2.4984        11.0206         1.2881         4.2714         0.7586        27.0273         2.5324         3.2856        49.6336     
 2123.2368        12.8416         0.0962        82.3253        61.5760        45.6832         2.4689        11.0096         1.9730         4.5143         0.9368        27.8284         2.5070         3.1787        49.6791     
 2123.3892        12.8011         0.0751        81.9169        59.9143        46.6132         2.4835        10.9283         1.4292         3.9309         0.9578        28.4000         2.4782         2.9900        49.9485     
 2123.5416        12.6884         0.0565        82.0508        59.0784        46.7613         2.4836        10.6753         0.7529         1.5533         0.6793        28.7579         2.4508         2.8521        50.2239     
 2123.6940        12.5988         0.0503        82.9466        58.8534        46.9290         2.4606        10.6022         0.5389         2.6805         0.4673        27.5563         2.4525         2.7853        50.4993     
 2123.8464        12.6202         0.0629        82.9913        59.4494        48.8184         2.3879        10.8492         0.2802         2.7974         0.3643        26.5915         2.4647         2.8803        50.7548     
 2123.9988        12.7398         0.0592        82.8486        60.0264        49.7569         2.3317        10.9572         0.3970         6.8677         0.7186        25.7048         2.4650         2.9759        50.8333     
 2124.1512        12.8150         0.0290        83.9291        61.0901        50.3855         2.2863        10.9561         0.6111         6.1734         0.7355        24.8771         2.4478         2.8747        50.8791     
 2124.3036        12.8654         0.0345        85.1781        62.3017        52.5334         2.2601        10.9522         0.5890         6.9644         0.6540        23.9583         2.4538         2.3712        51.0908     
 2124.4560        12.9117         0.0640        88.7671        63.5966        53.8011         2.2257        10.8887         0.6333         3.4435         0.6160        25.2454         2.4699         2.0744        51.2159     
 2124.6084        12.8457         0.0743        91.2679        65.1028        53.4682         2.1669        10.4798         0.4253         0.8465         0.5565        26.9069         2.4557         2.0891        51.0853     
 2124.7608        12.8031         0.0619        91.0598        66.0218        52.5549         2.1433        10.3225         0.1976         0.6978         0.3020        27.1128         2.4410         2.3647        50.9614     
 2124.9132        12.8249         0.0686        89.5927        66.6066        50.7868         2.2187        10.7060         0.3917         2.0651         0.5188        26.2069         2.4578         2.5121        51.0875     
 2125.0656        12.8534         0.0977        88.3057        66.5089        49.6283         2.4192        10.4182         0.6938         1.5729         1.0439        26.6662         2.4627         2.5105        51.3141     
 2125.2180        12.7979         0.1169        87.9532        63.6521        50.3440         2.6309        11.0241         0.6716         0.4794         0.4389        27.8125         2.4363         2.6198        51.5570     
 2125.3704        12.6682         0.1201        85.7468        61.4667        50.5348         2.8359        11.0309         0.7445         1.3152         0.4225        28.4114         2.4068         3.1856        51.7927     
 2125.5228        12.3989         0.1089        82.6434        60.3448        49.2710         3.0227        11.0114         0.8339         4.1860         0.6030        27.0975         2.3984         3.8353        52.0028     
 2125.6752        12.2848         0.0952        78.9375        59.6621        49.1031         3.2575        10.9722         1.2113         6.4151         0.7704        25.0708         2.4444         4.4925        52.2097     
 2125.8276        12.3106         0.0767        76.8162        59.8767        49.1377         3.5477        10.8712         0.6394         6.6730         0.6576        22.6464         2.4833         4.8783        52.3945     
 2125.9800        12.3852         0.0539        76.0903        59.8260        48.4788         3.8109        10.7610         0.3784         6.3669         0.4706        20.2816         2.4982         4.9780        52.4330     
 2126.1324        12.4766         0.0339        75.4246        59.4077        48.6005         3.9489        10.6198         0.4244         5.4836         0.5255        18.8753         2.5110         4.9880        52.4488     
 2126.2848        12.5694         0.0300        75.8377        59.1040        49.1268         3.9862        10.4110         0.4984         3.4911         0.5524        18.1828         2.5289         4.5547        52.4645     
 2126.4372        12.6655         0.0295        77.1503        59.8335        50.5802         3.9709        10.5348         0.5789         4.5344         0.6362        18.3765         2.5183         3.9160        52.5499     
 2126.5896        12.6972         0.0474        78.4472        61.2967        52.0289         3.9037        10.7876         0.4957         1.4472         0.7277        19.6974         2.4953         3.7806        52.5588     
 2126.7420        12.6700         0.0758        78.3237        62.6972        53.4799         3.8001        10.9760         0.3912         4.4691         0.4332        21.3042         2.4810         3.9676        52.6112     
 2126.8944        12.4738         0.1056        77.4310        62.9813        54.8625         3.7388        10.9790         0.5512         9.5348         0.8300        23.6006         2.4599         4.5003        52.5045     
