~Version Information Section
VERS.          2.0                                     : CWLS LOG ASCII Standard
WRAP.          NO                                      : One line per depth step
CREA.          17/09/15                                : LAS Creation Date
~Well Information Section
STRT.m         157.4292                                : Start Depth
STOP.m         2528.0112                               : Stop Depth
STEP.m         0.1524                                  : Step
NULL.          -999.2500                               : Null Value
COMP.          BP                                      : Company
WELL.          15/13-2                                 : Well
FLD .          EXPLORATION                             : Field
LOC .          NORTH SEA                               : Location
LOC1.          356416.20mE 64934767.81mN               : Location (UTM)
CTRY.          UK                                      : Country
PROV.          UKCS                                    : Province
UWI .          881                                     : UWI Number
API .                                                  : API Number
SECT.                                                  : Section
TOWN.                                                  : Township
RNGE.                                                  : Range
PDAT.          MSL                                     : Perm Datum
EPD .m         0.00                                    : Elevation
LMF .          RT                                      : Log Measured From
DMF .          RT                                      : Drill Measured From
APD .m         30.00                                   : Above Perm Datum
EKB .m         30.30                                   : Elev-Kelly Bushing
EDF .m         30.00                                   : Elev-Drill Floor
EGL .m         -140.00                                 : Elev-Ground Level (Water Depth)
TDD .m         2528.00                                 : Total Depth (Driller)
SRVC.          SCHLUMBERGER                            : Service Company
LATI.          58 33 24.4 N                            : Latitude
LONG.          00 31 55.1 E                            : Longitude
DATE.          AUG-OCT-1975                            : Logging Date
PROJ.          UKCS                                    : Project
SET .          COMP WIRE                               : Set
~Curve Information Section
DEPTH.m                                                : Depth Curve
CALI.in                                                : FDC Caliper
DRHO.g/cc                                              : Density Correction
DT.us/ft                                               : Delta-T
GR.gAPI                                                : ISF Gamma Ray
GRD.gAPI                                               : FDC Gamma Ray
ILD.ohmm                                               : Deep Induction Resistivity
MCAL.in                                                : Micro Caliper
MINV.ohmm                                              : Micro-Inverse Resistivity
MLL.ohmm                                               : Microlaterolog Resistivity
MNOR.ohmm                                              : Micro-Normal Resistivity
NPHI.%                                                 : Neutron Porosity
RHOB.g/cc                                              : Bulk Density
SFL.ohmm                                               : Spherically Focussed log Resistivity
SP.mV                                                  : Spontaneous Potential
~ASCII Log Data Section
# ...
 2362.9620         8.9551         0.0052        52.5404        25.6579        22.1906       226.5393      -999.2500      -999.2500      -999.2500      -999.2500         0.3324         2.9293       377.5923        53.1401     
 2363.1144         8.9589         0.0046        53.0636        25.0942        22.1800       276.0468      -999.2500      -999.2500      -999.2500      -999.2500         0.2870         2.9422       396.8541        52.1896     
 2363.2668         8.9659         0.0030        53.4786        23.9585        20.8239       308.7018      -999.2500      -999.2500      -999.2500      -999.2500         0.1101         2.9612       387.5496        51.1238     
 2363.4192         8.9624         0.0030        53.4598        23.7536        20.0835       465.6555      -999.2500      -999.2500      -999.2500      -999.2500         0.0340         2.9484       429.5247        50.3728     
 2363.5716         8.9532         0.0029        53.1764        23.6961        19.8638       766.8950      -999.2500      -999.2500      -999.2500      -999.2500         0.2704         2.9217       874.1931        49.9245     
 2363.7240         8.9523         0.0029        52.4881        23.2510        19.0951      1070.2141      -999.2500      -999.2500      -999.2500      -999.2500         0.6685         2.8954      1437.9121        50.1353     
 2363.8764         8.9514         0.0030        51.3395        22.7850        17.8834      1308.7087      -999.2500      -999.2500      -999.2500      -999.2500         0.8607         2.8865      1692.1050        50.7636     
 2364.0288         8.9609         0.0033        51.3240        22.1813        18.0312      1397.7615      -999.2500      -999.2500      -999.2500      -999.2500         0.8301         2.8947      1719.1626        51.3872     
 2364.1812         8.9496         0.0037        51.3430        22.3524        18.9450      1418.2078      -999.2500      -999.2500      -999.2500      -999.2500         0.6600         2.8905      1721.4426        51.7900     
 2364.3336         8.9578         0.0036        51.5925        23.3335        19.9938      1444.0352      -999.2500      -999.2500      -999.2500      -999.2500         0.4624         2.8882      1732.0920        52.1174     
 2364.4860         8.9646         0.0032        51.6773        23.8317        19.8496      1487.3640      -999.2500      -999.2500      -999.2500      -999.2500         0.4465         2.8829      1744.1851        52.1130     
 2364.6384         8.9668         0.0029        51.3761        23.6384        19.6167      1484.2244      -999.2500      -999.2500      -999.2500      -999.2500         0.7366         2.8910      1753.1252        51.8944     
 2364.7908         8.9659         0.0027        51.3416        23.0588        19.7188      1471.8318      -999.2500      -999.2500      -999.2500      -999.2500         0.8353         2.8906      1754.5339        51.6758     
 2364.9432         8.9650         0.0026        51.3451        22.4400        19.3977      1469.9175      -999.2500      -999.2500      -999.2500      -999.2500         0.6913         2.8917      1755.1592        51.4694     
 2365.0956         8.9641         0.0026        51.3486        21.7279        19.9777      1468.0000      -999.2500      -999.2500      -999.2500      -999.2500         0.5811         2.8978      1731.1816        51.3502     
 2365.2480         8.9632         0.0027        51.2376        20.5016        19.4737      1466.0854      -999.2500      -999.2500      -999.2500      -999.2500         0.4781         2.9058      1239.3115        51.2759     
 2365.4004         8.9623         0.0033        51.2917        21.0335        19.6616      1464.1711      -999.2500      -999.2500      -999.2500      -999.2500         0.2983         2.9155      1355.9802        51.4183     
 2365.5528         8.9614         0.0051        51.6620        21.6772        19.8083      1461.7664      -999.2500      -999.2500      -999.2500      -999.2500         0.1117         2.9285      1749.6914        51.6918     
 2365.7052         8.9606         0.0067        51.7622        22.0039        19.2705      1457.8926      -999.2500      -999.2500      -999.2500      -999.2500         0.0320         2.9478      1782.1841        52.2093     
 2365.8576         8.9597         0.0044        51.7842        22.1541        19.1360      1453.8521      -999.2500      -999.2500      -999.2500      -999.2500         0.0747         2.9494      1768.2280        52.7597     
 2366.0100         8.9678         0.0023        51.8672        22.5872        19.1267      1446.6223      -999.2500      -999.2500      -999.2500      -999.2500         0.1633         2.9391      1756.8909        53.2749     
 2366.1624         8.9778         0.0010        51.9578        22.7437        17.8411      1431.8757      -999.2500      -999.2500      -999.2500      -999.2500         0.1871         2.9355      1752.5952        53.4828     
 2366.3148         8.9765         0.0004        52.0447        22.2192        17.0253      1419.6272      -999.2500      -999.2500      -999.2500      -999.2500         0.1747         2.9154      1748.2932        53.5573     
 2366.4672         8.9652         0.0003        52.0027        21.2704        16.7533      1403.3215      -999.2500      -999.2500      -999.2500      -999.2500         0.2020         2.9054      1745.5859        53.4553     
 2366.6196         8.9751         0.0003        51.9829        20.4627        16.8520      1360.7524      -999.2500      -999.2500      -999.2500      -999.2500         0.3215         2.9046      1737.7458        53.4478     
 2366.7720         8.9642         0.0002        52.0705        20.6642        17.5834      1264.0979      -999.2500      -999.2500      -999.2500      -999.2500         0.6175         2.8860      1653.8787        53.5502     
 2366.9244         8.9156         0.0002        52.4138        22.5606        18.9918      1336.1948      -999.2500      -999.2500      -999.2500      -999.2500         0.8241         2.8792      1251.9492        53.6527     
 2367.0768         8.9723         0.0006        52.7989        24.3031        19.4371      1312.6167      -999.2500      -999.2500      -999.2500      -999.2500         0.7347         2.8824       572.0170        53.7694     
 2367.2292         8.9715         0.0030        52.9915        25.0096        19.5327      1219.6423      -999.2500      -999.2500      -999.2500      -999.2500         0.5481         2.8909       309.5257        53.9969     
 2367.3816         8.9706         0.0050        52.7796        25.5151        20.2484      1355.8992      -999.2500      -999.2500      -999.2500      -999.2500         0.3234         2.8932       540.1385        54.2488     
 2367.5340         8.9697         0.0043        52.3599        25.3767        20.7569      1221.2346      -999.2500      -999.2500      -999.2500      -999.2500         0.1592         2.8863      1236.0610        54.3509     
 2367.6864         8.9688        -0.0010        51.8578        24.8007        20.8744      1198.7778      -999.2500      -999.2500      -999.2500      -999.2500         0.0993         2.8784      1660.3179        54.3462     
 2367.8388         8.9679        -0.0064        51.7681        23.8617        19.4865      1378.3408      -999.2500      -999.2500      -999.2500      -999.2500         0.0738         2.8665      1756.7256        54.3215     
 2367.9912         8.9670        -0.0096        51.9934        22.7120        17.7297      1405.7922      -999.2500      -999.2500      -999.2500      -999.2500         0.0524         2.8612      1761.6062        54.2004     
 2368.1436         8.9637        -0.0033        52.0271        21.9696        18.0039      1427.8320      -999.2500      -999.2500      -999.2500      -999.2500         0.0362         2.8708      1752.9971        54.2233     
 2368.2960         8.9624         0.0046        52.1839        21.9492        18.9980      1455.5212      -999.2500      -999.2500      -999.2500      -999.2500         0.0199         2.8960      1748.7803        54.4781     
