~Version Information Section
VERS.          2.0                                     : CWLS LOG ASCII Standard
WRAP.          NO                                      : One line per depth step
CREA.          17/09/15                                : LAS Creation Date
~Well Information Section
STRT.m         157.4292                                : Start Depth
STOP.m         2528.0112                               : Stop Depth
STEP.m         0.1524                                  : Step
NULL.          -999.2500                               : Null Value
COMP.          BP                                      : Company
WELL.          15/13-2                                 : Well
FLD .          EXPLORATION                             : Field
LOC .          NORTH SEA                               : Location
LOC1.          356416.20mE 64934767.81mN               : Location (UTM)
CTRY.          UK                                      : Country
PROV.          UKCS                                    : Province
UWI .          881                                     : UWI Number
API .                                                  : API Number
SECT.                                                  : Section
TOWN.                                                  : Township
RNGE.                                                  : Range
PDAT.          MSL                                     : Perm Datum
EPD .m         0.00                                    : Elevation
LMF .          RT                                      : Log Measured From
DMF .          RT                                      : Drill Measured From
APD .m         30.00                                   : Above Perm Datum
EKB .m         30.30                                   : Elev-Kelly Bushing
EDF .m         30.00                                   : Elev-Drill Floor
EGL .m         -140.00                                 : Elev-Ground Level (Water Depth)
TDD .m         2528.00                                 : Total Depth (Driller)
SRVC.          SCHLUMBERGER                            : Service Company
LATI.          58 33 24.4 N                            : Latitude
LONG.          00 31 55.1 E                            : Longitude
DATE.          AUG-OCT-1975                            : Logging Date
PROJ.          UKCS                                    : Project
SET .          COMP WIRE                               : Set
~Curve Information Section
DEPTH.m                                                : Depth Curve
CALI.in                                                : FDC Caliper
DRHO.g/cc                                              : Density Correction
DT.us/ft                                               : Delta-T
GR.gAPI                                                : ISF Gamma Ray
GRD.gAPI                                               : FDC Gamma Ray
ILD.ohmm                                               : Deep Induction Resistivity
MCAL.in                                                : Micro Caliper
MINV.ohmm                                              : Micro-Inverse Resistivity
MLL.ohmm                                               : Microlaterolog Resistivity
MNOR.ohmm                                              : Micro-Normal Resistivity
NPHI.%                                                 : Neutron Porosity
RHOB.g/cc                                              : Bulk Density
SFL.ohmm                                               : Spherically Focussed log Resistivity
SP.mV                                                  : Spontaneous Potential
~ASCII Log Data Section
# ...
 2439.7716         8.8741         0.0326        54.7012        37.2701        37.3750        77.0719      -999.2500      -999.2500      -999.2500      -999.2500         3.1626         2.8598       281.5500        64.0002     
 2439.9240         8.8724         0.0392        55.1324        40.8937        38.9704        69.4422      -999.2500      -999.2500      -999.2500      -999.2500         3.2582         2.8463       192.6006        64.6312     
 2440.0764         8.8707         0.0546        55.0590        46.7042        41.5647        61.7103      -999.2500      -999.2500      -999.2500      -999.2500         3.3524         2.8273       120.7777        64.5002     
 2440.2288         8.8689         0.0591        55.2243        49.2839        45.1320        54.7501      -999.2500      -999.2500      -999.2500      -999.2500         3.4056         2.8014        98.4579        64.2321     
 2440.3812         8.8672         0.0472        55.4759        49.8364        48.3104        47.9909      -999.2500      -999.2500      -999.2500      -999.2500         3.3686         2.7627        94.3087        64.0604     
 2440.5336         8.8656         0.0229        54.6882        50.9016        50.7697        41.3898      -999.2500      -999.2500      -999.2500      -999.2500         3.2790         2.7157        79.7166        63.9012     
 2440.6860         8.8654         0.0211        53.9814        51.7302        53.0972        36.6098      -999.2500      -999.2500      -999.2500      -999.2500         3.3446         2.7026        79.7562        63.4073     
 2440.8384         8.8653         0.0301        53.8579        52.4994        56.4673        36.6502      -999.2500      -999.2500      -999.2500      -999.2500         3.7881         2.7033       107.8937        62.9032     
 2440.9908         8.8653         0.0262        54.4883        54.6799        59.6104        37.9384      -999.2500      -999.2500      -999.2500      -999.2500         4.4599         2.6888        86.7082        62.9300     
 2441.1432         8.8653         0.0235        55.4128        58.9275        62.2355        39.5018      -999.2500      -999.2500      -999.2500      -999.2500         5.1333         2.6757        58.5902        63.0477     
 2441.2956         8.8652         0.0262        55.6118        60.7220        63.9063        42.5292      -999.2500      -999.2500      -999.2500      -999.2500         6.1319         2.6721        48.4944        63.3191     
 2441.4480         8.8652         0.0254        54.5649        58.8766        63.8640        46.5121      -999.2500      -999.2500      -999.2500      -999.2500         7.3347         2.6683        50.7860        64.0629     
 2441.6004         8.8652         0.0153        52.5210        51.1521        60.1875        47.5975      -999.2500      -999.2500      -999.2500      -999.2500         7.7665         2.6637        71.5428        64.7024     
 2441.7528         8.8651         0.0058        50.3287        43.2831        50.7811        48.3584      -999.2500      -999.2500      -999.2500      -999.2500         7.5775         2.6723        97.2542        64.7906     
 2441.9052         8.8651        -0.0028        49.0305        39.9433        44.6234        49.7023      -999.2500      -999.2500      -999.2500      -999.2500         7.1837         2.6858       122.9245        64.7267     
 2442.0576         8.8442        -0.0070        48.9196        39.3176        40.3933        51.0944      -999.2500      -999.2500      -999.2500      -999.2500         6.9062         2.7147       139.8338        64.7042     
 2442.2100         8.7372        -0.0020        49.1963        41.9055        40.2559        56.9681      -999.2500      -999.2500      -999.2500      -999.2500         6.9035         2.7383       128.4712        64.4742     
 2442.3624         8.6760         0.0045        49.5157        46.6077        42.2182        62.7969      -999.2500      -999.2500      -999.2500      -999.2500         7.2422         2.7521       101.7074        63.5791     
 2442.5148         8.7266         0.0144        49.8938        49.8522        44.8573        60.5770      -999.2500      -999.2500      -999.2500      -999.2500         7.8257         2.7607        73.8178        63.3851     
 2442.6672         8.7654         0.0281        50.4544        51.5085        47.2736        49.0695      -999.2500      -999.2500      -999.2500      -999.2500         8.4191         2.7508        54.7038        64.2628     
 2442.8196         8.7565         0.0352        50.7185        51.0121        49.6762        36.5690      -999.2500      -999.2500      -999.2500      -999.2500         9.0134         2.7208        59.9478        64.3924     
 2442.9720         8.6859         0.0471        51.1730        47.9620        51.5488        28.0371      -999.2500      -999.2500      -999.2500      -999.2500         9.6201         2.7179        79.1516        64.3856     
 2443.1244         8.5697         0.0540        52.8543        46.7958        52.8133        23.9830      -999.2500      -999.2500      -999.2500      -999.2500        10.3133         2.7314        89.3593        64.6077     
 2443.2768         8.4993         0.0453        54.3174        49.5810        54.7051        21.3991      -999.2500      -999.2500      -999.2500      -999.2500        11.2400         2.7186        61.7807        64.7560     
 2443.4292         8.5033         0.0305        56.0028        57.5427        59.3068        20.9582      -999.2500      -999.2500      -999.2500      -999.2500        12.3734         2.6913        41.2754        64.8861     
 2443.5816         8.5742         0.0146        57.2728        66.1246        67.2576        21.2366      -999.2500      -999.2500      -999.2500      -999.2500        13.5068         2.6791        32.0226        65.0491     
 2443.7340         8.6991         0.0051        57.4646        72.6644        73.3797        21.7399      -999.2500      -999.2500      -999.2500      -999.2500        14.2371         2.6724        27.9820        65.0838     
 2443.8864         8.8158         0.0116        56.1583        76.1376        75.8989        22.1638      -999.2500      -999.2500      -999.2500      -999.2500        13.9477         2.6910        33.0402        64.9525     
 2444.0388         8.8646         0.0198        54.5909        78.0267        76.0375        22.1308      -999.2500      -999.2500      -999.2500      -999.2500        12.9613         2.7194        37.6456        64.6598     
 2444.1912         8.8646         0.0218        53.6834        79.4933        74.7605        21.6814      -999.2500      -999.2500      -999.2500      -999.2500        11.8407         2.7282        42.8593        63.7932     
 2444.3436         8.8645         0.0219        53.1382        79.7145        74.1779        22.1665      -999.2500      -999.2500      -999.2500      -999.2500        11.0016         2.7371        50.5089        63.0310     
 2444.4960         8.8645         0.0220        53.4354        78.4675        74.6083        23.8148      -999.2500      -999.2500      -999.2500      -999.2500        10.6699         2.7380        54.7590        62.8325     
 2444.6484         8.8645         0.0184        54.6902        77.4680        75.4996        25.5545      -999.2500      -999.2500      -999.2500      -999.2500        10.5405         2.7347        55.1118        64.0557     
 2444.8008         8.8644         0.0129        56.4670        78.9242        76.9165        27.2942      -999.2500      -999.2500      -999.2500      -999.2500        10.7495         2.7394        56.5112        65.2236     
 2444.9532         8.8644         0.0210        57.5848        83.1794        81.3060        28.7504      -999.2500      -999.2500      -999.2500      -999.2500        11.4333         2.7361        46.3043        65.6514     
 2445.1056         8.8644         0.0296        57.2192        87.4952        88.0879        27.7687      -999.2500      -999.2500      -999.2500      -999.2500        12.2845         2.7366        37.7272        65.7415     
