~Version Information Section
VERS.          2.0                                     : CWLS LOG ASCII Standard
WRAP.          NO                                      : One line per depth step
CREA.          17/09/15                                : LAS Creation Date
~Well Information Section
STRT.m         157.4292                                : Start Depth
STOP.m         2528.0112                               : Stop Depth
STEP.m         0.1524                                  : Step
NULL.          -999.2500                               : Null Value
COMP.          BP                                      : Company
WELL.          15/13-2                                 : Well
FLD .          EXPLORATION                             : Field
LOC .          NORTH SEA                               : Location
LOC1.          356416.20mE 64934767.81mN               : Location (UTM)
CTRY.          UK                                      : Country
PROV.          UKCS                                    : Province
UWI .          881                                     : UWI Number
API .                                                  : API Number
SECT.                                                  : Section
TOWN.                                                  : Township
RNGE.                                                  : Range
PDAT.          MSL                                     : Perm Datum
EPD .m         0.00                                    : Elevation
LMF .          RT                                      : Log Measured From
DMF .          RT                                      : Drill Measured From
APD .m         30.00                                   : Above Perm Datum
EKB .m         30.30                                   : Elev-Kelly Bushing
EDF .m         30.00                                   : Elev-Drill Floor
EGL .m         -140.00                                 : Elev-Ground Level (Water Depth)
TDD .m         2528.00                                 : Total Depth (Driller)
SRVC.          SCHLUMBERGER                            : Service Company
LATI.          58 33 24.4 N                            : Latitude
LONG.          00 31 55.1 E                            : Longitude
DATE.          AUG-OCT-1975                            : Logging Date
PROJ.          UKCS                                    : Project
SET .          COMP WIRE                               : Set
~Curve Information Section
DEPTH.m                                                : Depth Curve
CALI.in                                                : FDC Caliper
DRHO.g/cc                                              : Density Correction
DT.us/ft                                               : Delta-T
GR.gAPI                                                : ISF Gamma Ray
GRD.gAPI                                               : FDC Gamma Ray
ILD.ohmm                                               : Deep Induction Resistivity
MCAL.in                                                : Micro Caliper
MINV.ohmm                                              : Micro-Inverse Resistivity
MLL.ohmm                                               : Microlaterolog Resistivity
MNOR.ohmm                                              : Micro-Normal Resistivity
NPHI.%                                                 : Neutron Porosity
RHOB.g/cc                                              : Bulk Density
SFL.ohmm                                               : Spherically Focussed log Resistivity
SP.mV                                                  : Spontaneous Potential
~ASCII Log Data Section
# ...
 2522.0676         8.8440         0.0212      -999.2500      -999.2500       120.3883         3.9754      -999.2500      -999.2500      -999.2500      -999.2500        37.0344         2.5318         5.0370        75.0447     
 2522.2200         8.9137         0.0171      -999.2500      -999.2500       122.4382         3.8147      -999.2500      -999.2500      -999.2500      -999.2500        38.2763         2.5291         4.9341        75.7921     
 2522.3724         8.9030         0.0255      -999.2500      -999.2500       124.4843         3.6812      -999.2500      -999.2500      -999.2500      -999.2500        40.8079         2.4999         4.9164        76.1139     
 2522.5248         8.8618         0.0497      -999.2500      -999.2500       125.7744         3.7506      -999.2500      -999.2500      -999.2500      -999.2500        43.8186         2.4592         4.6777        76.1291     
 2522.6772         8.7855         0.0765      -999.2500      -999.2500       123.4905         3.8631      -999.2500      -999.2500      -999.2500      -999.2500        45.9804         2.4495         4.0882        75.7043     
 2522.8296         8.6496         0.0990      -999.2500      -999.2500       120.7633         3.9503      -999.2500      -999.2500      -999.2500      -999.2500        47.1244         2.4464         3.8818        75.0170     
 2522.9820         8.6543         0.0729      -999.2500      -999.2500       120.3410         3.9581      -999.2500      -999.2500      -999.2500      -999.2500        46.7025         2.4345         4.1314        73.8142     
 2523.1344         8.7645         0.0315      -999.2500      -999.2500       121.3153         3.9163      -999.2500      -999.2500      -999.2500      -999.2500        46.5719         2.4222         4.7540        72.9295     
 2523.2868         8.8296         0.0125      -999.2500      -999.2500       122.4212         3.8570      -999.2500      -999.2500      -999.2500      -999.2500        46.7655         2.4124         5.2984        73.0393     
 2523.4392         8.8502         0.0005      -999.2500      -999.2500       123.6188         3.9386      -999.2500      -999.2500      -999.2500      -999.2500        47.0694         2.4072         5.6622        73.4108     
 2523.5916         8.8718         0.0025      -999.2500      -999.2500       124.8442         4.1661      -999.2500      -999.2500      -999.2500      -999.2500        47.5491         2.4043         5.9837        74.0395     
 2523.7440         8.8935         0.0249      -999.2500      -999.2500       125.6149         4.4017      -999.2500      -999.2500      -999.2500      -999.2500        48.1765         2.4230         6.3098        74.8680     
 2523.8964         8.9064         0.0546      -999.2500      -999.2500       125.5892         4.6370      -999.2500      -999.2500      -999.2500      -999.2500        48.3588         2.4903         6.7650        75.5433     
 2524.0488         8.9149         0.0650      -999.2500      -999.2500       125.0281         4.8633      -999.2500      -999.2500      -999.2500      -999.2500        47.7034         2.5217         7.2819        75.8827     
 2524.2012         8.9092         0.0630      -999.2500      -999.2500       124.5767         4.7844      -999.2500      -999.2500      -999.2500      -999.2500        47.0007         2.5273         7.3447        75.7904     
 2524.3536         8.8764         0.0618      -999.2500      -999.2500       124.4201         4.4564      -999.2500      -999.2500      -999.2500      -999.2500        46.9942         2.5321         6.7757        75.0985     
 2524.5060         8.8413         0.0615      -999.2500      -999.2500       124.2586         4.1126      -999.2500      -999.2500      -999.2500      -999.2500        47.5957         2.5379         5.8463        73.9448     
 2524.6584         8.8584         0.0719      -999.2500      -999.2500       124.0957         3.7694      -999.2500      -999.2500      -999.2500      -999.2500        48.2050         2.5455         4.8797        73.5531     
 2524.8108         8.9006         0.0922      -999.2500      -999.2500       124.2185         3.5153      -999.2500      -999.2500      -999.2500      -999.2500        48.9126         2.5533         3.9243        73.9309     
 2524.9632         8.7280         0.1189      -999.2500      -999.2500       125.2235         3.4742      -999.2500      -999.2500      -999.2500      -999.2500        49.6570         2.5551         3.1779        74.5447     
 2525.1156         8.6305         0.1384      -999.2500      -999.2500       126.4492         3.5030      -999.2500      -999.2500      -999.2500      -999.2500        49.8868         2.5575         2.8521        75.1408     
 2525.2680         8.6486         0.1424      -999.2500      -999.2500       126.3548         3.5329      -999.2500      -999.2500      -999.2500      -999.2500        49.3441         2.5667         3.1238        75.4883     
 2525.4204         8.6745         0.1063      -999.2500      -999.2500       124.4457         3.6380      -999.2500      -999.2500      -999.2500      -999.2500        48.8330         2.5739         4.5921        75.6630     
 2525.5728         8.7040         0.0588      -999.2500      -999.2500       122.1646         3.7492      -999.2500      -999.2500      -999.2500      -999.2500        48.5963         2.5692         6.4098        75.5931     
 2525.7252         8.7708         0.0224      -999.2500      -999.2500       120.0971      -999.2500      -999.2500      -999.2500      -999.2500      -999.2500        49.2233         2.5651      -999.2500        75.1195     
 2525.8776         8.8483         0.0428      -999.2500      -999.2500       119.0061      -999.2500      -999.2500      -999.2500      -999.2500      -999.2500        49.8722         2.5653      -999.2500        74.1942     
 2526.0300         8.9044         0.0487      -999.2500      -999.2500       118.5192      -999.2500      -999.2500      -999.2500      -999.2500      -999.2500        49.2900         2.5485      -999.2500        73.2462     
 2526.1824         8.8898         0.0467      -999.2500      -999.2500       119.7483      -999.2500      -999.2500      -999.2500      -999.2500      -999.2500        48.4075         2.5323      -999.2500        72.3802     
 2526.3348         8.8739         0.0562      -999.2500      -999.2500       121.2843      -999.2500      -999.2500      -999.2500      -999.2500      -999.2500        48.0266         2.5363      -999.2500        72.3694     
 2526.4872         8.8576         0.0759      -999.2500      -999.2500       121.3313      -999.2500      -999.2500      -999.2500      -999.2500      -999.2500        48.3586         2.5515      -999.2500        72.7799     
 2526.6396         8.8413         0.1075      -999.2500      -999.2500       119.7404      -999.2500      -999.2500      -999.2500      -999.2500      -999.2500        48.6876         2.5706      -999.2500        73.4326     
 2526.7920         8.8250         0.1151      -999.2500      -999.2500       118.7793      -999.2500      -999.2500      -999.2500      -999.2500      -999.2500        48.8187         2.5829      -999.2500        74.1800     
 2526.9444         8.8023         0.1136      -999.2500      -999.2500       119.0814      -999.2500      -999.2500      -999.2500      -999.2500      -999.2500        48.7193         2.5746      -999.2500        74.5874     
 2527.0968         8.6965         0.1104      -999.2500      -999.2500       119.9905      -999.2500      -999.2500      -999.2500      -999.2500      -999.2500        48.2604         2.5625      -999.2500        74.5641     
 2527.2492         8.4580         0.1081      -999.2500      -999.2500       121.0425      -999.2500      -999.2500      -999.2500      -999.2500      -999.2500        47.7157         2.5378      -999.2500      -999.2500     
 2527.4016         8.1742         0.1220      -999.2500      -999.2500       121.7338      -999.2500      -999.2500      -999.2500      -999.2500      -999.2500        47.1229         2.5250      -999.2500      -999.2500     
