~Version Information Section
VERS.          2.0                                     : CWLS LOG ASCII Standard
WRAP.          NO                                      : One line per depth step
CREA.          17/09/15                                : LAS Creation Date
~Well Information Section
STRT.m         157.4292                                : Start Depth
STOP.m         2528.0112                               : Stop Depth
STEP.m         0.1524                                  : Step
NULL.          -999.2500                               : Null Value
COMP.          BP                                      : Company
WELL.          15/13-2                                 : Well
FLD .          EXPLORATION                             : Field
LOC .          NORTH SEA                               : Location
LOC1.          356416.20mE 64934767.81mN               : Location (UTM)
CTRY.          UK                                      : Country
PROV.          UKCS                                    : Province
UWI .          881                                     : UWI Number
API .                                                  : API Number
SECT.                                                  : Section
TOWN.                                                  : Township
RNGE.                                                  : Range
PDAT.          MSL                                     : Perm Datum
EPD .m         0.00                                    : Elevation
LMF .          RT                                      : Log Measured From
DMF .          RT                                      : Drill Measured From
APD .m         30.00                                   : Above Perm Datum
EKB .m         30.30                                   : Elev-Kelly Bushing
EDF .m         30.00                                   : Elev-Drill Floor
EGL .m         -140.00                                 : Elev-Ground Level (Water Depth)
TDD .m         2528.00                                 : Total Depth (Driller)
SRVC.          SCHLUMBERGER                            : Service Company
LATI.          58 33 24.4 N                            : Latitude
LONG.          00 31 55.1 E                            : Longitude
DATE.          AUG-OCT-1975                            : Logging Date
PROJ.          UKCS                                    : Project
SET .          COMP WIRE                               : Set
~Curve Information Section
DEPTH.m                                                : Depth Curve
CALI.in                                                : FDC Caliper
DRHO.g/cc                                              : Density Correction
DT.us/ft                                               : Delta-T
GR.gAPI                                                : ISF Gamma Ray
GRD.gAPI                                               : FDC Gamma Ray
ILD.ohmm                                               : Deep Induction Resistivity
MCAL.in                                                : Micro Caliper
MINV.ohmm                                              : Micro-Inverse Resistivity
MLL.ohmm                                               : Microlaterolog Resistivity
MNOR.ohmm                                              : Micro-Normal Resistivity
NPHI.%                                                 : Neutron Porosity
RHOB.g/cc                                              : Bulk Density
SFL.ohmm                                               : Spherically Focussed log Resistivity
SP.mV                                                  : Spontaneous Potential
~ASCII Log Data Section
# ...
 2225.8020         9.2915         0.0679       107.2350       122.3061       110.1526         1.7889      -999.2500      -999.2500      -999.2500      -999.2500        42.1677         2.3456         1.8186        62.9420     
 2225.9544         9.2582         0.0519       107.9664       123.9940       109.4004         1.7784      -999.2500      -999.2500      -999.2500      -999.2500        41.3370         2.3179         1.8413        62.5991     
 2226.1068         9.2811         0.0367       106.2670       121.0431       108.2699         1.7678      -999.2500      -999.2500      -999.2500      -999.2500        39.8891         2.2981         1.8668        62.4997     
 2226.2592         9.3828         0.0296       104.7390       116.9672       107.0527         1.7588      -999.2500      -999.2500      -999.2500      -999.2500        38.3863         2.2895         1.8533        62.3328     
 2226.4116         9.5905         0.0316       103.4988       115.3247       106.2894         1.7669      -999.2500      -999.2500      -999.2500      -999.2500        36.9120         2.2971         1.8217        61.5835     
 2226.5640         9.6745         0.0327       102.4796       115.4193       104.7001         1.7838      -999.2500      -999.2500      -999.2500      -999.2500        35.5574         2.3073         1.8172        61.1940     
 2226.7164         9.6739         0.0379       102.4516       115.0433       104.2714         1.8006      -999.2500      -999.2500      -999.2500      -999.2500        34.7615         2.3103         1.8497        61.2621     
 2226.8688         9.7705         0.0530       101.7489       115.2866       104.5655         1.8175      -999.2500      -999.2500      -999.2500      -999.2500        34.6054         2.3122         1.9030        61.8042     
 2227.0212         9.9053         0.0606        99.7063       116.4748       103.9495         1.8331      -999.2500      -999.2500      -999.2500      -999.2500        34.5184         2.3105         1.9875        62.5923     
 2227.1736         9.5658         0.0706        98.4886       117.9973       103.2110         1.8496      -999.2500      -999.2500      -999.2500      -999.2500        34.2090         2.2987         2.1087        62.9425     
 2227.3260         9.0630         0.0932        99.8490       119.5198       104.0537         1.8902      -999.2500      -999.2500      -999.2500      -999.2500        34.1756         2.2846         2.1061        63.0552     
 2227.4784         9.0719         0.1110       102.2251       121.1463       105.6299         1.9373      -999.2500      -999.2500      -999.2500      -999.2500        35.2184         2.2682         2.0785        63.1461     
 2227.6308         9.2885         0.1082       104.1896       123.4818       107.1422         1.9803      -999.2500      -999.2500      -999.2500      -999.2500        37.0970         2.2453         2.0629        63.1745     
 2227.7832         9.4302         0.1191       105.0215       124.7474       108.5124         2.0196      -999.2500      -999.2500      -999.2500      -999.2500        38.9169         2.2276         2.0886        62.7858     
 2227.9356         9.3554         0.1338       104.0348       125.0959       111.0771         2.0360      -999.2500      -999.2500      -999.2500      -999.2500        40.4390         2.2422         2.1604        62.2402     
 2228.0880         9.1369         0.1010       101.3702       125.1800       113.2294         2.0346      -999.2500      -999.2500      -999.2500      -999.2500        41.0967         2.2516         2.1365        61.6558     
 2228.2404         9.0560         0.0561       100.4481       125.3405       113.7745         2.0332      -999.2500      -999.2500      -999.2500      -999.2500        40.5073         2.2592         2.0893        61.3609     
 2228.3928         9.0470         0.0320        99.8436       124.5036       113.0610         2.0319      -999.2500      -999.2500      -999.2500      -999.2500        39.5607         2.3028         2.0750        61.6872     
 2228.5452         9.0158         0.0219        99.2042       122.0966       111.7054         2.0305      -999.2500      -999.2500      -999.2500      -999.2500        38.2336         2.3347         2.0606        62.4165     
 2228.6976         8.9448         0.0191        98.9880       120.3553       108.6841         2.0258      -999.2500      -999.2500      -999.2500      -999.2500        36.5203         2.3431         2.0561        63.0569     
 2228.8500         8.9067         0.0230       100.2713       119.3718       103.9875         2.0127      -999.2500      -999.2500      -999.2500      -999.2500        35.2965         2.3443         2.0780        63.5333     
 2229.0024         8.9593         0.0299       100.9544       116.2407       101.8995         1.9744      -999.2500      -999.2500      -999.2500      -999.2500        34.8661         2.3463         2.0613        63.4247     
 2229.1548         9.0881         0.0352       102.1425       112.3602        99.8612         1.9125      -999.2500      -999.2500      -999.2500      -999.2500        35.1674         2.3358         1.9979        63.0308     
 2229.3072         9.2222         0.0370       104.3444       108.3703       100.5124         1.8237      -999.2500      -999.2500      -999.2500      -999.2500        36.7336         2.3213         1.9139        62.4684     
 2229.4596         9.3236         0.0320       106.8328       105.9376        98.6053         1.7409      -999.2500      -999.2500      -999.2500      -999.2500        38.9377         2.3165         1.8276        61.8170     
 2229.6120         9.3200         0.0254       109.0862       105.0845        94.9657         1.6944      -999.2500      -999.2500      -999.2500      -999.2500        39.8492         2.3036         1.7436        61.2055     
 2229.7644         9.0432         0.0251       110.1656       105.9029        92.9354         1.6520      -999.2500      -999.2500      -999.2500      -999.2500        39.5813         2.2920         1.6895        60.8554     
 2229.9168         8.8650         0.0271       110.4303       107.5246        92.1665         1.6096      -999.2500      -999.2500      -999.2500      -999.2500        38.7709         2.2843         1.7009        60.8101     
 2230.0692         8.8266         0.0317       109.2980       109.3153        91.5765         1.5700      -999.2500      -999.2500      -999.2500      -999.2500        37.4061         2.2822         1.7538        61.8104     
 2230.2216         8.9260         0.0419       106.8335       109.7320        92.2475         1.5510      -999.2500      -999.2500      -999.2500      -999.2500        35.8225         2.2857         1.7947        62.9152     
 2230.3740         9.1522         0.0422       104.5249       107.6196        94.2528         1.5814      -999.2500      -999.2500      -999.2500      -999.2500        34.7054         2.2815         1.8339        62.9376     
 2230.5264         9.3866         0.0544       103.0807       103.9943        95.5519         1.6154      -999.2500      -999.2500      -999.2500      -999.2500        34.1108         2.2673         1.8730        62.4545     
 2230.6788         9.3792         0.0915       102.5283       100.7857        91.8683         1.6466      -999.2500      -999.2500      -999.2500      -999.2500        34.1863         2.2824         1.9064        61.6830     
 2230.8312         9.2797         0.1311       102.4136        99.8804        89.5071         1.6778      -999.2500      -999.2500      -999.2500      -999.2500        34.9044         2.2977         1.9032        61.4209     
 2230.9836         9.2903         0.1368       102.3227       100.8578        89.2293         1.7090      -999.2500      -999.2500      -999.2500      -999.2500        35.3409         2.2945         1.9269        62.2560     
 2231.1360         9.3418         0.1048       101.4323       103.7299        91.6497         1.7406      -999.2500      -999.2500      -999.2500      -999.2500        34.8282         2.2874         1.9996        62.6850     
