~Version Information Section
VERS.          2.0                                     : CWLS LOG ASCII Standard
WRAP.          NO                                      : One line per depth step
CREA.          03/07/17                                : LAS Creation Date
~Well Information Section
STRT.m         234.5436                                : Start Depth
STOP.m         2401.2144                               : Stop Depth
STEP.m         0.1524                                  : Step
NULL.          -999.2500                               : Null Value
COMP.          B.P. PETROLEUM DEV. LTD.                : Company
WELL.          15/13-3                                 : Well
FLD .          EXPLORATION                             : Field
LOC .          NORTH SEA                               : Location
LOC1.          354,539.492mE 6,495,118.637mN           : Location (UTM)
CTRY.          UK                                      : Country
PROV.          UKCS                                    : Province
UWI .          882                                     : UWI Number
API .          -                                       : API Number
SECT.          -                                       : Section
TOWN.          -                                       : Township
RNGE.          -                                       : Range
PDAT.          MSL                                     : Perm Datum
EPD .m         0.0                                     : Elevation
LMF .          RT                                      : Log Measured From
DMF .          RT                                      : Drill Measured From
APD .m         33.5                                    : Above Perm Datum
EKB .m         33.8                                    : Elev-Kelly Bushing
EDF .m         33.5                                    : Elev-Drill Floor
EGL .m         -138.6                                  : Elev-Ground Level (Water Depth)
TDD .m         2401.0                                  : Total Depth (Driller)
TDL .m         2401.0                                  : Total Depth (Logger)
SRVC.          SCHLUMBERGER                            : Service Company
LATI.          58 34 14.6" N                           : Latitude
LONG.          00 29 51.4" E                           : Longitude
DATE.          03-27-JUN-1976                          : Logging Date
PROJ.          UKCS                                    : Project
SET .          COMP_WIRE                               : Set
~Curve Information Section
DEPTH.m                                                : Depth Curve
CALD.in                                                : Caliper (from FDC/CNL/GR)
DRHO.g/cc                                              : Density Correction
DT.us/ft                                               : Delta-T
GR.gAPI                                                : Gamma Ray (from ISF/BHC/GR)
GRD.gAPI                                               : Gamma Ray (from FDC/CNL/GR)
ILD.ohmm                                               : Deep Induction Standard Processed Resistivity
NPHI.LPU                                               : Neutron Porosity
RHOB.g/cc                                              : Bulk Density
SFL.ohmm                                               : Spherically Focussed Log
SP.mV                                                  : Spontaneous Potential 
~ASCII Log Data Section
# ...
 1093.3176      -999.2500      -999.2500       162.4061        44.7492      -999.2500         1.0923      -999.2500      -999.2500         1.2163        46.6817     
 1093.4700      -999.2500      -999.2500       162.8330        44.2626      -999.2500         1.1128      -999.2500      -999.2500         1.2278        46.8086     
 1093.6224      -999.2500      -999.2500       163.1303        43.5982      -999.2500         1.1272      -999.2500      -999.2500         1.2443        46.8823     
 1093.7748      -999.2500      -999.2500       163.1459        41.4720      -999.2500         1.1273      -999.2500      -999.2500         1.2218        47.0535     
 1093.9272      -999.2500      -999.2500       163.1161        40.1983      -999.2500         1.1273      -999.2500      -999.2500         1.1945        47.0830     
 1094.0796      -999.2500      -999.2500       162.8469        40.8486      -999.2500         1.1162      -999.2500      -999.2500         1.1644        47.0835     
 1094.2320      -999.2500      -999.2500       162.8687        42.5391      -999.2500         1.0938      -999.2500      -999.2500         1.1355        47.0841     
 1094.3844      -999.2500      -999.2500       163.0841        44.7238      -999.2500         1.0726      -999.2500      -999.2500         1.1155        47.0028     
 1094.5368      -999.2500      -999.2500       163.1337        45.2845      -999.2500         1.0572      -999.2500      -999.2500         1.1003        46.8857     
 1094.6892      -999.2500      -999.2500       164.0391        45.4897      -999.2500         1.0573      -999.2500      -999.2500         1.0969        46.2489     
 1094.8416      -999.2500      -999.2500       165.1074        45.4902      -999.2500         1.0573      -999.2500      -999.2500         1.1036        45.2284     
 1094.9940      -999.2500      -999.2500       165.9591        45.5691      -999.2500         1.0574      -999.2500      -999.2500         1.1407        44.9616     
 1095.1464      -999.2500      -999.2500       166.2990        44.2171      -999.2500         1.0574      -999.2500      -999.2500         1.1647        45.6736     
 1095.2988      -999.2500      -999.2500       166.0768        43.2408      -999.2500         1.0588      -999.2500      -999.2500         1.1786        46.8819     
 1095.4512      -999.2500      -999.2500       165.6378        42.5719      -999.2500         1.0737      -999.2500      -999.2500         1.1811        47.3325     
 1095.6036      -999.2500      -999.2500       164.6043        42.3339      -999.2500         1.0877      -999.2500      -999.2500         1.1641        47.4248     
 1095.7560      -999.2500      -999.2500       164.1216        43.7996      -999.2500         1.0928      -999.2500      -999.2500         1.1597        47.2894     
 1095.9084      -999.2500      -999.2500       163.6844        45.3332      -999.2500         1.0974      -999.2500      -999.2500         1.1598        47.0959     
 1096.0608      -999.2500      -999.2500       163.2817        46.5634      -999.2500         1.0917      -999.2500      -999.2500         1.1692        46.9779     
 1096.2132      -999.2500      -999.2500       162.7156        46.2934      -999.2500         1.0818      -999.2500      -999.2500         1.1534        46.8920     
 1096.3656      -999.2500      -999.2500       162.1821        46.0944      -999.2500         1.0745      -999.2500      -999.2500         1.1352        46.2343     
 1096.5180      -999.2500      -999.2500       161.8995        45.6861      -999.2500         1.0692      -999.2500      -999.2500         1.0956        46.0950     
 1096.6704      -999.2500      -999.2500       161.8971        45.2350      -999.2500         1.0557      -999.2500      -999.2500         1.0777        46.5688     
 1096.8228      -999.2500      -999.2500       162.1336        46.1110      -999.2500         1.0393      -999.2500      -999.2500         1.0778        47.0938     
 1096.9752      -999.2500      -999.2500       162.4815        46.4577      -999.2500         1.0321      -999.2500      -999.2500         1.0898        47.0944     
 1097.1276      -999.2500      -999.2500       162.4407        46.7624      -999.2500         1.0409      -999.2500      -999.2500         1.1217        47.0776     
 1097.2800      -999.2500      -999.2500       161.9878        47.0890      -999.2500         1.0786      -999.2500      -999.2500         1.1763        46.9291     
 1097.4324      -999.2500      -999.2500       161.5352        47.5588      -999.2500         1.1162      -999.2500      -999.2500         1.2529        46.8966     
 1097.5848      -999.2500      -999.2500       160.8726        48.5339      -999.2500         1.1504      -999.2500      -999.2500         1.2986        46.7651     
 1097.7372      -999.2500      -999.2500       160.1835        49.6916      -999.2500         1.1595      -999.2500      -999.2500         1.3051        46.2082     
 1097.8896      -999.2500      -999.2500       159.2087        49.5017      -999.2500         1.1718      -999.2500      -999.2500         1.2705        45.8864     
 1098.0420      -999.2500      -999.2500       157.9375        49.3858      -999.2500         1.1812      -999.2500      -999.2500         1.2363        45.7379     
 1098.1944      -999.2500      -999.2500       156.4290        49.1149      -999.2500         1.1823      -999.2500      -999.2500         1.2267        45.5518     
 1098.3468      -999.2500      -999.2500       155.1896        50.0323      -999.2500         1.1822      -999.2500      -999.2500         1.2268        45.4277     
 1098.4992      -999.2500      -999.2500       155.2983        51.8345      -999.2500         1.1768      -999.2500      -999.2500         1.2268        45.7446     
 1098.6516      -999.2500      -999.2500       156.4001        53.6484      -999.2500         1.1722      -999.2500      -999.2500         1.2269        46.2576     
 1098.8040      -999.2500      -999.2500       157.4886        56.5098      -999.2500         1.1826      -999.2500      -999.2500         1.2362        46.5025     
 1098.9564      -999.2500      -999.2500       158.2908        59.6486      -999.2500         1.1875      -999.2500      -999.2500         1.2586        46.6998     
 1099.1088      -999.2500      -999.2500       159.2452        60.5675      -999.2500         1.1824      -999.2500      -999.2500         1.2732        47.1466     
 1099.2612      -999.2500      -999.2500       160.3962        60.4099      -999.2500         1.1684      -999.2500      -999.2500         1.2634        47.2811     
 1099.4136      -999.2500      -999.2500       161.9085        58.6314      -999.2500         1.1506      -999.2500      -999.2500         1.2260        46.9839     
 1099.5660      -999.2500      -999.2500       164.0427        56.8468      -999.2500         1.1386      -999.2500      -999.2500         1.1877        46.6553     
 1099.7184      -999.2500      -999.2500       165.0546        54.8168      -999.2500         1.1304      -999.2500      -999.2500         1.1673        46.3726     
 1099.8708      -999.2500      -999.2500       164.9678        53.9450      -999.2500         1.1222      -999.2500      -999.2500         1.1615        46.1346     
 1100.0232      -999.2500      -999.2500       163.9637        53.2961      -999.2500         1.1300      -999.2500      -999.2500         1.1727        46.1013     
 1100.1756      -999.2500      -999.2500       161.4779        55.7002      -999.2500         1.1407      -999.2500      -999.2500         1.1945        45.9684     
 1100.3280      -999.2500      -999.2500       158.5933        56.7179      -999.2500         1.1868      -999.2500      -999.2500         1.2268        45.9627     
 1100.4804      -999.2500      -999.2500       156.4730        56.6558      -999.2500         1.2233      -999.2500      -999.2500         1.2573        46.0624     
 1100.6328      -999.2500      -999.2500       155.0285        55.4657      -999.2500         1.2579      -999.2500      -999.2500         1.2788        46.1078     
