~Version Information Section
VERS.          2.0                                     : CWLS LOG ASCII Standard
WRAP.          NO                                      : One line per depth step
CREA.          03/07/17                                : LAS Creation Date
~Well Information Section
STRT.m         234.5436                                : Start Depth
STOP.m         2401.2144                               : Stop Depth
STEP.m         0.1524                                  : Step
NULL.          -999.2500                               : Null Value
COMP.          B.P. PETROLEUM DEV. LTD.                : Company
WELL.          15/13-3                                 : Well
FLD .          EXPLORATION                             : Field
LOC .          NORTH SEA                               : Location
LOC1.          354,539.492mE 6,495,118.637mN           : Location (UTM)
CTRY.          UK                                      : Country
PROV.          UKCS                                    : Province
UWI .          882                                     : UWI Number
API .          -                                       : API Number
SECT.          -                                       : Section
TOWN.          -                                       : Township
RNGE.          -                                       : Range
PDAT.          MSL                                     : Perm Datum
EPD .m         0.0                                     : Elevation
LMF .          RT                                      : Log Measured From
DMF .          RT                                      : Drill Measured From
APD .m         33.5                                    : Above Perm Datum
EKB .m         33.8                                    : Elev-Kelly Bushing
EDF .m         33.5                                    : Elev-Drill Floor
EGL .m         -138.6                                  : Elev-Ground Level (Water Depth)
TDD .m         2401.0                                  : Total Depth (Driller)
TDL .m         2401.0                                  : Total Depth (Logger)
SRVC.          SCHLUMBERGER                            : Service Company
LATI.          58 34 14.6" N                           : Latitude
LONG.          00 29 51.4" E                           : Longitude
DATE.          03-27-JUN-1976                          : Logging Date
PROJ.          UKCS                                    : Project
SET .          COMP_WIRE                               : Set
~Curve Information Section
DEPTH.m                                                : Depth Curve
CALD.in                                                : Caliper (from FDC/CNL/GR)
DRHO.g/cc                                              : Density Correction
DT.us/ft                                               : Delta-T
GR.gAPI                                                : Gamma Ray (from ISF/BHC/GR)
GRD.gAPI                                               : Gamma Ray (from FDC/CNL/GR)
ILD.ohmm                                               : Deep Induction Standard Processed Resistivity
NPHI.LPU                                               : Neutron Porosity
RHOB.g/cc                                              : Bulk Density
SFL.ohmm                                               : Spherically Focussed Log
SP.mV                                                  : Spontaneous Potential 
~ASCII Log Data Section
# ...
 1414.4244      -999.2500      -999.2500       126.9632        39.2354      -999.2500         0.4949      -999.2500      -999.2500         0.6453        35.9578     
 1414.5768      -999.2500      -999.2500       127.6396        39.7138      -999.2500         0.4971      -999.2500      -999.2500         0.6619        36.2607     
 1414.7292      -999.2500      -999.2500       127.2334        39.0356      -999.2500         0.4880      -999.2500      -999.2500         0.6884        36.9215     
 1414.8816      -999.2500      -999.2500       126.4243        35.5122      -999.2500         0.4781      -999.2500      -999.2500         0.7001        37.4926     
 1415.0340      -999.2500      -999.2500       125.8789        32.9897      -999.2500         0.4680      -999.2500      -999.2500         0.6982        37.8557     
 1415.1864      -999.2500      -999.2500       125.5993        33.2958      -999.2500         0.4681      -999.2500      -999.2500         0.6517        37.7764     
 1415.3388      -999.2500      -999.2500       124.5952        33.5494      -999.2500         0.4722      -999.2500      -999.2500         0.6168        37.5510     
 1415.4912      -999.2500      -999.2500       123.3841        34.5056      -999.2500         0.4770      -999.2500      -999.2500         0.6129        36.9756     
 1415.6436      -999.2500      -999.2500       122.1717        34.5128      -999.2500         0.4800      -999.2500      -999.2500         0.6347        36.8105     
 1415.7960      -999.2500      -999.2500       121.7049        34.5201      -999.2500         0.4861      -999.2500      -999.2500         0.6770        36.9223     
 1415.9484      -999.2500      -999.2500       121.6734        36.3070      -999.2500         0.4952      -999.2500      -999.2500         0.7153        37.2010     
 1416.1008      -999.2500      -999.2500       121.9306        37.9118      -999.2500         0.5092      -999.2500      -999.2500         0.8008        37.5469     
 1416.2532      -999.2500      -999.2500       123.2816        39.0833      -999.2500         0.5318      -999.2500      -999.2500         0.7848        37.7110     
 1416.4056      -999.2500      -999.2500       124.1750        40.4034      -999.2500         0.5545      -999.2500      -999.2500         0.7453        37.8651     
 1416.5580      -999.2500      -999.2500       124.3089        42.2423      -999.2500         0.5772      -999.2500      -999.2500         0.7252        37.9779     
 1416.7104      -999.2500      -999.2500       124.1941        43.7018      -999.2500         0.5899      -999.2500      -999.2500         0.7496        37.9828     
 1416.8628      -999.2500      -999.2500       123.4982        43.6424      -999.2500         0.5976      -999.2500      -999.2500         0.7866        37.7814     
 1417.0152      -999.2500      -999.2500       123.4780        42.5803      -999.2500         0.6082      -999.2500      -999.2500         0.8073        37.4784     
 1417.1676      -999.2500      -999.2500       123.4682        41.9031      -999.2500         0.6173      -999.2500      -999.2500         0.8210        37.2184     
 1417.3200      -999.2500      -999.2500       123.2005        41.7643      -999.2500         0.6243      -999.2500      -999.2500         0.8394        37.3446     
 1417.4724      -999.2500      -999.2500       122.6569        41.7716      -999.2500         0.6360      -999.2500      -999.2500         0.8691        37.6323     
 1417.6248      -999.2500      -999.2500       121.4568        41.6295      -999.2500         0.6313      -999.2500      -999.2500         0.8778        38.0103     
 1417.7772      -999.2500      -999.2500       120.5055        40.5948      -999.2500         0.6270      -999.2500      -999.2500         0.8780        38.3880     
 1417.9296      -999.2500      -999.2500       120.3424        38.7605      -999.2500         0.6149      -999.2500      -999.2500         0.8860        38.8151     
 1418.0820      -999.2500      -999.2500       120.5329        37.1607      -999.2500         0.6032      -999.2500      -999.2500         0.9110        39.2465     
 1418.2344      -999.2500      -999.2500       120.9261        35.5331      -999.2500         0.5964      -999.2500      -999.2500         0.8277        39.3378     
 1418.3868      -999.2500      -999.2500       121.4314        35.2822      -999.2500         0.5924      -999.2500      -999.2500         0.7512        39.1176     
 1418.5392      -999.2500      -999.2500       121.7771        36.5632      -999.2500         0.5972      -999.2500      -999.2500         0.6807        38.6756     
 1418.6916      -999.2500      -999.2500       121.7673        38.3631      -999.2500         0.6029      -999.2500      -999.2500         0.6974        38.0467     
 1418.8440      -999.2500      -999.2500       121.7575        40.9883      -999.2500         0.5897      -999.2500      -999.2500         0.8012        37.4650     
 1418.9964      -999.2500      -999.2500       121.8401        41.5456      -999.2500         0.5643      -999.2500      -999.2500         0.9248        37.6190     
 1419.1488      -999.2500      -999.2500       122.1306        41.1423      -999.2500         0.5605      -999.2500      -999.2500         0.8787        37.6621     
 1419.3012      -999.2500      -999.2500       122.2960        38.3619      -999.2500         0.5606      -999.2500      -999.2500         0.8017        37.6670     
 1419.4536      -999.2500      -999.2500       122.4577        35.8938      -999.2500         0.5608      -999.2500      -999.2500         0.7728        37.6718     
 1419.6060      -999.2500      -999.2500       122.1702        36.2274      -999.2500         0.5609      -999.2500      -999.2500         0.7430        37.6767     
 1419.7584      -999.2500      -999.2500       121.6334        36.9851      -999.2500         0.5560      -999.2500      -999.2500         0.7183        37.6815     
 1419.9108      -999.2500      -999.2500       121.1434        37.7049      -999.2500         0.5503      -999.2500      -999.2500         0.6898        37.6864     
 1420.0632      -999.2500      -999.2500       120.9901        38.0282      -999.2500         0.5461      -999.2500      -999.2500         0.7041        37.6802     
 1420.2156      -999.2500      -999.2500       121.2206        38.4443      -999.2500         0.5413      -999.2500      -999.2500         0.7585        37.5148     
 1420.3680      -999.2500      -999.2500       121.4725        38.9487      -999.2500         0.5428      -999.2500      -999.2500         0.8248        36.7691     
 1420.5204      -999.2500      -999.2500       121.6500        38.8390      -999.2500         0.5444      -999.2500      -999.2500         0.8271        36.2733     
 1420.6728      -999.2500      -999.2500       121.6402        37.8267      -999.2500         0.5459      -999.2500      -999.2500         0.7751        36.1301     
 1420.8252      -999.2500      -999.2500       121.6304        35.8923      -999.2500         0.5403      -999.2500      -999.2500         0.7245        36.3735     
 1420.9776      -999.2500      -999.2500       121.6207        33.4588      -999.2500         0.5305      -999.2500      -999.2500         0.7014        36.6785     
 1421.1300      -999.2500      -999.2500       121.4338        32.0859      -999.2500         0.5254      -999.2500      -999.2500         0.6868        37.0811     
 1421.2824      -999.2500      -999.2500       120.8231        32.0932      -999.2500         0.5229      -999.2500      -999.2500         0.6854        37.3962     
 1421.4348      -999.2500      -999.2500       120.5589        33.9393      -999.2500         0.5237      -999.2500      -999.2500         0.6960        37.6994     
 1421.5872      -999.2500      -999.2500       120.2788        35.7375      -999.2500         0.5280      -999.2500      -999.2500         0.7058        37.9118     
 1421.7396      -999.2500      -999.2500       119.9224        37.4519      -999.2500         0.5339      -999.2500      -999.2500         0.7183        37.3377     
