~Version Information Section
VERS.          2.0                                     : CWLS LOG ASCII Standard
WRAP.          NO                                      : One line per depth step
CREA.          03/07/17                                : LAS Creation Date
~Well Information Section
STRT.m         234.5436                                : Start Depth
STOP.m         2401.2144                               : Stop Depth
STEP.m         0.1524                                  : Step
NULL.          -999.2500                               : Null Value
COMP.          B.P. PETROLEUM DEV. LTD.                : Company
WELL.          15/13-3                                 : Well
FLD .          EXPLORATION                             : Field
LOC .          NORTH SEA                               : Location
LOC1.          354,539.492mE 6,495,118.637mN           : Location (UTM)
CTRY.          UK                                      : Country
PROV.          UKCS                                    : Province
UWI .          882                                     : UWI Number
API .          -                                       : API Number
SECT.          -                                       : Section
TOWN.          -                                       : Township
RNGE.          -                                       : Range
PDAT.          MSL                                     : Perm Datum
EPD .m         0.0                                     : Elevation
LMF .          RT                                      : Log Measured From
DMF .          RT                                      : Drill Measured From
APD .m         33.5                                    : Above Perm Datum
EKB .m         33.8                                    : Elev-Kelly Bushing
EDF .m         33.5                                    : Elev-Drill Floor
EGL .m         -138.6                                  : Elev-Ground Level (Water Depth)
TDD .m         2401.0                                  : Total Depth (Driller)
TDL .m         2401.0                                  : Total Depth (Logger)
SRVC.          SCHLUMBERGER                            : Service Company
LATI.          58 34 14.6" N                           : Latitude
LONG.          00 29 51.4" E                           : Longitude
DATE.          03-27-JUN-1976                          : Logging Date
PROJ.          UKCS                                    : Project
SET .          COMP_WIRE                               : Set
~Curve Information Section
DEPTH.m                                                : Depth Curve
CALD.in                                                : Caliper (from FDC/CNL/GR)
DRHO.g/cc                                              : Density Correction
DT.us/ft                                               : Delta-T
GR.gAPI                                                : Gamma Ray (from ISF/BHC/GR)
GRD.gAPI                                               : Gamma Ray (from FDC/CNL/GR)
ILD.ohmm                                               : Deep Induction Standard Processed Resistivity
NPHI.LPU                                               : Neutron Porosity
RHOB.g/cc                                              : Bulk Density
SFL.ohmm                                               : Spherically Focussed Log
SP.mV                                                  : Spontaneous Potential 
~ASCII Log Data Section
# ...
 2392.6800         8.5671         0.0488      -999.2500      -999.2500        22.5245         2.2510        23.5076         2.5559         2.9249        43.3014     
 2392.8324         8.5162         0.0477      -999.2500      -999.2500        27.1937         2.1525        24.7235         2.5493         2.6813        43.0993     
 2392.9848         8.5527         0.0269      -999.2500      -999.2500        33.7502         2.0245        25.3424         2.5227         2.5421        42.8360     
 2393.1372         8.5860         0.0309      -999.2500      -999.2500        35.4447         1.9481        25.7324         2.5247         2.5785        42.4039     
 2393.2896         8.5794         0.0578      -999.2500      -999.2500        34.0062         1.9152        25.2123         2.5463         2.7093        42.1725     
 2393.4420         8.5627         0.0853      -999.2500      -999.2500        34.6815         1.9201        25.0404         2.5706         2.8720        42.2682     
 2393.5944         8.5497         0.0774      -999.2500      -999.2500        37.4250         1.9510        24.8775         2.5660         2.8487        42.8258     
 2393.7468         8.5414         0.0685      -999.2500      -999.2500        38.4730         2.0056        25.1329         2.5398         2.8308        43.0206     
 2393.8992         8.5262         0.0709      -999.2500      -999.2500        39.2388         2.0716        25.2520         2.5372         2.9227        42.8816     
 2394.0516         8.4685         0.0737      -999.2500      -999.2500        39.0028         2.1376        24.3412         2.5314         3.0386        42.6057     
 2394.2040         8.4553         0.0645      -999.2500      -999.2500        36.7700         2.2055        23.3975         2.5343         3.1102        42.4729     
 2394.3564         8.5191         0.0319      -999.2500      -999.2500      -999.2500         2.2732        22.5406         2.5313         3.0847        42.7308     
 2394.5088         8.6195         0.0348      -999.2500      -999.2500      -999.2500         2.3335        22.2582         2.5348         3.1602        43.3043     
 2394.6612         8.6179         0.0600      -999.2500      -999.2500      -999.2500         2.3687        21.9117         2.5485         3.3399        44.8101     
 2394.8136         8.5503         0.0413      -999.2500      -999.2500      -999.2500         2.3347        20.9616         2.5249         3.5056        44.0912     
 2394.9660         8.5150         0.0447      -999.2500      -999.2500      -999.2500         2.2779        19.4618         2.5363         3.4063        43.9532     
 2395.1184         8.5098         0.0698      -999.2500      -999.2500      -999.2500         2.2287        17.3322         2.5698         3.0699        44.1831     
 2395.2708         8.5595         0.0865      -999.2500      -999.2500      -999.2500         2.1520        18.2122         2.5820         2.7430        44.5253     
 2395.4232         8.5293         0.0845      -999.2500      -999.2500      -999.2500         2.0891        20.1743         2.5890         2.5178        45.0198     
 2395.5756         8.6025         0.0851      -999.2500      -999.2500      -999.2500         2.0750        22.4444         2.5977         2.5096        45.6586     
 2395.7280         8.6649         0.0726      -999.2500      -999.2500      -999.2500         2.0767        26.6365         2.5854         2.4823        46.3699     
 2395.8804         8.6488         0.0436      -999.2500      -999.2500      -999.2500         2.0595        26.3310         2.5593         2.5234        46.9005     
 2396.0328         8.6138         0.0316      -999.2500      -999.2500      -999.2500         2.0612        24.7519         2.5622         2.7297        47.2629     
 2396.1852         8.6347         0.0328      -999.2500      -999.2500      -999.2500         2.0629        23.9805         2.5826         3.0638        47.0986     
 2396.3376         8.7769         0.0375      -999.2500      -999.2500      -999.2500         2.0555        24.3851         2.5891         3.1286        46.8978     
 2396.4900         8.8830         0.0586      -999.2500      -999.2500      -999.2500         2.0476        24.8214         2.5999         2.8392        46.5493     
 2396.6424         8.8687         0.0616      -999.2500      -999.2500      -999.2500         2.0354        24.9527         2.5847         2.5948        46.3438     
 2396.7948         8.8537         0.0685      -999.2500      -999.2500      -999.2500         2.0064        24.8786         2.5992         2.5427      -999.2500     
 2396.9472         8.8984         0.0637      -999.2500      -999.2500      -999.2500         1.9685        25.0316         2.5939         2.5662      -999.2500     
 2397.0996         8.9646         0.0457      -999.2500      -999.2500      -999.2500         1.9539        25.1496         2.5706         2.5783      -999.2500     
 2397.2520         8.9760         0.0294      -999.2500      -999.2500      -999.2500         1.9921        25.8979         2.5442         2.5153      -999.2500     
 2397.4044         8.9386         0.0220      -999.2500      -999.2500      -999.2500         2.0507        26.4571         2.5444         2.6230      -999.2500     
 2397.5568         8.9088         0.0448      -999.2500      -999.2500      -999.2500         2.2242        25.8317         2.5717         3.1269      -999.2500     
 2397.7092         8.8331         0.0609      -999.2500      -999.2500      -999.2500         2.6763      -999.2500         2.6003         2.9768      -999.2500     
 2397.8616         8.7844         0.0778      -999.2500      -999.2500      -999.2500         3.1881      -999.2500         2.6246         3.6383      -999.2500     
 2398.0140         8.8591         0.0788      -999.2500      -999.2500      -999.2500         3.6872      -999.2500         2.6492         5.6852      -999.2500     
 2398.1664         8.9671         0.0661      -999.2500      -999.2500      -999.2500         3.3634      -999.2500         2.6590         6.9642      -999.2500     
 2398.3188         9.0388         0.0486      -999.2500      -999.2500      -999.2500         4.0372      -999.2500         2.6629         5.3457      -999.2500     
 2398.4712         9.0285         0.0504      -999.2500      -999.2500      -999.2500         9.1855      -999.2500         2.6888         5.8804      -999.2500     
 2398.6236         8.9603         0.0575      -999.2500      -999.2500      -999.2500      -999.2500      -999.2500         2.7108      -999.2500      -999.2500     
 2398.7760         8.9053         0.0721      -999.2500      -999.2500      -999.2500      -999.2500      -999.2500         2.7299      -999.2500      -999.2500     
 2398.9284         8.9042         0.0850      -999.2500      -999.2500      -999.2500      -999.2500      -999.2500         2.7148      -999.2500      -999.2500     
 2399.0808         8.8470         0.0808      -999.2500      -999.2500      -999.2500      -999.2500      -999.2500         2.6822      -999.2500      -999.2500     
 2399.2332         8.8370         0.0724      -999.2500      -999.2500      -999.2500      -999.2500      -999.2500         2.6634      -999.2500      -999.2500     
 2399.3856         8.8666         0.0794      -999.2500      -999.2500      -999.2500      -999.2500      -999.2500         2.6651      -999.2500      -999.2500     
 2399.5380         8.8864         0.0869      -999.2500      -999.2500      -999.2500      -999.2500      -999.2500         2.6737      -999.2500      -999.2500     
 2399.6904         8.8661         0.0919      -999.2500      -999.2500      -999.2500      -999.2500      -999.2500         2.6811      -999.2500      -999.2500     
 2399.8428         8.8388         0.0869      -999.2500      -999.2500      -999.2500      -999.2500      -999.2500         2.6782      -999.2500      -999.2500     
 2399.9952         8.8703         0.0582      -999.2500      -999.2500      -999.2500      -999.2500      -999.2500         2.6522      -999.2500      -999.2500     
