~Version Information Section
VERS.          2.0                                     : CWLS LOG ASCII Standard
WRAP.          NO                                      : One line per depth step
CREA.          03/07/17                                : LAS Creation Date
~Well Information Section
STRT.m         234.5436                                : Start Depth
STOP.m         2401.2144                               : Stop Depth
STEP.m         0.1524                                  : Step
NULL.          -999.2500                               : Null Value
COMP.          B.P. PETROLEUM DEV. LTD.                : Company
WELL.          15/13-3                                 : Well
FLD .          EXPLORATION                             : Field
LOC .          NORTH SEA                               : Location
LOC1.          354,539.492mE 6,495,118.637mN           : Location (UTM)
CTRY.          UK                                      : Country
PROV.          UKCS                                    : Province
UWI .          882                                     : UWI Number
API .          -                                       : API Number
SECT.          -                                       : Section
TOWN.          -                                       : Township
RNGE.          -                                       : Range
PDAT.          MSL                                     : Perm Datum
EPD .m         0.0                                     : Elevation
LMF .          RT                                      : Log Measured From
DMF .          RT                                      : Drill Measured From
APD .m         33.5                                    : Above Perm Datum
EKB .m         33.8                                    : Elev-Kelly Bushing
EDF .m         33.5                                    : Elev-Drill Floor
EGL .m         -138.6                                  : Elev-Ground Level (Water Depth)
TDD .m         2401.0                                  : Total Depth (Driller)
TDL .m         2401.0                                  : Total Depth (Logger)
SRVC.          SCHLUMBERGER                            : Service Company
LATI.          58 34 14.6" N                           : Latitude
LONG.          00 29 51.4" E                           : Longitude
DATE.          03-27-JUN-1976                          : Logging Date
PROJ.          UKCS                                    : Project
SET .          COMP_WIRE                               : Set
~Curve Information Section
DEPTH.m                                                : Depth Curve
CALD.in                                                : Caliper (from FDC/CNL/GR)
DRHO.g/cc                                              : Density Correction
DT.us/ft                                               : Delta-T
GR.gAPI                                                : Gamma Ray (from ISF/BHC/GR)
GRD.gAPI                                               : Gamma Ray (from FDC/CNL/GR)
ILD.ohmm                                               : Deep Induction Standard Processed Resistivity
NPHI.LPU                                               : Neutron Porosity
RHOB.g/cc                                              : Bulk Density
SFL.ohmm                                               : Spherically Focussed Log
SP.mV                                                  : Spontaneous Potential 
~ASCII Log Data Section
# ...
 1742.9988      -999.2500      -999.2500       103.3561        27.5180      -999.2500         0.4153      -999.2500      -999.2500         0.6853        35.2720     
 1743.1512      -999.2500      -999.2500       103.5170        28.9660      -999.2500         0.4250      -999.2500      -999.2500         0.6792        35.6118     
 1743.3036      -999.2500      -999.2500       103.5610        30.1697      -999.2500         0.4396      -999.2500      -999.2500         0.6608        36.1476     
 1743.4560      -999.2500      -999.2500       103.5618        31.5263      -999.2500         0.4746      -999.2500      -999.2500         0.6251        36.2148     
 1743.6084      -999.2500      -999.2500       103.5627        33.1705      -999.2500         0.5213      -999.2500      -999.2500         0.6512        36.0111     
 1743.7608      -999.2500      -999.2500       103.6715        36.6638      -999.2500         0.5681      -999.2500      -999.2500         0.7090        36.0916     
 1743.9132      -999.2500      -999.2500       105.2342        41.3775      -999.2500         0.6149      -999.2500      -999.2500         0.7693        36.3334     
 1744.0656      -999.2500      -999.2500       106.4059        45.2423      -999.2500         0.6714      -999.2500      -999.2500         0.8461        37.5200     
 1744.2180      -999.2500      -999.2500       107.0917        46.7829      -999.2500         0.7331      -999.2500      -999.2500         0.9045        38.6658     
 1744.3704      -999.2500      -999.2500       107.1704        49.0235      -999.2500         0.7946      -999.2500      -999.2500         1.0512        39.8116     
 1744.5228      -999.2500      -999.2500       107.5249        52.3978      -999.2500         0.8218      -999.2500      -999.2500         1.1637        40.9595     
 1744.6752      -999.2500      -999.2500       107.9253        54.1127      -999.2500         0.8522      -999.2500      -999.2500         1.2633        42.1665     
 1744.8276      -999.2500      -999.2500       109.2857        54.1152      -999.2500         0.8886      -999.2500      -999.2500         1.2875        42.7486     
 1744.9800      -999.2500      -999.2500       111.2281        52.8935      -999.2500         0.9195      -999.2500      -999.2500         1.1848        42.8270     
 1745.1324      -999.2500      -999.2500       112.0447        52.1213      -999.2500         0.9361      -999.2500      -999.2500         1.0465        42.2300     
 1745.2848      -999.2500      -999.2500       113.8132        51.6798      -999.2500         0.9157      -999.2500      -999.2500         1.0400        41.7919     
 1745.4372      -999.2500      -999.2500       115.8273        51.2265      -999.2500         0.8827      -999.2500      -999.2500         1.1350        42.3789     
 1745.5896      -999.2500      -999.2500       117.7037        51.6021      -999.2500         0.8440      -999.2500      -999.2500         1.2169        43.5583     
 1745.7420      -999.2500      -999.2500       118.1976        51.6821      -999.2500         0.8058      -999.2500      -999.2500         1.2530        43.4894     
 1745.8944      -999.2500      -999.2500       116.7925        51.3356      -999.2500         0.7682      -999.2500      -999.2500         1.1935        42.0521     
 1746.0468      -999.2500      -999.2500       113.9934        50.4905      -999.2500         0.7306      -999.2500      -999.2500         1.1050        40.8008     
 1746.1992      -999.2500      -999.2500       112.0292        48.9586      -999.2500         0.6939      -999.2500      -999.2500         1.0102        39.9464     
 1746.3516      -999.2500      -999.2500       110.2957        45.6673      -999.2500         0.6624      -999.2500      -999.2500         0.9041        39.3465     
 1746.5040      -999.2500      -999.2500       108.9620        42.3737      -999.2500         0.6308      -999.2500      -999.2500         0.8326        38.5572     
 1746.6564      -999.2500      -999.2500       106.4441        42.0343      -999.2500         0.6038      -999.2500      -999.2500         0.8329        38.2591     
 1746.8088      -999.2500      -999.2500       103.2570        42.6444      -999.2500         0.5923      -999.2500      -999.2500         0.8915        37.8389     
 1746.9612      -999.2500      -999.2500        99.9113        42.8531      -999.2500         0.5935      -999.2500      -999.2500         0.9674        37.7713     
 1747.1136      -999.2500      -999.2500        98.3808        42.8555      -999.2500         0.6018      -999.2500      -999.2500         1.0106        38.1797     
 1747.2660      -999.2500      -999.2500        98.7182        43.2759      -999.2500         0.6176      -999.2500      -999.2500         0.9642        38.9848     
 1747.4184      -999.2500      -999.2500       100.7463        44.0805      -999.2500         0.6341      -999.2500      -999.2500         0.9132        39.8899     
 1747.5708      -999.2500      -999.2500       104.2246        44.8321      -999.2500         0.6377      -999.2500      -999.2500         0.8946        40.7871     
 1747.7232      -999.2500      -999.2500       107.0965        45.7046      -999.2500         0.6399      -999.2500      -999.2500         0.8820        41.3742     
 1747.8756      -999.2500      -999.2500       111.6784        46.3083      -999.2500         0.6439      -999.2500      -999.2500         0.8804        40.8718     
 1748.0280      -999.2500      -999.2500       115.2060        45.8760      -999.2500         0.6455      -999.2500      -999.2500         0.8807        39.8886     
 1748.1804      -999.2500      -999.2500       115.7777        44.4182      -999.2500         0.6470      -999.2500      -999.2500         0.8887        38.9511     
 1748.3328      -999.2500      -999.2500       114.5790        42.4587      -999.2500         0.6485      -999.2500      -999.2500         0.8888        37.4601     
 1748.4852      -999.2500      -999.2500       113.2504        38.0741      -999.2500         0.6504      -999.2500      -999.2500         0.8984        36.3329     
 1748.6376      -999.2500      -999.2500       111.5797        35.7657      -999.2500         0.6545      -999.2500      -999.2500         0.9068        36.0166     
 1748.7900      -999.2500      -999.2500       110.2417        35.0965      -999.2500         0.6586      -999.2500      -999.2500         0.9182        36.1868     
 1748.9424      -999.2500      -999.2500       108.7808        35.2058      -999.2500         0.6627      -999.2500      -999.2500         0.9491        36.1930     
 1749.0948      -999.2500      -999.2500       107.7438        35.9865      -999.2500         0.6667      -999.2500      -999.2500         0.9900        36.5956     
 1749.2472      -999.2500      -999.2500       107.1428        35.7154      -999.2500         0.6726      -999.2500      -999.2500         0.9775        36.9978     
 1749.3996      -999.2500      -999.2500       106.8438        33.6504      -999.2500         0.6794      -999.2500      -999.2500         0.9481        37.4040     
 1749.5520      -999.2500      -999.2500       106.5731        32.5755      -999.2500         0.6807      -999.2500      -999.2500         0.9309        37.7951     
 1749.7044      -999.2500      -999.2500       106.3984        32.3957      -999.2500         0.6807      -999.2500      -999.2500         0.9141        37.5478     
 1749.8568      -999.2500      -999.2500       106.3992        32.2783      -999.2500         0.6651      -999.2500      -999.2500         0.8995        37.1248     
 1750.0092      -999.2500      -999.2500       106.5177        32.1590      -999.2500         0.6439      -999.2500      -999.2500         0.8975        36.4524     
 1750.1616      -999.2500      -999.2500       107.1992        32.6773      -999.2500         0.6266      -999.2500      -999.2500         0.8974        36.1969     
 1750.3140      -999.2500      -999.2500       107.3587        33.2752      -999.2500         0.6266      -999.2500      -999.2500         0.9024        36.4027     
