~Version Information Section
VERS.          2.0                                     : CWLS LOG ASCII Standard
WRAP.          NO                                      : One line per depth step
CREA.          03/07/17                                : LAS Creation Date
~Well Information Section
STRT.m         234.5436                                : Start Depth
STOP.m         2401.2144                               : Stop Depth
STEP.m         0.1524                                  : Step
NULL.          -999.2500                               : Null Value
COMP.          B.P. PETROLEUM DEV. LTD.                : Company
WELL.          15/13-3                                 : Well
FLD .          EXPLORATION                             : Field
LOC .          NORTH SEA                               : Location
LOC1.          354,539.492mE 6,495,118.637mN           : Location (UTM)
CTRY.          UK                                      : Country
PROV.          UKCS                                    : Province
UWI .          882                                     : UWI Number
API .          -                                       : API Number
SECT.          -                                       : Section
TOWN.          -                                       : Township
RNGE.          -                                       : Range
PDAT.          MSL                                     : Perm Datum
EPD .m         0.0                                     : Elevation
LMF .          RT                                      : Log Measured From
DMF .          RT                                      : Drill Measured From
APD .m         33.5                                    : Above Perm Datum
EKB .m         33.8                                    : Elev-Kelly Bushing
EDF .m         33.5                                    : Elev-Drill Floor
EGL .m         -138.6                                  : Elev-Ground Level (Water Depth)
TDD .m         2401.0                                  : Total Depth (Driller)
TDL .m         2401.0                                  : Total Depth (Logger)
SRVC.          SCHLUMBERGER                            : Service Company
LATI.          58 34 14.6" N                           : Latitude
LONG.          00 29 51.4" E                           : Longitude
DATE.          03-27-JUN-1976                          : Logging Date
PROJ.          UKCS                                    : Project
SET .          COMP_WIRE                               : Set
~Curve Information Section
DEPTH.m                                                : Depth Curve
CALD.in                                                : Caliper (from FDC/CNL/GR)
DRHO.g/cc                                              : Density Correction
DT.us/ft                                               : Delta-T
GR.gAPI                                                : Gamma Ray (from ISF/BHC/GR)
GRD.gAPI                                               : Gamma Ray (from FDC/CNL/GR)
ILD.ohmm                                               : Deep Induction Standard Processed Resistivity
NPHI.LPU                                               : Neutron Porosity
RHOB.g/cc                                              : Bulk Density
SFL.ohmm                                               : Spherically Focussed Log
SP.mV                                                  : Spontaneous Potential 
~ASCII Log Data Section
# ...
 1630.9848      -999.2500      -999.2500       139.5487        55.8102      -999.2500         0.8082      -999.2500      -999.2500         1.0818        52.5977     
 1631.1372      -999.2500      -999.2500       138.7392        56.0560      -999.2500         0.8082      -999.2500      -999.2500         1.1147        52.3117     
 1631.2896      -999.2500      -999.2500       139.3871        56.0530      -999.2500         0.8113      -999.2500      -999.2500         1.0910        52.1246     
 1631.4420      -999.2500      -999.2500       141.2227        55.9222      -999.2500         0.8154      -999.2500      -999.2500         1.0531        52.4123     
 1631.5944      -999.2500      -999.2500       142.9703        54.9264      -999.2500         0.8369      -999.2500      -999.2500         1.0122        52.9080     
 1631.7468      -999.2500      -999.2500       144.8768        54.7074      -999.2500         0.8548      -999.2500      -999.2500         0.9818        53.3539     
 1631.8992      -999.2500      -999.2500       145.4041        55.7543      -999.2500         0.8650      -999.2500      -999.2500         0.9551        53.5051     
 1632.0516      -999.2500      -999.2500       142.6628        56.4680      -999.2500         0.8687      -999.2500      -999.2500         0.9453        53.6065     
 1632.2040      -999.2500      -999.2500       140.0158        56.6332      -999.2500         0.8582      -999.2500      -999.2500         0.9528        53.7009     
 1632.3564      -999.2500      -999.2500       137.4453        56.2074      -999.2500         0.8574      -999.2500      -999.2500         0.9813        53.5215     
 1632.5088      -999.2500      -999.2500       136.6257        54.9395      -999.2500         0.8633      -999.2500      -999.2500         1.0042        53.1588     
 1632.6612      -999.2500      -999.2500       137.2747        53.8910      -999.2500         0.8692      -999.2500      -999.2500         1.0167        52.8982     
 1632.8136      -999.2500      -999.2500       138.7777        53.2811      -999.2500         0.8599      -999.2500      -999.2500         1.0167        53.0773     
 1632.9660      -999.2500      -999.2500       139.9416        53.0305      -999.2500         0.8441      -999.2500      -999.2500         1.0166        53.2933     
 1633.1184      -999.2500      -999.2500       140.5996        53.6264      -999.2500         0.8211      -999.2500      -999.2500         1.0166        53.2915     
 1633.2708      -999.2500      -999.2500       140.7167        54.8185      -999.2500         0.8080      -999.2500      -999.2500         1.0132        53.2898     
 1633.4232      -999.2500      -999.2500       141.5388        55.1145      -999.2500         0.7970      -999.2500      -999.2500         1.0073        53.3695     
 1633.5756      -999.2500      -999.2500       142.1986        55.3478      -999.2500         0.7825      -999.2500      -999.2500         0.9956        53.7877     
 1633.7280      -999.2500      -999.2500       141.9904        56.4979      -999.2500         0.7824      -999.2500      -999.2500         0.9675        53.8792     
 1633.8804      -999.2500      -999.2500       140.5540        58.3833      -999.2500         0.7873      -999.2500      -999.2500         0.9285        53.0828     
 1634.0328      -999.2500      -999.2500       139.3118        59.2853      -999.2500         0.7928      -999.2500      -999.2500         0.9265        52.8323     
 1634.1852      -999.2500      -999.2500       137.9883        58.8710      -999.2500         0.7969      -999.2500      -999.2500         0.9562        52.6814     
 1634.3376      -999.2500      -999.2500       136.1830        57.6495      -999.2500         0.8015      -999.2500      -999.2500         0.9902        52.5090     
 1634.4900      -999.2500      -999.2500       135.0024        56.9964      -999.2500         0.8142      -999.2500      -999.2500         1.0058        52.6774     
 1634.6424      -999.2500      -999.2500       136.1662        57.4715      -999.2500         0.8205      -999.2500      -999.2500         1.0218        52.5282     
 1634.7948      -999.2500      -999.2500       137.7298        57.6014      -999.2500         0.8228      -999.2500      -999.2500         1.0343        52.4062     
 1634.9472      -999.2500      -999.2500       140.3133        55.7386      -999.2500         0.8228      -999.2500      -999.2500         1.0352        52.7083     
 1635.0996      -999.2500      -999.2500       143.2357        53.9143      -999.2500         0.8228      -999.2500      -999.2500         1.0352        53.0647     
 1635.2520      -999.2500      -999.2500       145.7306        53.1120      -999.2500         0.8228      -999.2500      -999.2500         1.0189        53.4607     
 1635.4044      -999.2500      -999.2500       147.2903        54.0375      -999.2500         0.8205      -999.2500      -999.2500         0.9965        53.8568     
 1635.5568      -999.2500      -999.2500       146.9508        55.4365      -999.2500         0.8145      -999.2500      -999.2500         0.9642        53.6992     
 1635.7092      -999.2500      -999.2500       143.7663        55.6680      -999.2500         0.8057      -999.2500      -999.2500         0.9153        53.2391     
 1635.8616      -999.2500      -999.2500       141.2968        55.6650      -999.2500         0.8005      -999.2500      -999.2500         0.8771        53.0882     
 1636.0140      -999.2500      -999.2500       140.3861        55.6621      -999.2500         0.7953      -999.2500      -999.2500         0.8693        53.1969     
 1636.1664      -999.2500      -999.2500       140.8787        55.6591      -999.2500         0.7908      -999.2500      -999.2500         0.9079        53.5632     
 1636.3188      -999.2500      -999.2500       141.7658        56.0093      -999.2500         0.7869      -999.2500      -999.2500         0.9279        54.0398     
 1636.4712      -999.2500      -999.2500       143.1216        56.5360      -999.2500         0.7761      -999.2500      -999.2500         0.9356        54.1720     
 1636.6236      -999.2500      -999.2500       144.0374        55.5942      -999.2500         0.7628      -999.2500      -999.2500         0.9347        54.3252     
 1636.7760      -999.2500      -999.2500       144.6242        54.7349      -999.2500         0.7495      -999.2500      -999.2500         0.9230        53.8289     
 1636.9284      -999.2500      -999.2500       145.4738        53.1439      -999.2500         0.7366      -999.2500      -999.2500         0.9185        53.3345     
 1637.0808      -999.2500      -999.2500       146.0965        52.3091      -999.2500         0.7333      -999.2500      -999.2500         0.9169        53.0940     
 1637.2332      -999.2500      -999.2500       145.0462        52.3023      -999.2500         0.7304      -999.2500      -999.2500         0.9101        52.8056     
 1637.3856      -999.2500      -999.2500       143.3119        52.6443      -999.2500         0.7371      -999.2500      -999.2500         0.9132        52.3675     
 1637.5380      -999.2500      -999.2500       141.4678        52.0933      -999.2500         0.7439      -999.2500      -999.2500         0.9274        52.0434     
 1637.6904      -999.2500      -999.2500       139.9424        51.3443      -999.2500         0.7508      -999.2500      -999.2500         0.9368        53.1384     
 1637.8428      -999.2500      -999.2500       138.4053        50.5779      -999.2500         0.7576      -999.2500      -999.2500         0.9457        53.9503     
 1637.9952      -999.2500      -999.2500       136.6082        49.9682      -999.2500         0.7636      -999.2500      -999.2500         0.9540        53.5748     
 1638.1476      -999.2500      -999.2500       134.6916        50.1783      -999.2500         0.7767      -999.2500      -999.2500         0.9777        53.3469     
 1638.3000      -999.2500      -999.2500       133.2625        51.1738      -999.2500         0.7853      -999.2500      -999.2500         1.0066        53.6724     
