~Version Information Section
VERS.          2.0                                     : CWLS LOG ASCII Standard
WRAP.          NO                                      : One line per depth step
CREA.          03/07/17                                : LAS Creation Date
~Well Information Section
STRT.m         234.5436                                : Start Depth
STOP.m         2401.2144                               : Stop Depth
STEP.m         0.1524                                  : Step
NULL.          -999.2500                               : Null Value
COMP.          B.P. PETROLEUM DEV. LTD.                : Company
WELL.          15/13-3                                 : Well
FLD .          EXPLORATION                             : Field
LOC .          NORTH SEA                               : Location
LOC1.          354,539.492mE 6,495,118.637mN           : Location (UTM)
CTRY.          UK                                      : Country
PROV.          UKCS                                    : Province
UWI .          882                                     : UWI Number
API .          -                                       : API Number
SECT.          -                                       : Section
TOWN.          -                                       : Township
RNGE.          -                                       : Range
PDAT.          MSL                                     : Perm Datum
EPD .m         0.0                                     : Elevation
LMF .          RT                                      : Log Measured From
DMF .          RT                                      : Drill Measured From
APD .m         33.5                                    : Above Perm Datum
EKB .m         33.8                                    : Elev-Kelly Bushing
EDF .m         33.5                                    : Elev-Drill Floor
EGL .m         -138.6                                  : Elev-Ground Level (Water Depth)
TDD .m         2401.0                                  : Total Depth (Driller)
TDL .m         2401.0                                  : Total Depth (Logger)
SRVC.          SCHLUMBERGER                            : Service Company
LATI.          58 34 14.6" N                           : Latitude
LONG.          00 29 51.4" E                           : Longitude
DATE.          03-27-JUN-1976                          : Logging Date
PROJ.          UKCS                                    : Project
SET .          COMP_WIRE                               : Set
~Curve Information Section
DEPTH.m                                                : Depth Curve
CALD.in                                                : Caliper (from FDC/CNL/GR)
DRHO.g/cc                                              : Density Correction
DT.us/ft                                               : Delta-T
GR.gAPI                                                : Gamma Ray (from ISF/BHC/GR)
GRD.gAPI                                               : Gamma Ray (from FDC/CNL/GR)
ILD.ohmm                                               : Deep Induction Standard Processed Resistivity
NPHI.LPU                                               : Neutron Porosity
RHOB.g/cc                                              : Bulk Density
SFL.ohmm                                               : Spherically Focussed Log
SP.mV                                                  : Spontaneous Potential 
~ASCII Log Data Section
# ...
 1309.8780      -999.2500      -999.2500       124.6503        44.3777      -999.2500         0.7935      -999.2500      -999.2500         1.0233        38.7043     
 1310.0304      -999.2500      -999.2500       124.0890        45.1375      -999.2500         0.8012      -999.2500      -999.2500         1.0446        39.3139     
 1310.1828      -999.2500      -999.2500       123.6848        45.3360      -999.2500         0.7830      -999.2500      -999.2500         1.0797        38.4655     
 1310.3352      -999.2500      -999.2500       123.4427        44.3303      -999.2500         0.7437      -999.2500      -999.2500         1.0600        37.8070     
 1310.4876      -999.2500      -999.2500       123.7841        43.4029      -999.2500         0.7018      -999.2500      -999.2500         1.0033        37.2091     
 1310.6400      -999.2500      -999.2500       124.1251        40.5329      -999.2500         0.6601      -999.2500      -999.2500         0.9024        36.4415     
 1310.7924      -999.2500      -999.2500       124.6341        36.8083      -999.2500         0.6365      -999.2500      -999.2500         0.8030        36.6593     
 1310.9448      -999.2500      -999.2500       125.1044        33.4508      -999.2500         0.6055      -999.2500      -999.2500         0.7172        36.8864     
 1311.0972      -999.2500      -999.2500       125.4720        30.9820      -999.2500         0.5801      -999.2500      -999.2500         0.6989        37.1956     
 1311.2496      -999.2500      -999.2500       125.7630        30.6186      -999.2500         0.5551      -999.2500      -999.2500         0.7684        37.3889     
 1311.4020      -999.2500      -999.2500       125.7606        30.8516      -999.2500         0.5277      -999.2500      -999.2500         0.7919        37.5476     
 1311.5544      -999.2500      -999.2500       125.7581        30.9017      -999.2500         0.5196      -999.2500      -999.2500         0.7745        37.5479     
 1311.7068      -999.2500      -999.2500       125.7557        30.0068      -999.2500         0.5190      -999.2500      -999.2500         0.7409        37.5482     
 1311.8592      -999.2500      -999.2500       125.2864        29.1115      -999.2500         0.5266      -999.2500      -999.2500         0.6822        37.5485     
 1312.0116      -999.2500      -999.2500       124.7236        28.2248      -999.2500         0.5360      -999.2500      -999.2500         0.6614        37.1504     
 1312.1640      -999.2500      -999.2500       124.1591        28.1899      -999.2500         0.5387      -999.2500      -999.2500         0.7213        37.1507     
 1312.3164      -999.2500      -999.2500       124.5938        28.6518      -999.2500         0.5402      -999.2500      -999.2500         0.7984        37.1510     
 1312.4688      -999.2500      -999.2500       125.0864        28.6620      -999.2500         0.5403      -999.2500      -999.2500         0.8292        37.1262     
 1312.6212      -999.2500      -999.2500       125.8047        27.6181      -999.2500         0.5453      -999.2500      -999.2500         0.8059        37.0268     
 1312.7736      -999.2500      -999.2500       126.2999        26.3529      -999.2500         0.5493      -999.2500      -999.2500         0.7781        36.8920     
 1312.9260      -999.2500      -999.2500       126.5866        25.2385      -999.2500         0.5597      -999.2500      -999.2500         0.7424        36.7539     
 1313.0784      -999.2500      -999.2500       126.8247        24.7670      -999.2500         0.5605      -999.2500      -999.2500         0.7270        36.4543     
 1313.2308      -999.2500      -999.2500       126.7242        24.6573      -999.2500         0.5657      -999.2500      -999.2500         0.7305        36.3562     
 1313.3832      -999.2500      -999.2500       126.1082        24.9572      -999.2500         0.5657      -999.2500      -999.2500         0.7421        36.3565     
 1313.5356      -999.2500      -999.2500       125.2166        25.5410      -999.2500         0.5738      -999.2500      -999.2500         0.7535        36.2006     
 1313.6880      -999.2500      -999.2500       123.9132        26.9492      -999.2500         0.5804      -999.2500      -999.2500         0.7595        35.4049     
 1313.8404      -999.2500      -999.2500       122.5541        28.4852      -999.2500         0.5875      -999.2500      -999.2500         0.7751        35.3617     
 1313.9928      -999.2500      -999.2500       121.5555        29.7747      -999.2500         0.5921      -999.2500      -999.2500         0.7874        35.4008     
 1314.1452      -999.2500      -999.2500       121.3971        30.3404      -999.2500         0.5924      -999.2500      -999.2500         0.7966        35.7909     
 1314.2976      -999.2500      -999.2500       121.6618        30.0777      -999.2500         0.5893      -999.2500      -999.2500         0.7946        36.0907     
 1314.4500      -999.2500      -999.2500       121.6956        28.7613      -999.2500         0.5851      -999.2500      -999.2500         0.7765        36.3136     
 1314.6024      -999.2500      -999.2500       122.4114        27.4635      -999.2500         0.5808      -999.2500      -999.2500         0.7466        36.3592     
 1314.7548      -999.2500      -999.2500       123.6541        27.1471      -999.2500         0.5765      -999.2500      -999.2500         0.7317        36.4809     
 1314.9072      -999.2500      -999.2500       124.7201        26.9089      -999.2500         0.5763      -999.2500      -999.2500         0.7254        36.4128     
 1315.0596      -999.2500      -999.2500       125.4065        26.9005      -999.2500         0.5763      -999.2500      -999.2500         0.7268        36.1741     
 1315.2120      -999.2500      -999.2500       125.6931        27.3108      -999.2500         0.5763      -999.2500      -999.2500         0.7384        35.8289     
 1315.3644      -999.2500      -999.2500       125.3465        27.3624      -999.2500         0.5776      -999.2500      -999.2500         0.7477        35.7635     
 1315.5168      -999.2500      -999.2500       124.9996        27.9268      -999.2500         0.5835      -999.2500      -999.2500         0.7571        35.9510     
 1315.6692      -999.2500      -999.2500       123.9588        28.9631      -999.2500         0.5991      -999.2500      -999.2500         0.7669        36.1701     
 1315.8216      -999.2500      -999.2500       122.5979        29.1577      -999.2500         0.6140      -999.2500      -999.2500         0.7823        36.3861     
 1315.9740      -999.2500      -999.2500       121.2344        29.1588      -999.2500         0.6230      -999.2500      -999.2500         0.8054        36.5860     
 1316.1264      -999.2500      -999.2500       119.7220        29.1600      -999.2500         0.6318      -999.2500      -999.2500         0.8207        36.7390     
 1316.2788      -999.2500      -999.2500       118.4208        29.4312      -999.2500         0.6405      -999.2500      -999.2500         0.8369        36.5685     
 1316.4312      -999.2500      -999.2500       117.5710        29.6930      -999.2500         0.6493      -999.2500      -999.2500         0.8489        36.3979     
 1316.5836      -999.2500      -999.2500       116.9255        30.0933      -999.2500         0.6596      -999.2500      -999.2500         0.8525        36.2855     
 1316.7360      -999.2500      -999.2500       116.8788        29.9906      -999.2500         0.6734      -999.2500      -999.2500         0.8562        35.4901     
 1316.8884      -999.2500      -999.2500       118.4353        29.7627      -999.2500         0.6780      -999.2500      -999.2500         0.8067        34.6179     
 1317.0408      -999.2500      -999.2500       120.4845        30.1355      -999.2500         0.6803      -999.2500      -999.2500         0.7373        34.1365     
 1317.1932      -999.2500      -999.2500       122.4021        32.1709      -999.2500         0.6748      -999.2500      -999.2500         0.7617        34.1147     
