~Version Information Section
VERS.          2.0                                     : CWLS LOG ASCII Standard
WRAP.          NO                                      : One line per depth step
CREA.          03/07/17                                : LAS Creation Date
~Well Information Section
STRT.m         234.5436                                : Start Depth
STOP.m         2401.2144                               : Stop Depth
STEP.m         0.1524                                  : Step
NULL.          -999.2500                               : Null Value
COMP.          B.P. PETROLEUM DEV. LTD.                : Company
WELL.          15/13-3                                 : Well
FLD .          EXPLORATION                             : Field
LOC .          NORTH SEA                               : Location
LOC1.          354,539.492mE 6,495,118.637mN           : Location (UTM)
CTRY.          UK                                      : Country
PROV.          UKCS                                    : Province
UWI .          882                                     : UWI Number
API .          -                                       : API Number
SECT.          -                                       : Section
TOWN.          -                                       : Township
RNGE.          -                                       : Range
PDAT.          MSL                                     : Perm Datum
EPD .m         0.0                                     : Elevation
LMF .          RT                                      : Log Measured From
DMF .          RT                                      : Drill Measured From
APD .m         33.5                                    : Above Perm Datum
EKB .m         33.8                                    : Elev-Kelly Bushing
EDF .m         33.5                                    : Elev-Drill Floor
EGL .m         -138.6                                  : Elev-Ground Level (Water Depth)
TDD .m         2401.0                                  : Total Depth (Driller)
TDL .m         2401.0                                  : Total Depth (Logger)
SRVC.          SCHLUMBERGER                            : Service Company
LATI.          58 34 14.6" N                           : Latitude
LONG.          00 29 51.4" E                           : Longitude
DATE.          03-27-JUN-1976                          : Logging Date
PROJ.          UKCS                                    : Project
SET .          COMP_WIRE                               : Set
~Curve Information Section
DEPTH.m                                                : Depth Curve
CALD.in                                                : Caliper (from FDC/CNL/GR)
DRHO.g/cc                                              : Density Correction
DT.us/ft                                               : Delta-T
GR.gAPI                                                : Gamma Ray (from ISF/BHC/GR)
GRD.gAPI                                               : Gamma Ray (from FDC/CNL/GR)
ILD.ohmm                                               : Deep Induction Standard Processed Resistivity
NPHI.LPU                                               : Neutron Porosity
RHOB.g/cc                                              : Bulk Density
SFL.ohmm                                               : Spherically Focussed Log
SP.mV                                                  : Spontaneous Potential 
~ASCII Log Data Section
# ...
 1847.5452      -999.2500      -999.2500        98.4469        30.4830      -999.2500         0.4753      -999.2500      -999.2500         0.7844        35.0909     
 1847.6976      -999.2500      -999.2500        98.9025        30.2282      -999.2500         0.4717      -999.2500      -999.2500         0.7485        35.2925     
 1847.8500      -999.2500      -999.2500       100.0291        30.8370      -999.2500         0.4717      -999.2500      -999.2500         0.7221        35.3061     
 1848.0024      -999.2500      -999.2500       100.8267        31.4699      -999.2500         0.4624      -999.2500      -999.2500         0.7079        35.3078     
 1848.1548      -999.2500      -999.2500       101.3170        32.7392      -999.2500         0.4539      -999.2500      -999.2500         0.7079        35.3094     
 1848.3072      -999.2500      -999.2500       101.4854        33.7833      -999.2500         0.4504      -999.2500      -999.2500         0.7136        35.3111     
 1848.4596      -999.2500      -999.2500       101.4846        34.5984      -999.2500         0.4505      -999.2500      -999.2500         0.7197        35.3127     
 1848.6120      -999.2500      -999.2500       101.4839        34.7101      -999.2500         0.4542      -999.2500      -999.2500         0.7268        35.3143     
 1848.7644      -999.2500      -999.2500       101.4831        34.4129      -999.2500         0.4568      -999.2500      -999.2500         0.7341        35.0231     
 1848.9168      -999.2500      -999.2500       101.4824        33.7508      -999.2500         0.4589      -999.2500      -999.2500         0.7560        34.6519     
 1849.0692      -999.2500      -999.2500       101.4816        32.8550      -999.2500         0.4589      -999.2500      -999.2500         0.7787        34.1218     
 1849.2216      -999.2500      -999.2500       101.6442        32.0593      -999.2500         0.4557      -999.2500      -999.2500         0.7672        34.1234     
 1849.3740      -999.2500      -999.2500       102.1221        31.0473      -999.2500         0.4547      -999.2500      -999.2500         0.7422        34.1928     
 1849.5264      -999.2500      -999.2500       102.9221        30.5786      -999.2500         0.4460      -999.2500      -999.2500         0.7194        34.6599     
 1849.6788      -999.2500      -999.2500       103.5339        31.0948      -999.2500         0.4407      -999.2500      -999.2500         0.6966        34.9615     
 1849.8312      -999.2500      -999.2500       103.8750        33.0164      -999.2500         0.4326      -999.2500      -999.2500         0.6863        35.2627     
 1849.9836      -999.2500      -999.2500       104.2163        33.9189      -999.2500         0.4217      -999.2500      -999.2500         0.6850        35.7520     
 1850.1360      -999.2500      -999.2500       103.9814        34.1343      -999.2500         0.4143      -999.2500      -999.2500         0.6897        35.9295     
 1850.2884      -999.2500      -999.2500       103.6357        33.6801      -999.2500         0.4097      -999.2500      -999.2500         0.6983        35.8953     
 1850.4408      -999.2500      -999.2500       102.9432        32.9424      -999.2500         0.4103      -999.2500      -999.2500         0.7077        35.5300     
 1850.5932      -999.2500      -999.2500       102.0989        34.0175      -999.2500         0.4109      -999.2500      -999.2500         0.6992        35.0650     
 1850.7456      -999.2500      -999.2500       101.7246        35.3965      -999.2500         0.4109      -999.2500      -999.2500         0.7013        34.5584     
 1850.8980      -999.2500      -999.2500       101.4572        36.2888      -999.2500         0.4110      -999.2500      -999.2500         0.7162        34.4179     
 1851.0504      -999.2500      -999.2500       101.4538        36.4163      -999.2500         0.4110      -999.2500      -999.2500         0.7463        34.6271     
 1851.2028      -999.2500      -999.2500       101.5870        35.9903      -999.2500         0.4076      -999.2500      -999.2500         0.7889        34.9282     
 1851.3552      -999.2500      -999.2500       101.9828        34.6369      -999.2500         0.4073      -999.2500      -999.2500         0.7899        35.6144     
 1851.5076      -999.2500      -999.2500       102.2423        34.3014      -999.2500         0.4125      -999.2500      -999.2500         0.7755        36.1431     
 1851.6600      -999.2500      -999.2500       102.2357        34.6375      -999.2500         0.4351      -999.2500      -999.2500         0.7622        36.1447     
 1851.8124      -999.2500      -999.2500       101.8308        37.2181      -999.2500         0.4656      -999.2500      -999.2500         0.7493        36.0318     
 1851.9648      -999.2500      -999.2500       101.1423        39.1418      -999.2500         0.4962      -999.2500      -999.2500         0.7476        35.7487     
 1852.1172      -999.2500      -999.2500       101.0309        41.0429      -999.2500         0.5285      -999.2500      -999.2500         0.7601        35.7503     
 1852.2696      -999.2500      -999.2500       101.4379        42.9751      -999.2500         0.5474      -999.2500      -999.2500         0.7865        36.1602     
 1852.4220      -999.2500      -999.2500       104.0437        45.4881      -999.2500         0.5414      -999.2500      -999.2500         0.8817        37.4558     
 1852.5744      -999.2500      -999.2500       108.8322        48.6822      -999.2500         0.5190      -999.2500      -999.2500         1.0457        38.5090     
 1852.7268      -999.2500      -999.2500       110.8864        49.9981      -999.2500         0.5693      -999.2500      -999.2500         1.1455        38.7492     
 1852.8792      -999.2500      -999.2500       110.1824        49.2400      -999.2500         0.6816      -999.2500      -999.2500         1.1055        38.2765     
 1853.0316      -999.2500      -999.2500       105.1542        45.7600      -999.2500         0.7089      -999.2500      -999.2500         0.9896        37.6800     
 1853.1840      -999.2500      -999.2500       100.8758        40.3990      -999.2500         0.7015      -999.2500      -999.2500         0.9111        37.1577     
 1853.3364      -999.2500      -999.2500        98.6073        36.1714      -999.2500         0.6743      -999.2500      -999.2500         0.8982        37.1592     
 1853.4888      -999.2500      -999.2500        98.7742        34.7074      -999.2500         0.5924      -999.2500      -999.2500         0.8999        36.9971     
 1853.6412      -999.2500      -999.2500        99.8115        33.7819      -999.2500         0.5371      -999.2500      -999.2500         0.8677        36.5554     
 1853.7936      -999.2500      -999.2500       100.8680        32.5370      -999.2500         0.5019      -999.2500      -999.2500         0.8285        36.0498     
 1853.9460      -999.2500      -999.2500       101.6638        31.5355      -999.2500         0.4668      -999.2500      -999.2500         0.7961        35.7948     
 1854.0984      -999.2500      -999.2500       102.5425        30.3121      -999.2500         0.4447      -999.2500      -999.2500         0.7645        35.5918     
 1854.2508      -999.2500      -999.2500       103.2854        29.4146      -999.2500         0.4238      -999.2500      -999.2500         0.7414        35.7645     
 1854.4032      -999.2500      -999.2500       103.6651        29.7253      -999.2500         0.4069      -999.2500      -999.2500         0.7360        35.6468     
 1854.5556      -999.2500      -999.2500       104.0967        29.7943      -999.2500         0.3973      -999.2500      -999.2500         0.7360        35.5263     
 1854.7080      -999.2500      -999.2500       104.8410        30.0628      -999.2500         0.3930      -999.2500      -999.2500         0.7347        35.4191     
 1854.8604      -999.2500      -999.2500       105.3646        30.6108      -999.2500         0.3930      -999.2500      -999.2500         0.7253        35.2308     
