~Version Information Section
VERS.          2.0                                     : CWLS LOG ASCII Standard
WRAP.          NO                                      : One line per depth step
CREA.          03/07/17                                : LAS Creation Date
~Well Information Section
STRT.m         234.5436                                : Start Depth
STOP.m         2401.2144                               : Stop Depth
STEP.m         0.1524                                  : Step
NULL.          -999.2500                               : Null Value
COMP.          B.P. PETROLEUM DEV. LTD.                : Company
WELL.          15/13-3                                 : Well
FLD .          EXPLORATION                             : Field
LOC .          NORTH SEA                               : Location
LOC1.          354,539.492mE 6,495,118.637mN           : Location (UTM)
CTRY.          UK                                      : Country
PROV.          UKCS                                    : Province
UWI .          882                                     : UWI Number
API .          -                                       : API Number
SECT.          -                                       : Section
TOWN.          -                                       : Township
RNGE.          -                                       : Range
PDAT.          MSL                                     : Perm Datum
EPD .m         0.0                                     : Elevation
LMF .          RT                                      : Log Measured From
DMF .          RT                                      : Drill Measured From
APD .m         33.5                                    : Above Perm Datum
EKB .m         33.8                                    : Elev-Kelly Bushing
EDF .m         33.5                                    : Elev-Drill Floor
EGL .m         -138.6                                  : Elev-Ground Level (Water Depth)
TDD .m         2401.0                                  : Total Depth (Driller)
TDL .m         2401.0                                  : Total Depth (Logger)
SRVC.          SCHLUMBERGER                            : Service Company
LATI.          58 34 14.6" N                           : Latitude
LONG.          00 29 51.4" E                           : Longitude
DATE.          03-27-JUN-1976                          : Logging Date
PROJ.          UKCS                                    : Project
SET .          COMP_WIRE                               : Set
~Curve Information Section
DEPTH.m                                                : Depth Curve
CALD.in                                                : Caliper (from FDC/CNL/GR)
DRHO.g/cc                                              : Density Correction
DT.us/ft                                               : Delta-T
GR.gAPI                                                : Gamma Ray (from ISF/BHC/GR)
GRD.gAPI                                               : Gamma Ray (from FDC/CNL/GR)
ILD.ohmm                                               : Deep Induction Standard Processed Resistivity
NPHI.LPU                                               : Neutron Porosity
RHOB.g/cc                                              : Bulk Density
SFL.ohmm                                               : Spherically Focussed Log
SP.mV                                                  : Spontaneous Potential 
~ASCII Log Data Section
# ...
  876.7572      -999.2500      -999.2500       144.5954        16.9535      -999.2500         0.7149      -999.2500      -999.2500         0.8816        37.4365     
  876.9096      -999.2500      -999.2500       143.6165        16.8975      -999.2500         0.7142      -999.2500      -999.2500         0.8890        38.0380     
  877.0620      -999.2500      -999.2500       143.3737        16.0046      -999.2500         0.7134      -999.2500      -999.2500         0.8931        38.3437     
  877.2144      -999.2500      -999.2500       144.0459        15.9157      -999.2500         0.7127      -999.2500      -999.2500         0.8926        39.0067     
  877.3668      -999.2500      -999.2500       144.6520        15.4700      -999.2500         0.7119      -999.2500      -999.2500         0.8851        39.2426     
  877.5192      -999.2500      -999.2500       145.2044        15.3236      -999.2500         0.7139      -999.2500      -999.2500         0.8764        39.4469     
  877.6716      -999.2500      -999.2500       145.3680        14.8780      -999.2500         0.7167      -999.2500      -999.2500         0.8656        39.3472     
  877.8240      -999.2500      -999.2500       145.3655        15.3302      -999.2500         0.7164      -999.2500      -999.2500         0.8525        38.9521     
  877.9764      -999.2500      -999.2500       145.7924        15.3335      -999.2500         0.7116      -999.2500      -999.2500         0.8409        38.7517     
  878.1288      -999.2500      -999.2500       146.4482        15.6360      -999.2500         0.7089      -999.2500      -999.2500         0.8329        38.0549     
  878.2812      -999.2500      -999.2500       146.9614        15.3400      -999.2500         0.7061      -999.2500      -999.2500         0.8282        38.2523     
  878.4336      -999.2500      -999.2500       146.9590        15.3433      -999.2500         0.7035      -999.2500      -999.2500         0.8248        38.5595     
  878.5860      -999.2500      -999.2500       146.3104        15.0473      -999.2500         0.7010      -999.2500      -999.2500         0.8298        38.2553     
  878.7384      -999.2500      -999.2500       145.1022        14.9546      -999.2500         0.7000      -999.2500      -999.2500         0.8371        38.5623     
  878.8908      -999.2500      -999.2500       144.8475        15.2576      -999.2500         0.7035      -999.2500      -999.2500         0.8471        38.7606     
  879.0432      -999.2500      -999.2500       144.6951        15.3564      -999.2500         0.7068      -999.2500      -999.2500         0.8657        38.7621     
  879.1956      -999.2500      -999.2500       145.0182        15.4681      -999.2500         0.7096      -999.2500      -999.2500         0.8827        39.0628     
  879.3480      -999.2500      -999.2500       145.2162        15.9613      -999.2500         0.7126      -999.2500      -999.2500         0.8937        39.1630     
  879.5004      -999.2500      -999.2500       145.3387        16.4775      -999.2500         0.7170      -999.2500      -999.2500         0.8916        39.1655     
  879.6528      -999.2500      -999.2500       145.3362        16.5662      -999.2500         0.7218      -999.2500      -999.2500         0.8858        38.7680     
  879.8052      -999.2500      -999.2500       145.1624        16.5694      -999.2500         0.7248      -999.2500      -999.2500         0.8804        37.9751     
  879.9576      -999.2500      -999.2500       144.9181        16.5727      -999.2500         0.7218      -999.2500      -999.2500         0.8652        38.0696     
  880.1100      -999.2500      -999.2500       144.6481        16.8188      -999.2500         0.7190      -999.2500      -999.2500         0.8592        38.1742     
  880.2624      -999.2500      -999.2500       144.3598        15.7775      -999.2500         0.7191      -999.2500      -999.2500         0.8619        38.0791     
  880.4148      -999.2500      -999.2500       144.1617        15.3859      -999.2500         0.7191      -999.2500      -999.2500         0.8750        38.3742     
  880.5672      -999.2500      -999.2500       144.3444        15.3891      -999.2500         0.7191      -999.2500      -999.2500         0.8852        38.4798     
  880.7196      -999.2500      -999.2500       144.5298        15.3924      -999.2500         0.7217      -999.2500      -999.2500         0.8934        38.8782     
  880.8720      -999.2500      -999.2500       144.7680        15.3957      -999.2500         0.7250      -999.2500      -999.2500         0.8967        38.8768     
  881.0244      -999.2500      -999.2500       144.9907        15.3989      -999.2500         0.7302      -999.2500      -999.2500         0.8968        38.9809     
  881.1768      -999.2500      -999.2500       145.1887        14.9536      -999.2500         0.7361      -999.2500      -999.2500         0.8959        39.0820     
  881.3292      -999.2500      -999.2500       145.3938        14.5569      -999.2500         0.7260      -999.2500      -999.2500         0.8861        38.5850     
  881.4816      -999.2500      -999.2500       145.6100        14.2124      -999.2500         0.7260      -999.2500      -999.2500         0.8825        38.7859     
  881.6340      -999.2500      -999.2500       145.7053        14.2157      -999.2500         0.7266      -999.2500      -999.2500         0.8870        38.9863     
  881.7864      -999.2500      -999.2500       145.6825        14.2190      -999.2500         0.7324      -999.2500      -999.2500         0.8925        38.9883     
  881.9388      -999.2500      -999.2500       145.3097        14.2223      -999.2500         0.7227      -999.2500      -999.2500         0.8959        39.1891     
  882.0912      -999.2500      -999.2500       144.9368        15.3235      -999.2500         0.7195      -999.2500      -999.2500         0.8915        39.0909     
  882.2436      -999.2500      -999.2500       144.8939        15.4251      -999.2500         0.7196      -999.2500      -999.2500         0.8837        39.0926     
  882.3960      -999.2500      -999.2500       144.8914        15.4284      -999.2500         0.7204      -999.2500      -999.2500         0.8715        39.5894     
  882.5484      -999.2500      -999.2500       144.7302        15.8712      -999.2500         0.7218      -999.2500      -999.2500         0.8586        38.8960     
  882.7008      -999.2500      -999.2500       144.5088        16.7393      -999.2500         0.7232      -999.2500      -999.2500         0.8510        38.7978     
  882.8532      -999.2500      -999.2500       144.1755        17.4374      -999.2500         0.7246      -999.2500      -999.2500         0.8574        38.7993     
  883.0056      -999.2500      -999.2500       144.0800        17.2051      -999.2500         0.7260      -999.2500      -999.2500         0.8604        38.3743     
  883.1580      -999.2500      -999.2500       144.0271        15.2450      -999.2500         0.7274      -999.2500      -999.2500         0.8634        37.8056     
  883.3104      -999.2500      -999.2500       143.8058        15.1490      -999.2500         0.7288      -999.2500      -999.2500         0.8722        37.4084     
  883.4628      -999.2500      -999.2500       143.6719        15.1523      -999.2500         0.7302      -999.2500      -999.2500         0.8815        37.6093     
  883.6152      -999.2500      -999.2500       143.6463        15.1556      -999.2500         0.7316      -999.2500      -999.2500         0.8901        38.1091     
  883.7676      -999.2500      -999.2500       143.2999        15.0093      -999.2500         0.7330      -999.2500      -999.2500         0.8963        38.4101     
  883.9200      -999.2500      -999.2500       143.2638        14.8631      -999.2500         0.7386      -999.2500      -999.2500         0.8935        38.8097     
  884.0724      -999.2500      -999.2500       142.9068        15.5645      -999.2500         0.7454      -999.2500      -999.2500         0.8888        39.2149     
