~Version Information Section
VERS.          2.0                                     : CWLS LOG ASCII Standard
WRAP.          NO                                      : One line per depth step
CREA.          03/07/17                                : LAS Creation Date
~Well Information Section
STRT.m         234.5436                                : Start Depth
STOP.m         2401.2144                               : Stop Depth
STEP.m         0.1524                                  : Step
NULL.          -999.2500                               : Null Value
COMP.          B.P. PETROLEUM DEV. LTD.                : Company
WELL.          15/13-3                                 : Well
FLD .          EXPLORATION                             : Field
LOC .          NORTH SEA                               : Location
LOC1.          354,539.492mE 6,495,118.637mN           : Location (UTM)
CTRY.          UK                                      : Country
PROV.          UKCS                                    : Province
UWI .          882                                     : UWI Number
API .          -                                       : API Number
SECT.          -                                       : Section
TOWN.          -                                       : Township
RNGE.          -                                       : Range
PDAT.          MSL                                     : Perm Datum
EPD .m         0.0                                     : Elevation
LMF .          RT                                      : Log Measured From
DMF .          RT                                      : Drill Measured From
APD .m         33.5                                    : Above Perm Datum
EKB .m         33.8                                    : Elev-Kelly Bushing
EDF .m         33.5                                    : Elev-Drill Floor
EGL .m         -138.6                                  : Elev-Ground Level (Water Depth)
TDD .m         2401.0                                  : Total Depth (Driller)
TDL .m         2401.0                                  : Total Depth (Logger)
SRVC.          SCHLUMBERGER                            : Service Company
LATI.          58 34 14.6" N                           : Latitude
LONG.          00 29 51.4" E                           : Longitude
DATE.          03-27-JUN-1976                          : Logging Date
PROJ.          UKCS                                    : Project
SET .          COMP_WIRE                               : Set
~Curve Information Section
DEPTH.m                                                : Depth Curve
CALD.in                                                : Caliper (from FDC/CNL/GR)
DRHO.g/cc                                              : Density Correction
DT.us/ft                                               : Delta-T
GR.gAPI                                                : Gamma Ray (from ISF/BHC/GR)
GRD.gAPI                                               : Gamma Ray (from FDC/CNL/GR)
ILD.ohmm                                               : Deep Induction Standard Processed Resistivity
NPHI.LPU                                               : Neutron Porosity
RHOB.g/cc                                              : Bulk Density
SFL.ohmm                                               : Spherically Focussed Log
SP.mV                                                  : Spontaneous Potential 
~ASCII Log Data Section
# ...
 2280.6660        10.8338         0.1600        96.3350        85.4574        80.9040         1.5326        36.4041         2.2002         1.8854        50.1765     
 2280.8184        10.6665         0.1695        96.6353        86.9368        81.8701         1.5721        37.6134         2.2043         1.8365        49.7883     
 2280.9708        10.8669         0.1683        97.5221        86.4895        82.9709         1.6079        37.5195         2.2067         1.7850        49.3568     
 2281.1232        11.1930         0.2027        99.4349        86.3754        83.9363         1.6276        38.7370         2.2593         1.7585        49.1965     
 2281.2756        10.7789         0.2345       101.2778        86.2235        82.2334         1.6108        39.5286         2.2794         1.7687        49.4075     
 2281.4280        10.9879         0.1925       100.9044        85.7785        82.7731         1.5954        39.3215         2.2521         1.8118        49.7461     
 2281.5804        11.1100         0.1606        99.4241        84.5916        84.1545         1.5765        37.8713         2.2510         1.8451        50.2277     
 2281.7328        11.1944         0.1509        97.6147        83.3003        85.3851         1.5591        36.9228         2.2721         1.8669        50.2836     
 2281.8852        11.4371         0.1623        96.3191        83.8266        87.9742         1.5683        36.2461         2.2848         1.8493        50.0965     
 2282.0376        11.5162         0.1684        97.4269        84.8430        87.0648         1.5828        36.2398         2.2731         1.7756        49.9901     
 2282.1900        11.4098         0.1476        99.9670        85.9460        86.0724         1.5741        36.1196         2.2431         1.7049        49.6553     
 2282.3424        11.4725         0.1489       103.5694        85.8141        81.7158         1.5589        35.6145         2.2218         1.6725        49.4227     
 2282.4948        11.1565         0.1430       103.1331        84.2966        80.7388         1.5351        35.9504         2.2049         1.6671        49.7975     
 2282.6472        10.7529         0.1590       101.5448        83.3916        81.5601         1.5495        37.1963         2.2000         1.7286        50.3141     
 2282.7996        11.0032         0.1732        99.9196        82.8906        83.5752         1.5794        38.1367         2.1953         1.7931        50.8001     
 2282.9520        11.1345         0.1715        98.2252        82.5457        83.6629         1.6070        37.4040         2.1926         1.8171        50.8548     
 2283.1044        10.8350         0.1634        97.1475        84.2685        84.0692         1.6366        36.1459         2.2138         1.7902        50.6424     
 2283.2568        10.4602         0.1358        96.9300        85.9211        84.1297         1.6669        35.6213         2.2269         1.8048        50.4300     
 2283.4092        10.3770         0.1508        97.2352        89.0903        84.8238         1.6972        35.9259         2.2585         1.8668        50.0784     
 2283.5616        10.5358         0.1332        96.8625        91.8462        85.3297         1.7275        36.8762         2.2524         1.9517        49.4146     
 2283.7140        10.5372         0.1923        96.5206        94.0977        86.7103         1.7578        38.4135         2.3232         2.0678        49.1395     
 2283.8664        10.7897         0.1704        95.9869        95.2288        87.4837         1.7881        38.5271         2.3038         2.1370        49.1977     
 2284.0188        11.1573         0.1279        93.5827        94.1338        87.6813         1.8072        35.0622         2.2821         2.1695        49.4896     
 2284.1712        11.2180         0.0947        93.9242        90.8304        88.8923         1.8211        31.9542         2.2837         2.1444        49.8306     
 2284.3236        11.4171         0.1221        94.7241        89.2790        88.7399         1.8350        30.0926         2.3203         2.0819        50.4029     
 2284.4760        11.1905         0.1452        95.4930        89.9271        85.8971         1.8489        30.7668         2.3231         2.0266        50.7319     
 2284.6284        10.5891         0.1596        96.4341        89.4188        83.2439         1.8496        31.5055         2.3105         1.9989        50.6814     
 2284.7808        10.5726         0.1416        95.8481        87.7618        82.4174         1.8293        31.5829         2.2882         1.9839        50.2326     
 2284.9332        10.7522         0.1240        94.9025        86.0768        83.3633         1.7851        31.2971         2.2728         2.0495        49.6950     
 2285.0856        10.8604         0.1392        94.5449        86.3532        84.6494         1.7002        31.6643         2.2847         2.0630        49.6939     
 2285.2380        10.7693         0.1243        94.3691        87.1085        85.0451         1.6574        32.6839         2.2404         2.0125        50.1306     
 2285.3904        10.7032         0.1553        94.6962        86.3231        85.1725         1.6431        34.7307         2.2222         1.9290        50.4675     
 2285.5428        10.7865         0.1678        95.6580        85.8915        83.4693         1.6189        36.5843         2.2000         1.8066        50.4980     
 2285.6952        11.0158         0.1725        96.8185        86.3751        80.3162         1.5911        38.2769         2.1658         1.7258        50.1816     
 2285.8476        10.9027         0.1666        98.3421        86.6529        78.7742         1.5650        39.1038         2.1547         1.6585        49.9800     
 2286.0000        10.9822         0.1775       100.5106        86.2467        78.4029         1.5455        38.9197         2.1489         1.6670        50.1163     
 2286.1524        11.2417         0.1629       103.0049        85.7122        77.7446         1.5248        39.1607         2.1180         1.6910        50.3291     
 2286.3048        11.3110         0.1497       103.1655        85.9080        77.6763         1.4987        39.7271         2.1087         1.7527        50.8860     
 2286.4572        11.0028         0.1364       101.4032        85.8132        77.5682         1.4670        40.3401         2.1079         1.7828        50.6244     
 2286.6096        10.6313         0.1289        99.7739        85.1554        76.5111         1.4386        41.1647         2.1136         1.7547        50.2649     
 2286.7620        10.7652         0.1553        98.4912        84.1152        76.1304         1.4303        41.8885         2.1055         1.7190        49.8333     
 2286.9144        10.9209         0.1553        98.8387        82.4517        75.6851         1.4821        41.9895         2.0464         1.6642        49.5986     
 2287.0668        11.1323         0.1428       102.5757        80.3204        76.8956         1.5090        40.8514         2.0266         1.5963        49.6253     
 2287.2192        11.4294         0.1434       101.8564        79.1954        78.2441         1.5220        39.6000         2.0297         1.6110        49.6520     
 2287.3716        11.7281         0.1560       102.6202        78.5625        80.2054         1.5238        38.6644         2.0570         1.6643        50.0666     
 2287.5240        11.8503         0.1639        98.5279        79.1523        81.7968         1.5201        39.2431         2.0968         1.7968        50.4360     
 2287.6764        11.4666         0.1583        97.4653        82.2479        84.6159         1.5016        39.9010         2.1219         1.9279        50.5290     
 2287.8288        11.4330         0.1482        97.2708        83.6642        85.4377         1.5471        39.8355         2.1468         1.9400        50.5557     
 2287.9812        11.3321         0.1545        97.2558        83.0532        84.8680         1.5929        39.1318         2.1747         1.8756        50.1760     
