~Version Information Section
VERS.          2.0                                     : CWLS LOG ASCII Standard
WRAP.          NO                                      : One line per depth step
CREA.          03/07/17                                : LAS Creation Date
~Well Information Section
STRT.m         234.5436                                : Start Depth
STOP.m         2401.2144                               : Stop Depth
STEP.m         0.1524                                  : Step
NULL.          -999.2500                               : Null Value
COMP.          B.P. PETROLEUM DEV. LTD.                : Company
WELL.          15/13-3                                 : Well
FLD .          EXPLORATION                             : Field
LOC .          NORTH SEA                               : Location
LOC1.          354,539.492mE 6,495,118.637mN           : Location (UTM)
CTRY.          UK                                      : Country
PROV.          UKCS                                    : Province
UWI .          882                                     : UWI Number
API .          -                                       : API Number
SECT.          -                                       : Section
TOWN.          -                                       : Township
RNGE.          -                                       : Range
PDAT.          MSL                                     : Perm Datum
EPD .m         0.0                                     : Elevation
LMF .          RT                                      : Log Measured From
DMF .          RT                                      : Drill Measured From
APD .m         33.5                                    : Above Perm Datum
EKB .m         33.8                                    : Elev-Kelly Bushing
EDF .m         33.5                                    : Elev-Drill Floor
EGL .m         -138.6                                  : Elev-Ground Level (Water Depth)
TDD .m         2401.0                                  : Total Depth (Driller)
TDL .m         2401.0                                  : Total Depth (Logger)
SRVC.          SCHLUMBERGER                            : Service Company
LATI.          58 34 14.6" N                           : Latitude
LONG.          00 29 51.4" E                           : Longitude
DATE.          03-27-JUN-1976                          : Logging Date
PROJ.          UKCS                                    : Project
SET .          COMP_WIRE                               : Set
~Curve Information Section
DEPTH.m                                                : Depth Curve
CALD.in                                                : Caliper (from FDC/CNL/GR)
DRHO.g/cc                                              : Density Correction
DT.us/ft                                               : Delta-T
GR.gAPI                                                : Gamma Ray (from ISF/BHC/GR)
GRD.gAPI                                               : Gamma Ray (from FDC/CNL/GR)
ILD.ohmm                                               : Deep Induction Standard Processed Resistivity
NPHI.LPU                                               : Neutron Porosity
RHOB.g/cc                                              : Bulk Density
SFL.ohmm                                               : Spherically Focussed Log
SP.mV                                                  : Spontaneous Potential 
~ASCII Log Data Section
# ...
 1526.4384      -999.2500      -999.2500       128.1083        63.1593      -999.2500         0.9818      -999.2500      -999.2500         1.3515        49.4607     
 1526.5908      -999.2500      -999.2500       133.2175        64.0700      -999.2500         0.9816      -999.2500      -999.2500         1.2880        50.4780     
 1526.7432      -999.2500      -999.2500       138.4094        64.3393      -999.2500         0.9813      -999.2500      -999.2500         1.2270        51.1445     
 1526.8956      -999.2500      -999.2500       142.5137        64.0345      -999.2500         0.9726      -999.2500      -999.2500         1.1666        51.3659     
 1527.0480      -999.2500      -999.2500       145.6848        65.3807      -999.2500         0.9861      -999.2500      -999.2500         1.1627        51.5872     
 1527.2004      -999.2500      -999.2500       145.5031        66.9113      -999.2500         0.9997      -999.2500      -999.2500         1.1783        52.0131     
 1527.3528      -999.2500      -999.2500       142.5732        68.2922      -999.2500         1.0065      -999.2500      -999.2500         1.2195        52.6078     
 1527.5052      -999.2500      -999.2500       138.4391        68.7808      -999.2500         1.0133      -999.2500      -999.2500         1.2809        52.6147     
 1527.6576      -999.2500      -999.2500       134.9039        67.6173      -999.2500         1.0208      -999.2500      -999.2500         1.3529        52.0181     
 1527.8100      -999.2500      -999.2500       133.5400        66.4303      -999.2500         1.0294      -999.2500      -999.2500         1.3989        51.8487     
 1527.9624      -999.2500      -999.2500       134.0370        64.3523      -999.2500         1.0382      -999.2500      -999.2500         1.4656        51.9017     
 1528.1148      -999.2500      -999.2500       136.2945        63.1704      -999.2500         1.0476      -999.2500      -999.2500         1.4007        51.9548     
 1528.2672      -999.2500      -999.2500       139.7078        62.0624      -999.2500         1.0538      -999.2500      -999.2500         1.2947        52.0586     
 1528.4196      -999.2500      -999.2500       141.8598        61.9614      -999.2500         1.0518      -999.2500      -999.2500         1.2325        52.3829     
 1528.5720      -999.2500      -999.2500       142.7962        62.1733      -999.2500         1.0416      -999.2500      -999.2500         1.2715        52.7638     
 1528.7244      -999.2500      -999.2500       142.1141        61.5750      -999.2500         1.0272      -999.2500      -999.2500         1.3231        53.1426     
 1528.8768      -999.2500      -999.2500       141.4315        60.2526      -999.2500         1.0181      -999.2500      -999.2500         1.3252        53.3507     
 1529.0292      -999.2500      -999.2500       140.7493        60.0656      -999.2500         1.0187      -999.2500      -999.2500         1.2901        53.1846     
 1529.1816      -999.2500      -999.2500       139.5906        61.2779      -999.2500         1.0253      -999.2500      -999.2500         1.2534        53.3639     
 1529.3340      -999.2500      -999.2500       138.2777        62.7605      -999.2500         1.0298      -999.2500      -999.2500         1.2531        53.2617     
 1529.4864      -999.2500      -999.2500       136.8882        63.6257      -999.2500         1.0290      -999.2500      -999.2500         1.2528        52.8575     
 1529.6388      -999.2500      -999.2500       135.4821        62.3546      -999.2500         1.0087      -999.2500      -999.2500         1.2525        52.4790     
 1529.7912      -999.2500      -999.2500       136.2004        60.6290      -999.2500         0.9970      -999.2500      -999.2500         1.2453        52.1744     
 1529.9436      -999.2500      -999.2500       139.0897        58.0372      -999.2500         0.9889      -999.2500      -999.2500         1.2304        51.1795     
 1530.0960      -999.2500      -999.2500       142.4536        55.4143      -999.2500         0.9851      -999.2500      -999.2500         1.2287        50.5578     
 1530.2484      -999.2500      -999.2500       146.0836        53.1234      -999.2500         0.9805      -999.2500      -999.2500         1.2146        50.7735     
 1530.4008      -999.2500      -999.2500       147.7557        51.9313      -999.2500         0.9713      -999.2500      -999.2500         1.1946        52.4765     
 1530.5532      -999.2500      -999.2500       146.6565        51.7769      -999.2500         0.9589      -999.2500      -999.2500         1.1889        53.3041     
 1530.7056      -999.2500      -999.2500       144.7249        52.6452      -999.2500         0.9474      -999.2500      -999.2500         1.1721        53.3218     
 1530.8580      -999.2500      -999.2500       144.0231        53.6377      -999.2500         0.9424      -999.2500      -999.2500         1.1362        53.3176     
 1531.0104      -999.2500      -999.2500       144.2675        54.3605      -999.2500         0.9409      -999.2500      -999.2500         1.0900        53.3134     
 1531.1628      -999.2500      -999.2500       143.7392        54.7857      -999.2500         0.9441      -999.2500      -999.2500         1.0461        52.7130     
 1531.3152      -999.2500      -999.2500       143.0957        53.4960      -999.2500         0.9474      -999.2500      -999.2500         1.0295        51.4154     
 1531.4676      -999.2500      -999.2500       141.6747        51.5242      -999.2500         0.9474      -999.2500      -999.2500         1.0462        50.2485     
 1531.6200      -999.2500      -999.2500       138.0103        48.1092      -999.2500         0.9468      -999.2500      -999.2500         1.0952        49.3112     
 1531.7724      -999.2500      -999.2500       130.4149        43.9760      -999.2500         0.9433      -999.2500      -999.2500         1.1859        47.7135     
 1531.9248      -999.2500      -999.2500       123.5442        42.1757      -999.2500         0.9398      -999.2500      -999.2500         1.2085        46.1205     
 1532.0772      -999.2500      -999.2500       118.9284        40.5872      -999.2500         0.9378      -999.2500      -999.2500         1.2135        45.1911     
 1532.2296      -999.2500      -999.2500       118.9400        39.3291      -999.2500         0.9376      -999.2500      -999.2500         1.2132        44.6886     
 1532.3820      -999.2500      -999.2500       120.0765        38.4961      -999.2500         0.9283      -999.2500      -999.2500         1.2130        44.1251     
 1532.5344      -999.2500      -999.2500       118.8055        38.0562      -999.2500         0.9157      -999.2500      -999.2500         1.2239        44.0061     
 1532.6868      -999.2500      -999.2500       117.4200        37.5067      -999.2500         0.9013      -999.2500      -999.2500         1.2236        43.2449     
 1532.8392      -999.2500      -999.2500       117.8986        36.4849      -999.2500         0.8878      -999.2500      -999.2500         1.1587        42.8213     
 1532.9916      -999.2500      -999.2500       118.8539        34.8701      -999.2500         0.8771      -999.2500      -999.2500         1.0755        42.4340     
 1533.1440      -999.2500      -999.2500       118.9554        34.3023      -999.2500         0.8741      -999.2500      -999.2500         1.0361        42.0413     
 1533.2964      -999.2500      -999.2500       119.9198        35.4788      -999.2500         0.8710      -999.2500      -999.2500         1.0286        41.7328     
 1533.4488      -999.2500      -999.2500       121.3143        36.8693      -999.2500         0.8693      -999.2500      -999.2500         1.0428        42.1352     
 1533.6012      -999.2500      -999.2500       122.2354        38.6760      -999.2500         0.8656      -999.2500      -999.2500         1.0950        42.9275     
 1533.7536      -999.2500      -999.2500       122.9496        40.4654      -999.2500         0.8547      -999.2500      -999.2500         1.1382        44.2328     
