~Version Information Section
VERS.          2.0                                     : CWLS LOG ASCII Standard
WRAP.          NO                                      : One line per depth step
CREA.          03/07/17                                : LAS Creation Date
~Well Information Section
STRT.m         234.5436                                : Start Depth
STOP.m         2401.2144                               : Stop Depth
STEP.m         0.1524                                  : Step
NULL.          -999.2500                               : Null Value
COMP.          B.P. PETROLEUM DEV. LTD.                : Company
WELL.          15/13-3                                 : Well
FLD .          EXPLORATION                             : Field
LOC .          NORTH SEA                               : Location
LOC1.          354,539.492mE 6,495,118.637mN           : Location (UTM)
CTRY.          UK                                      : Country
PROV.          UKCS                                    : Province
UWI .          882                                     : UWI Number
API .          -                                       : API Number
SECT.          -                                       : Section
TOWN.          -                                       : Township
RNGE.          -                                       : Range
PDAT.          MSL                                     : Perm Datum
EPD .m         0.0                                     : Elevation
LMF .          RT                                      : Log Measured From
DMF .          RT                                      : Drill Measured From
APD .m         33.5                                    : Above Perm Datum
EKB .m         33.8                                    : Elev-Kelly Bushing
EDF .m         33.5                                    : Elev-Drill Floor
EGL .m         -138.6                                  : Elev-Ground Level (Water Depth)
TDD .m         2401.0                                  : Total Depth (Driller)
TDL .m         2401.0                                  : Total Depth (Logger)
SRVC.          SCHLUMBERGER                            : Service Company
LATI.          58 34 14.6" N                           : Latitude
LONG.          00 29 51.4" E                           : Longitude
DATE.          03-27-JUN-1976                          : Logging Date
PROJ.          UKCS                                    : Project
SET .          COMP_WIRE                               : Set
~Curve Information Section
DEPTH.m                                                : Depth Curve
CALD.in                                                : Caliper (from FDC/CNL/GR)
DRHO.g/cc                                              : Density Correction
DT.us/ft                                               : Delta-T
GR.gAPI                                                : Gamma Ray (from ISF/BHC/GR)
GRD.gAPI                                               : Gamma Ray (from FDC/CNL/GR)
ILD.ohmm                                               : Deep Induction Standard Processed Resistivity
NPHI.LPU                                               : Neutron Porosity
RHOB.g/cc                                              : Bulk Density
SFL.ohmm                                               : Spherically Focussed Log
SP.mV                                                  : Spontaneous Potential 
~ASCII Log Data Section
# ...
  981.3036      -999.2500      -999.2500       130.1937        20.5214      -999.2500         0.7067      -999.2500      -999.2500         0.8280        39.6319     
  981.4560      -999.2500      -999.2500       129.9602        22.1575      -999.2500         0.7078      -999.2500      -999.2500         0.8278        39.7245     
  981.6084      -999.2500      -999.2500       129.7431        21.6343      -999.2500         0.7077      -999.2500      -999.2500         0.8277        39.8172     
  981.7608      -999.2500      -999.2500       129.5315        20.9536      -999.2500         0.7076      -999.2500      -999.2500         0.8305        39.7970     
  981.9132      -999.2500      -999.2500       129.5202        20.0530      -999.2500         0.7075      -999.2500      -999.2500         0.8350        39.7316     
  982.0656      -999.2500      -999.2500       130.0179        20.1139      -999.2500         0.7056      -999.2500      -999.2500         0.8329        39.6662     
  982.2180      -999.2500      -999.2500       130.4194        19.7653      -999.2500         0.7006      -999.2500      -999.2500         0.8226        39.5271     
  982.3704      -999.2500      -999.2500       130.6270        18.3326      -999.2500         0.6962      -999.2500      -999.2500         0.8194        39.3257     
  982.5228      -999.2500      -999.2500       130.7499        16.9063      -999.2500         0.6915      -999.2500      -999.2500         0.8175        39.1244     
  982.6752      -999.2500      -999.2500       130.7570        16.3401      -999.2500         0.6870      -999.2500      -999.2500         0.8142        38.5956     
  982.8276      -999.2500      -999.2500       130.6626        16.3443      -999.2500         0.6837      -999.2500      -999.2500         0.8130        37.6019     
  982.9800      -999.2500      -999.2500       130.4978        16.5725      -999.2500         0.6811      -999.2500      -999.2500         0.8200        37.0336     
  983.1324      -999.2500      -999.2500       130.4348        17.3798      -999.2500         0.6810      -999.2500      -999.2500         0.8255        37.0308     
  983.2848      -999.2500      -999.2500       130.6606        18.2166      -999.2500         0.6809      -999.2500      -999.2500         0.8205        37.1365     
  983.4372      -999.2500      -999.2500       130.7925        18.0125      -999.2500         0.6807      -999.2500      -999.2500         0.8184        37.5007     
  983.5896      -999.2500      -999.2500       130.7997        17.9079      -999.2500         0.6806      -999.2500      -999.2500         0.8183        38.5465     
  983.7420      -999.2500      -999.2500       130.9507        17.9029      -999.2500         0.6805      -999.2500      -999.2500         0.8182        39.2163     
  983.8944      -999.2500      -999.2500       131.1985        18.0472      -999.2500         0.6804      -999.2500      -999.2500         0.8180        39.5116     
  984.0468      -999.2500      -999.2500       131.2215        18.1915      -999.2500         0.6823      -999.2500      -999.2500         0.8179        39.6026     
  984.1992      -999.2500      -999.2500       130.9291        18.7139      -999.2500         0.6860      -999.2500      -999.2500         0.8177        39.5999     
  984.3516      -999.2500      -999.2500       130.4346        19.5999      -999.2500         0.6911      -999.2500      -999.2500         0.8216        39.5972     
  984.5040      -999.2500      -999.2500       130.4417        20.4164      -999.2500         0.6950      -999.2500      -999.2500         0.8250        39.5945     
  984.6564      -999.2500      -999.2500       130.4488        19.9301      -999.2500         0.6982      -999.2500      -999.2500         0.8249        39.3885     
  984.8088      -999.2500      -999.2500       130.4558        18.5499      -999.2500         0.7015      -999.2500      -999.2500         0.8247        38.9901     
  984.9612      -999.2500      -999.2500       130.5954        15.9498      -999.2500         0.7047      -999.2500      -999.2500         0.8283        38.8040     
  985.1136      -999.2500      -999.2500       131.0837        16.3039      -999.2500         0.7001      -999.2500      -999.2500         0.8328        38.6179     
  985.2660      -999.2500      -999.2500       131.2784        17.2687      -999.2500         0.6938      -999.2500      -999.2500         0.8486        38.6480     
  985.4184      -999.2500      -999.2500       131.2856        16.7316      -999.2500         0.6919      -999.2500      -999.2500         0.8745        38.7198     
  985.5708      -999.2500      -999.2500       131.1483        16.1683      -999.2500         0.6921      -999.2500      -999.2500         0.8709        38.8076     
  985.7232      -999.2500      -999.2500       130.9703        16.4124      -999.2500         0.6980      -999.2500      -999.2500         0.8700        38.9753     
  985.8756      -999.2500      -999.2500       131.0544        16.7967      -999.2500         0.6979      -999.2500      -999.2500         0.8562        39.1429     
  986.0280      -999.2500      -999.2500       131.3022        17.4231      -999.2500         0.7000      -999.2500      -999.2500         0.8467        39.2518     
  986.1804      -999.2500      -999.2500       131.3211        17.9718      -999.2500         0.7023      -999.2500      -999.2500         0.8558        39.3485     
  986.3328      -999.2500      -999.2500       130.8555        18.2655      -999.2500         0.7058      -999.2500      -999.2500         0.8738        39.1992     
  986.4852      -999.2500      -999.2500       130.1699        18.7087      -999.2500         0.7136      -999.2500      -999.2500         0.8944        38.7931     
  986.6376      -999.2500      -999.2500       129.3747        20.0645      -999.2500         0.7215      -999.2500      -999.2500         0.8915        38.4965     
  986.7900      -999.2500      -999.2500       129.1368        21.4047      -999.2500         0.7293      -999.2500      -999.2500         0.8859        38.3613     
  986.9424      -999.2500      -999.2500       129.0266        24.1763      -999.2500         0.7421      -999.2500      -999.2500         0.8945        38.6174     
  987.0948      -999.2500      -999.2500       129.6357        26.9009      -999.2500         0.7813      -999.2500      -999.2500         0.9034        38.9435     
  987.2472      -999.2500      -999.2500       130.2517        28.9791      -999.2500         0.8221      -999.2500      -999.2500         0.9149        39.3383     
  987.3996      -999.2500      -999.2500       130.9156        30.0194      -999.2500         0.8602      -999.2500      -999.2500         0.9406        39.7819     
  987.5520      -999.2500      -999.2500       131.8309        31.9519      -999.2500         0.8902      -999.2500      -999.2500         0.9633        40.1095     
  987.7044      -999.2500      -999.2500       133.3439        34.0332      -999.2500         0.9121      -999.2500      -999.2500         1.0011        40.2689     
  987.8568      -999.2500      -999.2500       135.1483        35.5170      -999.2500         0.9180      -999.2500      -999.2500         1.0873        39.8246     
  988.0092      -999.2500      -999.2500       136.2525        36.5883      -999.2500         0.9028      -999.2500      -999.2500         1.1962        39.5494     
  988.1616      -999.2500      -999.2500       137.5306        36.6217      -999.2500         0.8861      -999.2500      -999.2500         1.0765        40.9848     
  988.3140      -999.2500      -999.2500       139.1582        35.4240      -999.2500         0.8513      -999.2500      -999.2500         0.9180        39.6480     
  988.4664      -999.2500      -999.2500       142.5932        28.6389      -999.2500         0.8129      -999.2500      -999.2500         0.8298        39.3256     
  988.6188      -999.2500      -999.2500       145.0647        23.8312      -999.2500         0.7740      -999.2500      -999.2500         0.7942        39.4109     
