~Version Information Section
VERS.          2.0                                     : CWLS LOG ASCII Standard
WRAP.          NO                                      : One line per depth step
CREA.          03/07/17                                : LAS Creation Date
~Well Information Section
STRT.m         234.5436                                : Start Depth
STOP.m         2401.2144                               : Stop Depth
STEP.m         0.1524                                  : Step
NULL.          -999.2500                               : Null Value
COMP.          B.P. PETROLEUM DEV. LTD.                : Company
WELL.          15/13-3                                 : Well
FLD .          EXPLORATION                             : Field
LOC .          NORTH SEA                               : Location
LOC1.          354,539.492mE 6,495,118.637mN           : Location (UTM)
CTRY.          UK                                      : Country
PROV.          UKCS                                    : Province
UWI .          882                                     : UWI Number
API .          -                                       : API Number
SECT.          -                                       : Section
TOWN.          -                                       : Township
RNGE.          -                                       : Range
PDAT.          MSL                                     : Perm Datum
EPD .m         0.0                                     : Elevation
LMF .          RT                                      : Log Measured From
DMF .          RT                                      : Drill Measured From
APD .m         33.5                                    : Above Perm Datum
EKB .m         33.8                                    : Elev-Kelly Bushing
EDF .m         33.5                                    : Elev-Drill Floor
EGL .m         -138.6                                  : Elev-Ground Level (Water Depth)
TDD .m         2401.0                                  : Total Depth (Driller)
TDL .m         2401.0                                  : Total Depth (Logger)
SRVC.          SCHLUMBERGER                            : Service Company
LATI.          58 34 14.6" N                           : Latitude
LONG.          00 29 51.4" E                           : Longitude
DATE.          03-27-JUN-1976                          : Logging Date
PROJ.          UKCS                                    : Project
SET .          COMP_WIRE                               : Set
~Curve Information Section
DEPTH.m                                                : Depth Curve
CALD.in                                                : Caliper (from FDC/CNL/GR)
DRHO.g/cc                                              : Density Correction
DT.us/ft                                               : Delta-T
GR.gAPI                                                : Gamma Ray (from ISF/BHC/GR)
GRD.gAPI                                               : Gamma Ray (from FDC/CNL/GR)
ILD.ohmm                                               : Deep Induction Standard Processed Resistivity
NPHI.LPU                                               : Neutron Porosity
RHOB.g/cc                                              : Bulk Density
SFL.ohmm                                               : Spherically Focussed Log
SP.mV                                                  : Spontaneous Potential 
~ASCII Log Data Section
# ...
  764.7432      -999.2500      -999.2500       144.7122        26.4810      -999.2500         1.6890      -999.2500      -999.2500         1.7439        36.5497     
  764.8956      -999.2500      -999.2500       144.3032        29.6856      -999.2500         1.8063      -999.2500      -999.2500         1.7926        36.5512     
  765.0480      -999.2500      -999.2500       143.5670        32.8902      -999.2500         1.8398      -999.2500      -999.2500         1.7787        36.4422     
  765.2004      -999.2500      -999.2500       142.4073        35.5071      -999.2500         1.8683      -999.2500      -999.2500         1.7679        35.5041     
  765.3528      -999.2500      -999.2500       141.5116        37.4986      -999.2500         1.9205      -999.2500      -999.2500         1.7680        35.2001     
  765.5052      -999.2500      -999.2500       140.3391        37.7931      -999.2500         1.8829      -999.2500      -999.2500         1.7681        37.1559     
  765.6576      -999.2500      -999.2500       139.9496        37.8004      -999.2500         1.8301      -999.2500      -999.2500         1.8093        36.3840     
  765.8100      -999.2500      -999.2500       139.5803        37.8637      -999.2500         1.7722      -999.2500      -999.2500         1.8547        36.6379     
  765.9624      -999.2500      -999.2500       139.5741        38.7801      -999.2500         1.7368      -999.2500      -999.2500         1.8797        37.3364     
  766.1148      -999.2500      -999.2500       139.9131        39.0174      -999.2500         1.7203      -999.2500      -999.2500         1.9037        37.9711     
  766.2672      -999.2500      -999.2500       140.2131        39.0247      -999.2500         1.7563      -999.2500      -999.2500         1.9039        38.3650     
  766.4196      -999.2500      -999.2500       140.5095        38.8876      -999.2500         1.7952      -999.2500      -999.2500         1.9040        38.5373     
  766.5720      -999.2500      -999.2500       140.7334        37.6027      -999.2500         1.8017      -999.2500      -999.2500         1.8804        38.7340     
  766.7244      -999.2500      -999.2500       140.7310        36.3178      -999.2500         1.8285      -999.2500      -999.2500         1.8694        38.4219     
  766.8768      -999.2500      -999.2500       140.7285        35.8023      -999.2500         1.8535      -999.2500      -999.2500         1.8236        37.7807     
  767.0292      -999.2500      -999.2500       140.8866        35.4800      -999.2500         1.8621      -999.2500      -999.2500         1.8020        36.9672     
  767.1816      -999.2500      -999.2500       141.2425        36.0095      -999.2500         1.8636      -999.2500      -999.2500         1.8135        36.7867     
  767.3340      -999.2500      -999.2500       141.5539        36.5511      -999.2500         1.8130      -999.2500      -999.2500         1.8302        37.3857     
  767.4864      -999.2500      -999.2500       142.0828        36.9341      -999.2500         1.8023      -999.2500      -999.2500         1.8575        37.9847     
  767.6388      -999.2500      -999.2500       142.3131        36.6007      -999.2500         1.8064      -999.2500      -999.2500         1.8957        38.5837     
  767.7912      -999.2500      -999.2500       142.3107        36.1136      -999.2500         1.8208      -999.2500      -999.2500         1.9263        39.1244     
  767.9436      -999.2500      -999.2500       142.3083        35.8180      -999.2500         1.8352      -999.2500      -999.2500         1.9602        39.5735     
  768.0960      -999.2500      -999.2500       142.1299        36.5711      -999.2500         1.8536      -999.2500      -999.2500         1.9766        39.4886     
  768.2484      -999.2500      -999.2500       141.3314        37.9018      -999.2500         1.8721      -999.2500      -999.2500         1.9767        38.9014     
  768.4008      -999.2500      -999.2500       140.5329        38.2303      -999.2500         1.8879      -999.2500      -999.2500         1.9567        38.1759     
  768.5532      -999.2500      -999.2500       139.2007        38.2376      -999.2500         1.8880      -999.2500      -999.2500         1.9340        37.6242     
  768.7056      -999.2500      -999.2500       138.1247        38.0717      -999.2500         1.8794      -999.2500      -999.2500         1.9001        36.5754     
  768.8580      -999.2500      -999.2500       137.9025        37.3231      -999.2500         1.8589      -999.2500      -999.2500         1.8563        35.6870     
  769.0104      -999.2500      -999.2500       137.9000        36.2166      -999.2500         1.8162      -999.2500      -999.2500         1.8001        35.5959     
  769.1628      -999.2500      -999.2500       137.8976        35.1615      -999.2500         1.7600      -999.2500      -999.2500         1.7570        36.1014     
  769.3152      -999.2500      -999.2500       138.1450        34.3927      -999.2500         1.7004      -999.2500      -999.2500         1.7023        36.7608     
  769.4676      -999.2500      -999.2500       138.8482        34.5977      -999.2500         1.6481      -999.2500      -999.2500         1.6466        37.3979     
  769.6200      -999.2500      -999.2500       139.6429        34.1710      -999.2500         1.6007      -999.2500      -999.2500         1.5908        37.8362     
  769.7724      -999.2500      -999.2500       140.5149        33.2364      -999.2500         1.5517      -999.2500      -999.2500         1.5195        38.0969     
  769.9248      -999.2500      -999.2500       141.7856        32.8736      -999.2500         1.4839      -999.2500      -999.2500         1.4662        38.3964     
  770.0772      -999.2500      -999.2500       143.2561        33.7718      -999.2500         1.4537      -999.2500      -999.2500         1.4313        38.2978     
  770.2296      -999.2500      -999.2500       144.1534        33.5369      -999.2500         1.4273      -999.2500      -999.2500         1.4035        37.4012     
  770.3820      -999.2500      -999.2500       144.5432        33.5120      -999.2500         1.4043      -999.2500      -999.2500         1.3879        36.5064     
  770.5344      -999.2500      -999.2500       144.1361        33.1010      -999.2500         1.3925      -999.2500      -999.2500         1.4169        35.8109     
  770.6868      -999.2500      -999.2500       143.4511        32.6900      -999.2500         1.3815      -999.2500      -999.2500         1.4537        36.2109     
  770.8392      -999.2500      -999.2500       142.7662        31.4409      -999.2500         1.3815      -999.2500      -999.2500         1.4849        36.8120     
  770.9916      -999.2500      -999.2500       142.0526        30.3573      -999.2500         1.3889      -999.2500      -999.2500         1.5147        36.4541     
  771.1440      -999.2500      -999.2500       141.3755        31.6401      -999.2500         1.3945      -999.2500      -999.2500         1.5440        36.6354     
  771.2964      -999.2500      -999.2500       141.0571        33.3285      -999.2500         1.3946      -999.2500      -999.2500         1.5655        37.0111     
  771.4488      -999.2500      -999.2500       141.0547        34.7275      -999.2500         1.3946      -999.2500      -999.2500         1.5547        37.4705     
  771.6012      -999.2500      -999.2500       141.4802        34.5358      -999.2500         1.3947      -999.2500      -999.2500         1.4715        37.6156     
  771.7536      -999.2500      -999.2500       142.3319        33.3109      -999.2500         1.3948      -999.2500      -999.2500         1.4196        37.5525     
  771.9060      -999.2500      -999.2500       143.0434        33.2459      -999.2500         1.3949      -999.2500      -999.2500         1.3958        37.2536     
  772.0584      -999.2500      -999.2500       142.7267        33.0516      -999.2500         1.3950      -999.2500      -999.2500         1.4293        36.7606     
