~Version Information Section
VERS.          2.0                                     : CWLS LOG ASCII Standard
WRAP.          NO                                      : One line per depth step
CREA.          03/07/17                                : LAS Creation Date
~Well Information Section
STRT.m         234.5436                                : Start Depth
STOP.m         2401.2144                               : Stop Depth
STEP.m         0.1524                                  : Step
NULL.          -999.2500                               : Null Value
COMP.          B.P. PETROLEUM DEV. LTD.                : Company
WELL.          15/13-3                                 : Well
FLD .          EXPLORATION                             : Field
LOC .          NORTH SEA                               : Location
LOC1.          354,539.492mE 6,495,118.637mN           : Location (UTM)
CTRY.          UK                                      : Country
PROV.          UKCS                                    : Province
UWI .          882                                     : UWI Number
API .          -                                       : API Number
SECT.          -                                       : Section
TOWN.          -                                       : Township
RNGE.          -                                       : Range
PDAT.          MSL                                     : Perm Datum
EPD .m         0.0                                     : Elevation
LMF .          RT                                      : Log Measured From
DMF .          RT                                      : Drill Measured From
APD .m         33.5                                    : Above Perm Datum
EKB .m         33.8                                    : Elev-Kelly Bushing
EDF .m         33.5                                    : Elev-Drill Floor
EGL .m         -138.6                                  : Elev-Ground Level (Water Depth)
TDD .m         2401.0                                  : Total Depth (Driller)
TDL .m         2401.0                                  : Total Depth (Logger)
SRVC.          SCHLUMBERGER                            : Service Company
LATI.          58 34 14.6" N                           : Latitude
LONG.          00 29 51.4" E                           : Longitude
DATE.          03-27-JUN-1976                          : Logging Date
PROJ.          UKCS                                    : Project
SET .          COMP_WIRE                               : Set
~Curve Information Section
DEPTH.m                                                : Depth Curve
CALD.in                                                : Caliper (from FDC/CNL/GR)
DRHO.g/cc                                              : Density Correction
DT.us/ft                                               : Delta-T
GR.gAPI                                                : Gamma Ray (from ISF/BHC/GR)
GRD.gAPI                                               : Gamma Ray (from FDC/CNL/GR)
ILD.ohmm                                               : Deep Induction Standard Processed Resistivity
NPHI.LPU                                               : Neutron Porosity
RHOB.g/cc                                              : Bulk Density
SFL.ohmm                                               : Spherically Focussed Log
SP.mV                                                  : Spontaneous Potential 
~ASCII Log Data Section
# ...
 2176.1196         8.8990         0.0236        77.7070        93.3978        91.9108         1.8338        19.3553         2.4690         2.9716        40.5657     
 2176.2720         8.7549         0.0224        79.4712        82.0760        77.3888         1.7278        20.5877         2.4477         2.3732        40.4595     
 2176.4244         8.6376         0.0190        81.4948        71.5750        69.9522         1.6219        22.0098         2.4344         2.0161        40.6842     
 2176.5768         8.6080         0.0400        83.3069        61.8732        62.2631         1.5157        22.4985         2.4306         1.9162        41.2042     
 2176.7292         8.5752         0.0409        83.1984        57.0614        55.5986         1.3721        22.6520         2.4182         2.0250        41.6100     
 2176.8816         8.5133         0.0303        81.6610        52.5913        51.1504         1.2205        22.5713         2.4095         2.3090        40.8225     
 2177.0340         8.5077         0.0207        80.1512        49.9881        49.8388         1.1105        22.3069         2.3931         2.2118        39.6674     
 2177.1864         8.5072         0.0211        80.2886        47.8093        48.5324         1.0264        21.9535         2.3808         1.8659        37.9823     
 2177.3388         8.5073         0.0182        81.2999        45.7442        45.7177         0.9509        21.8369         2.3480         1.5062        37.3296     
 2177.4912         8.5094         0.0170        83.5377        43.9355        43.0964         0.8782        22.3391         2.3287         1.2581        37.2606     
 2177.6436         8.5116         0.0179        85.9723        42.9424        42.6045         0.8143        22.6955         2.3229         1.1762        38.6788     
 2177.7960         8.5137         0.0188        87.2823        42.7211        42.3792         0.7527        22.9779         2.3211         1.1312        39.9985     
 2177.9484         8.5159         0.0315        86.7603        42.3079        42.8327         0.7270        23.0850         2.3298         1.1143        40.8527     
 2178.1008         8.5181         0.0442        85.5863        40.8155        41.9483         0.7018        22.5589         2.3488         1.1011        40.9292     
 2178.2532         8.5203         0.0318        84.3006        40.2088        39.7073         0.6925        21.6758         2.3400         1.1281        40.0247     
 2178.4056         8.5224         0.0314        84.1304        40.1459        37.7382         0.6831        21.0364         2.3303         1.2099        38.9121     
 2178.5580         8.5246         0.0356        84.4967        40.5877        38.5870         0.6868        21.1265         2.3341         1.2880        38.1647     
 2178.7104         8.5268         0.0411        85.2648        40.6094        40.1428         0.7019        22.1955         2.3359         1.1913        38.1617     
 2178.8628         8.5290         0.0413        86.1287        40.2496        40.8565         0.7169        23.2582         2.3271         1.0925        39.2498     
 2179.0152         8.5311         0.0535        86.5031        40.7430        40.2511         0.7343        23.4824         2.3337         1.0687        39.6935     
 2179.1676         8.5333         0.0488        86.1285        42.0842        40.6112         0.7553        23.0474         2.3372         1.1234        39.8811     
 2179.3200         8.5355         0.0365        85.3759        44.6754        42.1979         0.7762        22.7906         2.3394         1.2157        39.4390     
 2179.4724         8.5376         0.0539        83.7041        47.2667        43.5219         0.7971        22.2383         2.3604         1.2449        39.1310     
 2179.6248         8.5398         0.0487        82.3651        49.2134        43.6466         0.8203        21.9672         2.3466         1.2572        39.1527     
 2179.7772         8.5420         0.0451        81.0239        49.4544        42.6740         0.8355        21.2406         2.3372         1.3381        39.4642     
 2179.9296         8.5442         0.0367        79.1604        47.9392        40.1283         0.8108        19.8929         2.3093         1.5031        39.2031     
 2180.0820         8.5463         0.0277        75.6940        44.1039        35.5945         0.7657        18.0594         2.2948         1.7272        38.5513     
 2180.2344         8.5485         0.0250        75.2702        39.5981        34.0213         0.7193        18.0036         2.3029         1.5401        37.9649     
 2180.3868         8.5506         0.0278        76.1090        35.0085        32.1766         0.6884        20.3710         2.2824         1.0958        37.5339     
 2180.5392         8.5526         0.0212        78.3119        31.1450        29.2996         0.6678        22.0749         2.2376         0.8714        37.3551     
 2180.6916         8.5547         0.0319        81.6218        28.5584        27.8285         0.6328        22.5254         2.2299         0.8128        37.6740     
 2180.8440         8.5556         0.0319        83.6744        27.5765        26.7137         0.5756        22.7607         2.2283         0.8319        38.1316     
 2180.9964         8.5518         0.0262        84.0016        27.0415        26.1555         0.5175        22.9995         2.2248         0.8968        38.5550     
 2181.1488         8.5475         0.0308        84.0815        25.6313        25.6044         0.5009        22.9360         2.2397         0.8851        38.5743     
 2181.3012         8.5432         0.0344        84.3625        24.3441        24.1184         0.4982        22.9711         2.2415         0.8423        38.2002     
 2181.4536         8.5388         0.0278        84.3426        23.8297        23.8138         0.4987        23.4029         2.2316         0.8210        38.0251     
 2181.6060         8.5376         0.0198        84.2616        24.6809        25.0616         0.4992        23.4638         2.2198         0.8181        38.0501     
 2181.7584         8.5569         0.0214        84.1259        24.9735        25.7025         0.5006        23.8275         2.2196         0.8041        38.2671     
 2181.9108         8.5785         0.0188        84.2557        25.1936        25.5948         0.5049        24.4395         2.2205         0.8050        38.8606     
 2182.0632         8.5993         0.0219        84.2549        25.8242        25.9439         0.5028        24.8940         2.2216         0.8272        39.5011     
 2182.2156         8.6185         0.0249        84.0568        26.2169        26.6901         0.4968        24.7442         2.2246         0.8752        38.9655     
 2182.3680         8.6093         0.0439        83.7720        25.5035        25.1906         0.4949        24.0016         2.2407         0.8985        38.2000     
 2182.5204         8.5398         0.0528        83.4895        23.7083        24.8870         0.4963        23.3672         2.2515         0.8299        37.9791     
 2182.6728         8.5150         0.0472        83.4406        22.4326        24.7739         0.5044        22.9596         2.2499         0.7797        37.8025     
 2182.8252         8.5195         0.0387        83.5722        22.7247        25.4062         0.5063        22.4872         2.2410         0.7531        37.8242     
 2182.9776         8.5239         0.0419        83.9134        23.5588        24.2246         0.5036        22.5190         2.2339         0.7658        37.9276     
 2183.1300         8.5284         0.0449        84.1870        23.9821        23.7594         0.5009        22.8652         2.2299         0.7819        38.2646     
 2183.2824         8.5328         0.0407        83.9656        24.1275        24.6935         0.4977        23.0740         2.2271         0.8150        38.0737     
 2183.4348         8.5371         0.0358        83.4701        24.2351        25.6435         0.4943        23.5959         2.2280         0.8696        37.7818     
