~Version Information Section
VERS.          2.0                                     : CWLS LOG ASCII Standard
WRAP.          NO                                      : One line per depth step
CREA.          03/07/17                                : LAS Creation Date
~Well Information Section
STRT.m         234.5436                                : Start Depth
STOP.m         2401.2144                               : Stop Depth
STEP.m         0.1524                                  : Step
NULL.          -999.2500                               : Null Value
COMP.          B.P. PETROLEUM DEV. LTD.                : Company
WELL.          15/13-3                                 : Well
FLD .          EXPLORATION                             : Field
LOC .          NORTH SEA                               : Location
LOC1.          354,539.492mE 6,495,118.637mN           : Location (UTM)
CTRY.          UK                                      : Country
PROV.          UKCS                                    : Province
UWI .          882                                     : UWI Number
API .          -                                       : API Number
SECT.          -                                       : Section
TOWN.          -                                       : Township
RNGE.          -                                       : Range
PDAT.          MSL                                     : Perm Datum
EPD .m         0.0                                     : Elevation
LMF .          RT                                      : Log Measured From
DMF .          RT                                      : Drill Measured From
APD .m         33.5                                    : Above Perm Datum
EKB .m         33.8                                    : Elev-Kelly Bushing
EDF .m         33.5                                    : Elev-Drill Floor
EGL .m         -138.6                                  : Elev-Ground Level (Water Depth)
TDD .m         2401.0                                  : Total Depth (Driller)
TDL .m         2401.0                                  : Total Depth (Logger)
SRVC.          SCHLUMBERGER                            : Service Company
LATI.          58 34 14.6" N                           : Latitude
LONG.          00 29 51.4" E                           : Longitude
DATE.          03-27-JUN-1976                          : Logging Date
PROJ.          UKCS                                    : Project
SET .          COMP_WIRE                               : Set
~Curve Information Section
DEPTH.m                                                : Depth Curve
CALD.in                                                : Caliper (from FDC/CNL/GR)
DRHO.g/cc                                              : Density Correction
DT.us/ft                                               : Delta-T
GR.gAPI                                                : Gamma Ray (from ISF/BHC/GR)
GRD.gAPI                                               : Gamma Ray (from FDC/CNL/GR)
ILD.ohmm                                               : Deep Induction Standard Processed Resistivity
NPHI.LPU                                               : Neutron Porosity
RHOB.g/cc                                              : Bulk Density
SFL.ohmm                                               : Spherically Focussed Log
SP.mV                                                  : Spontaneous Potential 
~ASCII Log Data Section
# ...
 1959.5592      -999.2500      -999.2500        99.4495        33.4386      -999.2500         0.4153      -999.2500      -999.2500         0.6971        35.6514     
 1959.7116      -999.2500      -999.2500        99.5634        34.5429      -999.2500         0.4112      -999.2500      -999.2500         0.6800        35.7714     
 1959.8640      -999.2500      -999.2500       100.0453        34.7293      -999.2500         0.4091      -999.2500      -999.2500         0.6566        35.8895     
 1960.0164      -999.2500      -999.2500       100.5534        33.4248      -999.2500         0.4081      -999.2500      -999.2500         0.6317        35.8787     
 1960.1688      -999.2500      -999.2500       100.5600        31.9080      -999.2500         0.4071      -999.2500      -999.2500         0.6121        35.6970     
 1960.3212      -999.2500      -999.2500       100.0275        31.6002      -999.2500         0.4060      -999.2500      -999.2500         0.6085        35.5944     
 1960.4736      -999.2500      -999.2500        99.7722        32.2571      -999.2500         0.4077      -999.2500      -999.2500         0.6196        35.5943     
 1960.6260      -999.2500      -999.2500        99.6604        32.7299      -999.2500         0.4094      -999.2500      -999.2500         0.6296        35.4777     
 1960.7784      -999.2500      -999.2500        99.3483        32.7446      -999.2500         0.4166      -999.2500      -999.2500         0.6369        35.1985     
 1960.9308      -999.2500      -999.2500        98.7543        32.4615      -999.2500         0.4267      -999.2500      -999.2500         0.6546        34.9956     
 1961.0832      -999.2500      -999.2500        98.3786        32.4467      -999.2500         0.4383      -999.2500      -999.2500         0.6678        34.9956     
 1961.2356      -999.2500      -999.2500        98.0141        32.2787      -999.2500         0.4503      -999.2500      -999.2500         0.6731        35.1194     
 1961.3880      -999.2500      -999.2500        97.5400        31.3852      -999.2500         0.4671      -999.2500      -999.2500         0.6669        35.4332     
 1961.5404      -999.2500      -999.2500        97.4158        31.2400      -999.2500         0.4746      -999.2500      -999.2500         0.6893        35.9930     
 1961.6928      -999.2500      -999.2500        97.3172        31.5305      -999.2500         0.4777      -999.2500      -999.2500         0.7420        36.6507     
 1961.8452      -999.2500      -999.2500        97.0570        32.3478      -999.2500         0.4712      -999.2500      -999.2500         0.7893        37.1108     
 1961.9976      -999.2500      -999.2500        97.6211        33.4827      -999.2500         0.4652      -999.2500      -999.2500         0.7740        36.9868     
 1962.1500      -999.2500      -999.2500        98.3309        35.1202      -999.2500         0.4630      -999.2500      -999.2500         0.7124        36.7078     
 1962.3024      -999.2500      -999.2500        99.5423        36.7026      -999.2500         0.4643      -999.2500      -999.2500         0.6794        36.5139     
 1962.4548      -999.2500      -999.2500        99.8945        37.3346      -999.2500         0.4634      -999.2500      -999.2500         0.6524        36.4179     
 1962.6072      -999.2500      -999.2500       100.0612        37.5377      -999.2500         0.4659      -999.2500      -999.2500         0.6561        36.5676     
 1962.7596      -999.2500      -999.2500       100.2281        37.5382      -999.2500         0.4659      -999.2500      -999.2500         0.6606        36.8812     
 1962.9120      -999.2500      -999.2500       100.0835        37.4383      -999.2500         0.4672      -999.2500      -999.2500         0.6792        37.2236     
 1963.0644      -999.2500      -999.2500        99.8843        36.9997      -999.2500         0.4702      -999.2500      -999.2500         0.7243        37.3873     
 1963.2168      -999.2500      -999.2500        99.9403        36.0407      -999.2500         0.4702      -999.2500      -999.2500         0.7444        37.3723     
 1963.3692      -999.2500      -999.2500       100.7197        35.2604      -999.2500         0.4715      -999.2500      -999.2500         0.7307        36.7728     
 1963.5216      -999.2500      -999.2500       101.0694        33.6492      -999.2500         0.4788      -999.2500      -999.2500         0.7076        36.0658     
 1963.6740      -999.2500      -999.2500       101.4194        33.1265      -999.2500         0.4681      -999.2500      -999.2500         0.6852        35.4206     
 1963.8264      -999.2500      -999.2500       101.4213        32.9020      -999.2500         0.4518      -999.2500      -999.2500         0.6790        34.7810     
 1963.9788      -999.2500      -999.2500       101.2944        32.7532      -999.2500         0.4396      -999.2500      -999.2500         0.6821        34.3017     
 1964.1312      -999.2500      -999.2500       101.1676        32.4595      -999.2500         0.4316      -999.2500      -999.2500         0.6916        34.0464     
 1964.2836      -999.2500      -999.2500       100.9046        32.3033      -999.2500         0.4242      -999.2500      -999.2500         0.6955        34.1795     
 1964.4360      -999.2500      -999.2500       100.5907        32.3669      -999.2500         0.4228      -999.2500      -999.2500         0.6898        34.7181     
 1964.5884      -999.2500      -999.2500       100.1672        32.9555      -999.2500         0.4282      -999.2500      -999.2500         0.6775        35.3174     
 1964.7408      -999.2500      -999.2500        99.4188        33.2516      -999.2500         0.4342      -999.2500      -999.2500         0.6656        35.9171     
 1964.8932      -999.2500      -999.2500        98.4880        33.0605      -999.2500         0.4433      -999.2500      -999.2500         0.6558        36.4739     
 1965.0456      -999.2500      -999.2500        99.2694        33.3870      -999.2500         0.4507      -999.2500      -999.2500         0.6594        36.8735     
 1965.1980      -999.2500      -999.2500       100.5175        34.6154      -999.2500         0.4490      -999.2500      -999.2500         0.6759        36.7528     
 1965.3504      -999.2500      -999.2500       101.6229        36.4171      -999.2500         0.4448      -999.2500      -999.2500         0.7152        36.4259     
 1965.5028      -999.2500      -999.2500       101.8852        37.5463      -999.2500         0.4437      -999.2500      -999.2500         0.7169        35.8582     
 1965.6552      -999.2500      -999.2500       101.6249        37.5468      -999.2500         0.4367      -999.2500      -999.2500         0.6908        35.4016     
 1965.8076      -999.2500      -999.2500       100.4862        36.6507      -999.2500         0.4347      -999.2500      -999.2500         0.6621        35.3487     
 1965.9600      -999.2500      -999.2500       100.0095        36.6511      -999.2500         0.4210      -999.2500      -999.2500         0.6488        35.6698     
 1966.1124      -999.2500      -999.2500       100.0161        36.6516      -999.2500         0.4079      -999.2500      -999.2500         0.6439        35.6330     
 1966.2648      -999.2500      -999.2500       100.4229        36.6521      -999.2500         0.4057      -999.2500      -999.2500         0.6513        35.3446     
 1966.4172      -999.2500      -999.2500       100.4295        36.5140      -999.2500         0.4057      -999.2500      -999.2500         0.6542        35.2246     
 1966.5696      -999.2500      -999.2500       100.1188        35.5022      -999.2500         0.4015      -999.2500      -999.2500         0.6591        35.0331     
 1966.7220      -999.2500      -999.2500        99.4835        33.8638      -999.2500         0.3988      -999.2500      -999.2500         0.6728        34.8152     
 1966.8744      -999.2500      -999.2500        99.2485        32.0048      -999.2500         0.4025      -999.2500      -999.2500         0.6889        34.4339     
