~Version Information Section
VERS.          2.0                                     : CWLS LOG ASCII Standard
WRAP.          NO                                      : One line per depth step
CREA.          03/07/17                                : LAS Creation Date
~Well Information Section
STRT.m         234.5436                                : Start Depth
STOP.m         2401.2144                               : Stop Depth
STEP.m         0.1524                                  : Step
NULL.          -999.2500                               : Null Value
COMP.          B.P. PETROLEUM DEV. LTD.                : Company
WELL.          15/13-3                                 : Well
FLD .          EXPLORATION                             : Field
LOC .          NORTH SEA                               : Location
LOC1.          354,539.492mE 6,495,118.637mN           : Location (UTM)
CTRY.          UK                                      : Country
PROV.          UKCS                                    : Province
UWI .          882                                     : UWI Number
API .          -                                       : API Number
SECT.          -                                       : Section
TOWN.          -                                       : Township
RNGE.          -                                       : Range
PDAT.          MSL                                     : Perm Datum
EPD .m         0.0                                     : Elevation
LMF .          RT                                      : Log Measured From
DMF .          RT                                      : Drill Measured From
APD .m         33.5                                    : Above Perm Datum
EKB .m         33.8                                    : Elev-Kelly Bushing
EDF .m         33.5                                    : Elev-Drill Floor
EGL .m         -138.6                                  : Elev-Ground Level (Water Depth)
TDD .m         2401.0                                  : Total Depth (Driller)
TDL .m         2401.0                                  : Total Depth (Logger)
SRVC.          SCHLUMBERGER                            : Service Company
LATI.          58 34 14.6" N                           : Latitude
LONG.          00 29 51.4" E                           : Longitude
DATE.          03-27-JUN-1976                          : Logging Date
PROJ.          UKCS                                    : Project
SET .          COMP_WIRE                               : Set
~Curve Information Section
DEPTH.m                                                : Depth Curve
CALD.in                                                : Caliper (from FDC/CNL/GR)
DRHO.g/cc                                              : Density Correction
DT.us/ft                                               : Delta-T
GR.gAPI                                                : Gamma Ray (from ISF/BHC/GR)
GRD.gAPI                                               : Gamma Ray (from FDC/CNL/GR)
ILD.ohmm                                               : Deep Induction Standard Processed Resistivity
NPHI.LPU                                               : Neutron Porosity
RHOB.g/cc                                              : Bulk Density
SFL.ohmm                                               : Spherically Focussed Log
SP.mV                                                  : Spontaneous Potential 
~ASCII Log Data Section
# ...
 1197.8640      -999.2500      -999.2500       127.5124        61.4008      -999.2500         1.0992      -999.2500      -999.2500         1.3429        42.4002     
 1198.0164      -999.2500      -999.2500       127.5187        58.5059      -999.2500         1.1103      -999.2500      -999.2500         1.3428        42.1747     
 1198.1688      -999.2500      -999.2500       127.5249        57.1019      -999.2500         1.1172      -999.2500      -999.2500         1.3026        41.4357     
 1198.3212      -999.2500      -999.2500       127.5312        57.6683      -999.2500         1.1160      -999.2500      -999.2500         1.2566        40.9195     
 1198.4736      -999.2500      -999.2500       127.8692        59.6270      -999.2500         1.0854      -999.2500      -999.2500         1.2172        40.5945     
 1198.6260      -999.2500      -999.2500       128.2188        60.3679      -999.2500         1.0419      -999.2500      -999.2500         1.1910        40.2937     
 1198.7784      -999.2500      -999.2500       128.3500        60.6779      -999.2500         0.9629      -999.2500      -999.2500         1.1909        39.9060     
 1198.9308      -999.2500      -999.2500       128.6651        60.3592      -999.2500         0.9199      -999.2500      -999.2500         1.2018        39.5056     
 1199.0832      -999.2500      -999.2500       129.6841        59.5730      -999.2500         0.8769      -999.2500      -999.2500         1.1769        39.0353     
 1199.2356      -999.2500      -999.2500       130.7021        57.1222      -999.2500         0.8341      -999.2500      -999.2500         1.0884        38.5552     
 1199.3880      -999.2500      -999.2500       131.5751        53.2167      -999.2500         0.7999      -999.2500      -999.2500         0.9631        38.1978     
 1199.5404      -999.2500      -999.2500       131.3936        49.4871      -999.2500         0.7761      -999.2500      -999.2500         0.8316        38.0465     
 1199.6928      -999.2500      -999.2500       130.7429        46.6787      -999.2500         0.7347      -999.2500      -999.2500         0.8559        37.8951     
 1199.8452      -999.2500      -999.2500       130.5868        45.7195      -999.2500         0.7023      -999.2500      -999.2500         0.8872        37.6800     
 1199.9976      -999.2500      -999.2500       130.7999        45.3303      -999.2500         0.6818      -999.2500      -999.2500         1.0151        37.4393     
 1200.1500      -999.2500      -999.2500       132.1033        44.8833      -999.2500         0.6644      -999.2500      -999.2500         0.9675        37.2522     
 1200.3024      -999.2500      -999.2500       132.4404        44.5255      -999.2500         0.6553      -999.2500      -999.2500         0.9221        37.2614     
 1200.4548      -999.2500      -999.2500       132.7778        44.5089      -999.2500         0.6495      -999.2500      -999.2500         0.8831        37.4476     
 1200.6072      -999.2500      -999.2500       132.6235        43.7456      -999.2500         0.6582      -999.2500      -999.2500         0.8485        37.2786     
 1200.7596      -999.2500      -999.2500       132.4587        43.6346      -999.2500         0.6713      -999.2500      -999.2500         0.8230        37.4046     
 1200.9120      -999.2500      -999.2500       132.3697        44.2987      -999.2500         0.6844      -999.2500      -999.2500         0.8091        37.6233     
 1201.0644      -999.2500      -999.2500       132.7426        44.4113      -999.2500         0.7016      -999.2500      -999.2500         0.8049        37.8288     
 1201.2168      -999.2500      -999.2500       133.2726        44.4650      -999.2500         0.7160      -999.2500      -999.2500         0.8240        38.0532     
 1201.3692      -999.2500      -999.2500       133.5074        45.0219      -999.2500         0.7145      -999.2500      -999.2500         0.8867        37.8535     
 1201.5216      -999.2500      -999.2500       133.1227        45.9358      -999.2500         0.7085      -999.2500      -999.2500         0.9918        37.5302     
 1201.6740      -999.2500      -999.2500       132.6647        46.2353      -999.2500         0.6944      -999.2500      -999.2500         1.0361        37.2114     
 1201.8264      -999.2500      -999.2500       132.3935        45.7432      -999.2500         0.6790      -999.2500      -999.2500         1.0016        36.9151     
 1201.9788      -999.2500      -999.2500       132.3342        45.0193      -999.2500         0.6677      -999.2500      -999.2500         0.9098        37.0111     
 1202.1312      -999.2500      -999.2500       132.3292        44.2396      -999.2500         0.6530      -999.2500      -999.2500         0.7814        37.1485     
 1202.2836      -999.2500      -999.2500       132.5956        43.4606      -999.2500         0.6128      -999.2500      -999.2500         0.6998        37.2688     
 1202.4360      -999.2500      -999.2500       132.7192        42.6990      -999.2500         0.5763      -999.2500      -999.2500         0.7385        37.0545     
 1202.5884      -999.2500      -999.2500       132.3322        41.9574      -999.2500         0.5532      -999.2500      -999.2500         0.7979        36.8732     
 1202.7408      -999.2500      -999.2500       131.9820        41.5666      -999.2500         0.5504      -999.2500      -999.2500         0.7938        36.8260     
 1202.8932      -999.2500      -999.2500       131.6682        41.5684      -999.2500         0.5566      -999.2500      -999.2500         0.7168        36.7280     
 1203.0456      -999.2500      -999.2500       131.1895        42.8073      -999.2500         0.5864      -999.2500      -999.2500         0.6677        36.6777     
 1203.1980      -999.2500      -999.2500       130.4395        44.7953      -999.2500         0.6162      -999.2500      -999.2500         0.6898        36.6789     
 1203.3504      -999.2500      -999.2500       129.5354        47.9281      -999.2500         0.6442      -999.2500      -999.2500         0.8448        36.6801     
 1203.5028      -999.2500      -999.2500       129.1581        51.3738      -999.2500         0.6719      -999.2500      -999.2500         1.0019        36.9374     
 1203.6552      -999.2500      -999.2500       129.0766        52.4513      -999.2500         0.6997      -999.2500      -999.2500         1.0677        37.2566     
 1203.8076      -999.2500      -999.2500       129.8246        52.6351      -999.2500         0.7362      -999.2500      -999.2500         1.0074        37.5517     
 1203.9600      -999.2500      -999.2500       130.2428        52.4325      -999.2500         0.7691      -999.2500      -999.2500         0.9337        37.8188     
 1204.1124      -999.2500      -999.2500       129.9970        51.2306      -999.2500         0.7834      -999.2500      -999.2500         0.9134        38.0999     
 1204.2648      -999.2500      -999.2500       129.7100        49.5444      -999.2500         0.7848      -999.2500      -999.2500         0.9147        38.3760     
 1204.4172      -999.2500      -999.2500       129.4109        48.7923      -999.2500         0.7778      -999.2500      -999.2500         0.9240        38.5872     
 1204.5696      -999.2500      -999.2500       129.0674        46.5237      -999.2500         0.7667      -999.2500      -999.2500         0.9284        38.5744     
 1204.7220      -999.2500      -999.2500       129.2803        44.8133      -999.2500         0.7553      -999.2500      -999.2500         0.9221        38.0263     
 1204.8744      -999.2500      -999.2500       129.3363        43.6419      -999.2500         0.7476      -999.2500      -999.2500         0.9136        37.3797     
 1205.0268      -999.2500      -999.2500       128.9523        44.1484      -999.2500         0.7231      -999.2500      -999.2500         0.9182        37.0918     
 1205.1792      -999.2500      -999.2500       128.5687        45.7635      -999.2500         0.6944      -999.2500      -999.2500         0.9526        37.0931     
