~Version Information Section
VERS.          2.0                                     : CWLS LOG ASCII Standard
WRAP.          NO                                      : One line per depth step
CREA.          03/07/17                                : LAS Creation Date
~Well Information Section
STRT.m         234.5436                                : Start Depth
STOP.m         2401.2144                               : Stop Depth
STEP.m         0.1524                                  : Step
NULL.          -999.2500                               : Null Value
COMP.          B.P. PETROLEUM DEV. LTD.                : Company
WELL.          15/13-3                                 : Well
FLD .          EXPLORATION                             : Field
LOC .          NORTH SEA                               : Location
LOC1.          354,539.492mE 6,495,118.637mN           : Location (UTM)
CTRY.          UK                                      : Country
PROV.          UKCS                                    : Province
UWI .          882                                     : UWI Number
API .          -                                       : API Number
SECT.          -                                       : Section
TOWN.          -                                       : Township
RNGE.          -                                       : Range
PDAT.          MSL                                     : Perm Datum
EPD .m         0.0                                     : Elevation
LMF .          RT                                      : Log Measured From
DMF .          RT                                      : Drill Measured From
APD .m         33.5                                    : Above Perm Datum
EKB .m         33.8                                    : Elev-Kelly Bushing
EDF .m         33.5                                    : Elev-Drill Floor
EGL .m         -138.6                                  : Elev-Ground Level (Water Depth)
TDD .m         2401.0                                  : Total Depth (Driller)
TDL .m         2401.0                                  : Total Depth (Logger)
SRVC.          SCHLUMBERGER                            : Service Company
LATI.          58 34 14.6" N                           : Latitude
LONG.          00 29 51.4" E                           : Longitude
DATE.          03-27-JUN-1976                          : Logging Date
PROJ.          UKCS                                    : Project
SET .          COMP_WIRE                               : Set
~Curve Information Section
DEPTH.m                                                : Depth Curve
CALD.in                                                : Caliper (from FDC/CNL/GR)
DRHO.g/cc                                              : Density Correction
DT.us/ft                                               : Delta-T
GR.gAPI                                                : Gamma Ray (from ISF/BHC/GR)
GRD.gAPI                                               : Gamma Ray (from FDC/CNL/GR)
ILD.ohmm                                               : Deep Induction Standard Processed Resistivity
NPHI.LPU                                               : Neutron Porosity
RHOB.g/cc                                              : Bulk Density
SFL.ohmm                                               : Spherically Focussed Log
SP.mV                                                  : Spontaneous Potential 
~ASCII Log Data Section
# ...
 2064.1056      -999.2500      -999.2500       111.7743        38.3280      -999.2500         0.3645      -999.2500      -999.2500         0.5953        37.6361     
 2064.2580      -999.2500      -999.2500       111.3185        37.9296      -999.2500         0.3582      -999.2500      -999.2500         0.5672        37.3903     
 2064.4104      -999.2500      -999.2500       110.4906        36.1486      -999.2500         0.3525      -999.2500      -999.2500         0.5554        36.9715     
 2064.5628      -999.2500      -999.2500       109.3473        34.8752      -999.2500         0.3461      -999.2500      -999.2500         0.5487        36.6035     
 2064.7152      -999.2500      -999.2500       109.0448        34.1591      -999.2500         0.3431      -999.2500      -999.2500         0.5488        36.3284     
 2064.8676      -999.2500      -999.2500       108.7863        34.4623      -999.2500         0.3416      -999.2500      -999.2500         0.5438        36.2276     
 2065.0200      -999.2500      -999.2500       108.4810        34.4665      -999.2500         0.3368      -999.2500      -999.2500         0.5480        36.6708     
 2065.1724      -999.2500      -999.2500       107.2745        35.3674      -999.2500         0.3403      -999.2500      -999.2500         0.5567        36.8300     
 2065.3248      -999.2500      -999.2500       105.9807        34.4037      -999.2500         0.3431      -999.2500      -999.2500         0.5506        36.8323     
 2065.4772      -999.2500      -999.2500       104.6848        33.2835      -999.2500         0.3471      -999.2500      -999.2500         0.5489        36.8346     
 2065.6296      -999.2500      -999.2500       103.5937        32.3912      -999.2500         0.3510      -999.2500      -999.2500         0.5545        36.6377     
 2065.7820      -999.2500      -999.2500       102.7892        32.0966      -999.2500         0.3563      -999.2500      -999.2500         0.5672        36.5850     
 2065.9344      -999.2500      -999.2500       101.9310        31.9343        19.9936         0.3620      -999.2500      -999.2500         0.5740        36.2080     
 2066.0868      -999.2500      -999.2500       100.3749        30.7374        20.4899         0.3770      -999.2500      -999.2500         0.5868        35.7579     
 2066.2392      -999.2500      -999.2500        98.8213        29.9774        20.2961         0.3968      -999.2500      -999.2500         0.6026        35.4516     
 2066.3916      -999.2500      -999.2500        97.4653        29.7232        19.6014         0.4142      -999.2500      -999.2500         0.6141        35.3878     
 2066.5440      -999.2500      -999.2500        96.2640        30.7906        19.9987         0.4324      -999.2500      -999.2500         0.6184        35.2920     
 2066.6964      -999.2500      -999.2500        95.0615        31.5021        20.0000         0.4538      -999.2500      -999.2500         0.6190        35.4536     
 2066.8488      -999.2500      -999.2500        94.5101        31.3587        19.5487         0.4679      -999.2500      -999.2500         0.6230        35.6151     
 2067.0012      -999.2500      -999.2500        94.1648        30.6546        19.4085         0.4818      -999.2500      -999.2500         0.6345        35.8337     
 2067.1536      -999.2500      -999.2500        93.8199        31.1125        18.9005         0.4967      -999.2500      -999.2500         0.6427        36.0144     
 2067.3060      -999.2500      -999.2500        93.7231        32.4613        18.6189         0.5054      -999.2500      -999.2500         0.6561        36.3496     
 2067.4584      -999.2500      -999.2500        94.0267        33.3388        18.8559         0.4993      -999.2500      -999.2500         0.6653        36.6083     
 2067.6108      -999.2500      -999.2500        94.4667        33.3431        20.1812         0.4940      -999.2500      -999.2500         0.6791        36.4552     
 2067.7632      -999.2500      -999.2500        94.9632        32.7499        20.2609         0.4808      -999.2500      -999.2500         0.6838        36.2717     
 2067.9156      -999.2500      -999.2500        95.7608        32.3017        20.4064         0.4510      -999.2500      -999.2500         0.6853        36.4148     
 2068.0680      -999.2500      -999.2500        96.4474        32.1610        21.3958         0.4301      -999.2500      -999.2500         0.6720        36.5962     
 2068.2204      -999.2500      -999.2500        97.9515        32.1653        21.0017         0.4086      -999.2500      -999.2500         0.6300        36.7690     
 2068.3728      -999.2500      -999.2500        99.0168        33.0656        20.4102         0.3989      -999.2500      -999.2500         0.6012        36.7897     
 2068.5252      -999.2500      -999.2500        99.7411        33.6672        20.2134         0.4032      -999.2500      -999.2500         0.5931        36.5901     
 2068.6776      -999.2500      -999.2500       100.2919        34.2688        20.0167         0.4134      -999.2500      -999.2500         0.5823        36.6104     
 2068.8300      -999.2500      -999.2500       100.0237        34.2730        20.7705         0.4393      -999.2500      -999.2500         0.6020        37.0288     
 2068.9824      -999.2500      -999.2500        97.6752        34.8745        21.5011         0.4717      -999.2500      -999.2500         0.7613        38.0119     
 2069.1348      -999.2500      -999.2500        89.8962        35.4673        22.4965         0.5041      -999.2500      -999.2500         1.0229        39.3597     
 2069.2872      -999.2500      -999.2500        83.3852        36.0687        22.2997         0.5456      -999.2500      -999.2500         1.2388        40.6287     
 2069.4396      -999.2500      -999.2500        79.6890        38.7632        22.6819         0.6036      -999.2500      -999.2500         1.2445        41.8998     
 2069.5920      -999.2500      -999.2500        81.4087        41.1763        24.9736         0.6832      -999.2500      -999.2500         1.1011        42.8354     
 2069.7444      -999.2500      -999.2500        88.3842        45.3574        25.9017         0.7815      -999.2500      -999.2500         0.9589        43.6338     
 2069.8968      -999.2500      -999.2500        95.7106        49.9960        28.5515         0.8393      -999.2500      -999.2500         0.8958        44.2306     
 2070.0492      -999.2500      -999.2500       101.3530        51.4999        30.1394         0.8819      -999.2500      -999.2500         0.9133        45.2317     
 2070.2016      -999.2500      -999.2500       103.7162        52.2241        31.1537         0.8998      -999.2500      -999.2500         0.9481        45.9633     
 2070.3540      -999.2500      -999.2500       102.7193        51.9090        31.8379         0.9025      -999.2500      -999.2500         1.0210        46.2625     
 2070.5064      -999.2500      -999.2500       100.1813        50.1073        30.6287         0.9043      -999.2500      -999.2500         1.1126        46.0283     
 2070.6588      -999.2500      -999.2500        97.8565        45.6730        28.8879         0.8804      -999.2500      -999.2500         1.1890        45.0267     
 2070.8112      -999.2500      -999.2500        96.8670        41.8502        26.9937         0.8410      -999.2500      -999.2500         1.2477        43.8403     
 2070.9636      -999.2500      -999.2500        98.2122        38.0532        25.0586         0.8011      -999.2500      -999.2500         1.2020        42.7925     
 2071.1160      -999.2500      -999.2500       100.6137        36.4372        24.3988         0.7399      -999.2500      -999.2500         1.0787        41.9963     
 2071.2684      -999.2500      -999.2500       102.9754        35.2898        24.6758         0.6786      -999.2500      -999.2500         0.8379        40.6572     
 2071.4208      -999.2500      -999.2500       104.6342        34.0461        23.3821         0.6162      -999.2500      -999.2500         0.7055        38.9049     
