~Version Information Section
VERS.          2.0                                     : CWLS LOG ASCII Standard
WRAP.          NO                                      : One line per depth step
CREA.          03/10/17                                : LAS Creation Date
~Well Information Section
STRT.ft        1488.5000                               : Start Depth
STOP.ft        9399.5000                               : Stop Depth
STEP.ft        0.5000                                  : Step
NULL.          -999.2500                               : Null Value
COMP.          OCCIDENTAL PETROLEUM CORPORATION (U.K)  : Company
WELL.          15/17-4                                 : Well
FLD .          WILDCAT                                 : Field
LOC .          NORTH SEA                               : Location
LOC1.          -                                       : Location (UTM)
CTRY.          UK                                      : Country
PROV.          UKCS                                    : Province
UWI .          899                                     : UWI Number
API .          -                                       : API Number
SECT.          -                                       : Section
TOWN.          -                                       : Township
RNGE.          -                                       : Range
PDAT.          MSL                                     : Perm Datum
EPD .ft        0.0                                     : Elevation
LMF .          RKB                                     : Log Measured From
DMF .          RKB                                     : Drill Measured From
APD .ft        78.0                                    : Above Perm Datum
EKB .ft        78.0                                    : Elev-Kelly Bushing
EDF .ft        77.0                                    : Elev-Drill Floor
EGL .ft        -476.0                                  : Elev-Ground Level (Water Depth)
TDD .ft        9423.0                                  : Total Depth (Driller)
TDL .ft        9407.0                                  : Total Depth (Logger)
SRVC.          SCHLUMBERGER                            : Service Company
LATI.          58 29 04.0" N                           : Latitude
LONG.          00 17 21.0" E                           : Longitude
DATE.          08-JUL-1973 - 09-AUG-1973               : Logging Date
PROJ.          UKCS                                    : Project
SET .          COMP_WIRE                               : Set
~Curve Information Section
DEPTH.ft                                               : Depth Curve
CALD.in                                                : Caliper (from FDC/CNL/GR)
MCAL.in                                                : Caliper (from MLL/ML)
DPHI.                                                  : Density Porosity
DT.us/ft                                               : Delta-T
GR.gAPI                                                : Gamma Ray (from ISF/BHC/GR)
GRD.gAPI                                               : Gamma Ray (from FDC/CNL/GR)
GRL.gAPI                                               : Gamma Ray (from DLL/GR)
ILD.Ohmm                                               : Deep Induction Standard Processed Resistivity
LLD.Ohmm                                               : Latero-Log Deep (Resistivity)
LLS.Ohmm                                               : Latero-Log Shallow (Resistivity)
MINV.Ohmm                                              : Micro-Inverse Resistivity
MLL.Ohmm                                               : Mll Resistivity
MNOR.Ohmm                                              : Micro-Normal Resistivity
NPHI.pu                                                : Neutron Porosity
SFL.Ohmm                                               : Spherically Focussed log Resistivity
SP.mV                                                  : Spontaneous Potential (from ISF/BHC/GR)
~ASCII Log Data Section
# ...
 8800.5000        13.0087        12.9168        26.1714       112.0262        41.2603        50.1021        41.2603         1.8036         1.5861         1.6195         0.3422         0.9045         0.4483        49.2771         1.4103        51.2423     
 8801.0000        12.7429        13.1293        21.3554       108.3844        41.5660        49.6808        41.5660         1.8671         1.6547         1.6734         0.4909         1.6016         0.5154        47.7330         1.6851        51.5310     
 8801.5000        12.5390        13.3389        20.1802       107.8821        42.7110        49.2456        42.7110         1.9410         1.8167         1.8514         0.6202         1.2131         0.5838        47.2346         2.0198        51.8549     
 8802.0000        12.5631        13.4201        22.9564       111.3608        44.7932        49.3923        44.7932         1.9538         1.9841         2.0359         1.3304         0.9835         0.6790        47.0111         2.0651        52.1781     
 8802.5000        12.6577        13.3375        29.3595       114.3793        47.7422        51.2793        47.7422         1.9405         2.1451         2.2190         0.7799         1.5087         0.5981        47.5773         1.9242        52.4141     
 8803.0000        12.8125        12.9657        30.5725       115.7264        50.6907        54.1056        50.6907         1.9425         2.2443         2.3248         0.6764         3.2514         0.5015        47.7315         2.0001        52.5233     
 8803.5000        12.8640        12.4699        26.8672       114.2811        52.9109        58.2874        52.9109         1.9226         2.1762         2.2748         0.3587         2.8630         0.4345        47.2835         2.0323        52.6142     
 8804.0000        12.8378        11.9721        23.2185       109.9287        53.1914        58.8298        53.1914         1.8713         2.0262         2.1402         0.3311         1.4098         0.3836        47.5230         1.7783        52.7039     
 8804.5000        12.5901        12.2731        21.0418       108.5090        51.1808        56.3264        51.1808         1.8349         1.8223         1.9713         0.4260         0.7189         0.3598        48.3351         1.5502        52.7744     
 8805.0000        12.0716        12.8858        22.9896       110.3839        48.3136        54.2437        48.3136         1.8017         1.6228         1.8151         0.5635         0.6400         0.4503        49.4135         1.5253        52.9909     
 8805.5000        12.2015        13.2966        23.2038       112.7847        46.8622        54.6097        46.8622         1.7434         1.5763         1.7165         0.6253         0.9084         0.5380        49.9484         1.5788        53.2718     
 8806.0000        12.5808        13.4176        19.2655       115.1934        47.7510        56.4935        47.7510         1.6881         1.6374         1.7428         0.4270         0.8808         0.5577        49.5639         1.6137        53.4318     
 8806.5000        12.9387        13.3602        16.7420       112.2476        48.7875        54.1149        48.7875         1.6644         1.6971         1.8084         0.4853         0.7434         0.4611        50.3343         1.6128        53.5041     
 8807.0000        13.1851        13.2943        14.6179       106.2952        48.1081        49.9673        48.1081         1.6712         1.7106         1.8431         0.3279         0.9655         0.3883        48.9524         1.5604        53.6347     
 8807.5000        13.1515        13.1501        12.0930       105.8882        46.3062        48.9891        46.3062         1.6949         1.7048         1.8536         0.5263         0.8316         0.4255        48.5942         1.5161        53.7692     
 8808.0000        12.8965        12.9086         9.6635       110.0740        44.9372        46.4003        44.9372         1.7210         1.7424         1.9248         0.3293         1.5499         0.5111        46.4892         1.6230        53.8434     
 8808.5000        12.8727        12.7495         5.8603       112.9219        45.0442        43.9547        45.0442         1.7524         1.7916         1.9667         0.7428         2.4902         0.4542        44.4619         1.7679        53.9034     
 8809.0000        13.0380        12.7557         1.8123       109.5014        46.4136        45.9730        46.4136         1.7893         1.8412         1.9459         0.3291         0.9357         0.3469        45.9422         1.7437        53.9290     
 8809.5000        13.0578        12.9852         7.2931       104.4573        48.4026        48.9847        48.4026         1.8262         1.8870         2.1235         0.8171         0.6477         0.6121        46.8296         1.6594        53.9091     
 8810.0000        12.6400        13.1025        16.8861       102.7591        49.9996        48.8592        49.9996         1.8600         1.9147         2.0967         0.5312         0.5607         0.5332        47.8493         1.6985        53.8524     
 8810.5000        12.8265        12.9762        22.5731       102.5019        51.0019        48.7463        51.0019         1.8848         1.9528         1.9884         0.2576         0.5567         0.3352        47.3160         1.7145        53.7622     
 8811.0000        13.4121        12.9710        21.8026        99.6224        52.2881        50.3920        52.2881         1.8974         1.9899         2.0900         0.5197         0.7569         0.4757        45.5534         1.7057        53.6723     
 8811.5000        13.4692        13.0560        19.8919        96.6841        54.3654        53.2187        54.3654         1.9008         1.9555         2.0508         0.4943         0.8723         0.5918        43.8820         1.7320        53.6235     
 8812.0000        12.8289        13.0378        18.4551       100.9750        56.8083        56.3102        56.8083         1.8959         1.8557         1.9857         0.6025         0.7915         0.5015        45.9490         1.6800        53.5354     
 8812.5000        12.8632        13.0766        24.2103       107.5065        58.6120        57.6160        58.6120         1.8794         1.8548         1.9397         0.3384         0.6885         0.4794        47.5478         1.6449        53.4512     
 8813.0000        12.9241        13.2740        23.4520       112.1517        59.4220        56.5640        59.4220         1.8554         1.9058         2.0018         0.6580         1.1436         0.5382        47.6453         1.7573        53.4779     
 8813.5000        12.7553        13.3272        21.1231       113.9205        58.7896        55.8563        58.7896         1.8336         1.9801         2.0464         0.5820         0.8561         0.5997        47.1343         1.8920        53.5513     
 8814.0000        12.7694        13.3540        16.8219       109.0533        57.4834        58.4707        57.4834         1.8209         2.0344         2.0997         0.4622         0.7013         0.6199        48.0903         1.8144        53.6307     
 8814.5000        12.7792        13.4818        12.7123       103.7033        56.2862        62.3455        56.2862         1.8148         2.0514         2.1040         0.6434         0.9979         0.6124        49.6847         1.6797        53.8670     
 8815.0000        12.7118        13.4745        10.3245       101.4673        55.2186        64.7481        55.2186         1.8068         1.9742         2.0299         1.3255         1.7732         0.8184        51.3593         1.6710        54.1479     
 8815.5000        12.7153        13.3426        11.2171        99.5137        54.0784        64.8791        54.0784         1.7915         1.8760         1.9512         0.6520         1.4101         0.5233        50.9687         1.6662        54.3111     
 8816.0000        12.8048        13.1275         9.8841        96.7991        52.3756        62.4939        52.3756         1.7623         1.8130         1.9440         1.1423         0.8793         0.6622        47.5279         1.6404        54.2693     
