~Version Information Section
VERS.          2.0                                     : CWLS LOG ASCII Standard
WRAP.          NO                                      : One line per depth step
CREA.          03/10/17                                : LAS Creation Date
~Well Information Section
STRT.ft        1488.5000                               : Start Depth
STOP.ft        9399.5000                               : Stop Depth
STEP.ft        0.5000                                  : Step
NULL.          -999.2500                               : Null Value
COMP.          OCCIDENTAL PETROLEUM CORPORATION (U.K)  : Company
WELL.          15/17-4                                 : Well
FLD .          WILDCAT                                 : Field
LOC .          NORTH SEA                               : Location
LOC1.          -                                       : Location (UTM)
CTRY.          UK                                      : Country
PROV.          UKCS                                    : Province
UWI .          899                                     : UWI Number
API .          -                                       : API Number
SECT.          -                                       : Section
TOWN.          -                                       : Township
RNGE.          -                                       : Range
PDAT.          MSL                                     : Perm Datum
EPD .ft        0.0                                     : Elevation
LMF .          RKB                                     : Log Measured From
DMF .          RKB                                     : Drill Measured From
APD .ft        78.0                                    : Above Perm Datum
EKB .ft        78.0                                    : Elev-Kelly Bushing
EDF .ft        77.0                                    : Elev-Drill Floor
EGL .ft        -476.0                                  : Elev-Ground Level (Water Depth)
TDD .ft        9423.0                                  : Total Depth (Driller)
TDL .ft        9407.0                                  : Total Depth (Logger)
SRVC.          SCHLUMBERGER                            : Service Company
LATI.          58 29 04.0" N                           : Latitude
LONG.          00 17 21.0" E                           : Longitude
DATE.          08-JUL-1973 - 09-AUG-1973               : Logging Date
PROJ.          UKCS                                    : Project
SET .          COMP_WIRE                               : Set
~Curve Information Section
DEPTH.ft                                               : Depth Curve
CALD.in                                                : Caliper (from FDC/CNL/GR)
MCAL.in                                                : Caliper (from MLL/ML)
DPHI.                                                  : Density Porosity
DT.us/ft                                               : Delta-T
GR.gAPI                                                : Gamma Ray (from ISF/BHC/GR)
GRD.gAPI                                               : Gamma Ray (from FDC/CNL/GR)
GRL.gAPI                                               : Gamma Ray (from DLL/GR)
ILD.Ohmm                                               : Deep Induction Standard Processed Resistivity
LLD.Ohmm                                               : Latero-Log Deep (Resistivity)
LLS.Ohmm                                               : Latero-Log Shallow (Resistivity)
MINV.Ohmm                                              : Micro-Inverse Resistivity
MLL.Ohmm                                               : Mll Resistivity
MNOR.Ohmm                                              : Micro-Normal Resistivity
NPHI.pu                                                : Neutron Porosity
SFL.Ohmm                                               : Spherically Focussed log Resistivity
SP.mV                                                  : Spontaneous Potential (from ISF/BHC/GR)
~ASCII Log Data Section
# ...
 9088.5000        12.3773        12.2395         5.0095        80.6082        53.5911      -999.2500        53.5911         2.5042         2.5840         2.7235         0.3972         2.6667         0.5392        25.6899         2.7677        50.0552     
 9089.0000        12.2970        12.2536         5.4957        83.7052        60.3847      -999.2500        60.3847         2.4137         2.4389         2.6175         0.4538         1.9284         0.5946        25.6690         2.4383        51.0747     
 9089.5000        12.1391        12.2609         8.0046        87.8199        66.2072      -999.2500        66.2072         2.3479         2.2762         2.4825         0.4721         1.6508         0.6048        25.7138         2.2570        52.1738     
 9090.0000        11.9709        12.2670         7.2439        91.5995        68.8180      -999.2500        68.8180         2.3243         2.1246         2.2940         0.4425         1.2155         0.5681        25.8146         2.1648        52.7845     
 9090.5000        12.0113        12.2661         9.9547        94.0381        70.1344      -999.2500        70.1344         2.3762         2.1196         2.1480         0.3995         1.0534         0.5012        25.9601         2.0629        52.8052     
 9091.0000        12.0460        12.2529        13.0050        93.2910        70.9705      -999.2500        70.9705         2.4975         2.3149         2.2497         0.4085         1.0071         0.4328        25.9232         2.0245        52.9842     
 9091.5000        12.0352        12.2381        14.2584        89.4742        71.6632      -999.2500        71.6632         2.6145         2.5581         2.5323         0.4622         1.0810         0.4297        26.0664         2.1156        53.6898     
 9092.0000        11.9848        12.2232        13.3440        85.1835        72.5728      -999.2500        72.5728         2.7195         2.7822         2.8461         0.5193         1.2557         0.4623        26.4651         2.4032        54.6601     
 9092.5000        11.9542        12.2084        10.6827        81.8970        73.2318      -999.2500        73.2318         2.8550         2.8801         3.0280         0.5290         2.0056         0.6556        26.6838         2.8658        55.0311     
 9093.0000        11.8958        12.1936         9.4449        79.9082        73.2739      -999.2500        73.2739         2.9773         2.8636         3.0166         0.4571         2.1641         0.6265        26.5753         3.1508        54.5362     
 9093.5000        11.7531        12.1862         9.6454        79.6507        73.0678      -999.2500        73.0678         3.0553         2.7987         2.9092         0.5027         1.7528         0.6256        26.0678         3.0581        53.5774     
 9094.0000        11.7898        12.1847         9.4901        81.5566        72.5539      -999.2500        72.5539         3.0578      -999.2500      -999.2500         0.5690         1.3287         0.7059        25.6044         2.6838        52.6817     
 9094.5000        11.9749        12.1870         9.4379        85.1256        71.9410      -999.2500        71.9410         2.9689      -999.2500      -999.2500         0.5755         1.1866         0.6418        25.8680         2.2642        52.4953     
 9095.0000        11.9893        12.2136         9.2694        89.5863        71.9322      -999.2500        71.9322         2.8347      -999.2500      -999.2500         0.4582         1.1605         0.5145        26.9674         2.0293        52.7726     
 9095.5000        12.1166        12.2210        10.3340        94.1793        72.2659      -999.2500        72.2659         2.6268      -999.2500      -999.2500         0.4446         0.7690         0.4957      -999.2500         1.8610        53.0264     
 9096.0000        12.2709        12.2107        12.3949        96.7803        71.2335      -999.2500        71.2335         2.4176      -999.2500      -999.2500         0.4480         0.7269         0.4841      -999.2500         1.7836        53.1857     
 9096.5000        12.3015        12.1666        14.1405        95.7451        68.4538      -999.2500        68.4538         2.2830      -999.2500      -999.2500         0.4103         0.7112         0.4733      -999.2500         1.8131        53.3264     
 9097.0000        12.2894        11.9043        14.4363        92.9863        66.0946      -999.2500        66.0946         2.1843      -999.2500      -999.2500         0.3656         0.8806         0.4637      -999.2500         1.8465        53.5109     
 9097.5000      -999.2500        11.4518        12.9067        91.2691        64.9744      -999.2500        64.9744         2.1314      -999.2500      -999.2500         0.3302         1.0173         0.4121      -999.2500         1.8807        53.8182     
 9098.0000      -999.2500      -999.2500        11.0009        90.7819        64.6798      -999.2500        64.6798         2.1519      -999.2500      -999.2500         0.3120         0.9568         0.3510      -999.2500         1.9204        54.5263     
 9098.5000      -999.2500      -999.2500        10.0812        90.4913        65.1261      -999.2500        65.1261         2.2799      -999.2500      -999.2500         0.3220         1.1738         0.3546      -999.2500         1.9215        55.1784     
 9099.0000      -999.2500      -999.2500         8.5395        88.8650        65.8424      -999.2500        65.8424         2.5102      -999.2500      -999.2500         0.3352         1.0568         0.3546      -999.2500         1.9020        55.3285     
 9099.5000      -999.2500      -999.2500         8.1296        85.6766        66.2511      -999.2500        66.2511         2.7444      -999.2500      -999.2500         0.3047         0.8258         0.3260      -999.2500         1.9187        55.2469     
 9100.0000      -999.2500      -999.2500         9.9293        82.1673        65.8941      -999.2500        65.8941         2.9497      -999.2500      -999.2500         0.3211         0.7077         0.3441      -999.2500         2.2077        55.2843     
 9100.5000      -999.2500      -999.2500        13.9969        79.4076        65.6936      -999.2500        65.6936         3.1403      -999.2500      -999.2500         0.3320         0.8275         0.3491      -999.2500         2.7733        55.5811     
 9101.0000      -999.2500      -999.2500        14.2660        78.3988        66.2665      -999.2500        66.2665         3.2769      -999.2500      -999.2500         0.4207         0.7061         0.3975      -999.2500         3.0073        55.6928     
 9101.5000      -999.2500      -999.2500        11.9809        79.0640        67.3595      -999.2500        67.3595         3.2534      -999.2500      -999.2500         0.3855         0.8804         0.3999      -999.2500         2.8094        55.3069     
 9102.0000      -999.2500      -999.2500         8.6469        80.8742        68.2490      -999.2500        68.2490         3.1303      -999.2500      -999.2500         0.3692         0.8112         0.3605      -999.2500         2.6216        54.8652     
 9102.5000      -999.2500      -999.2500         7.0180        84.2386        68.9769      -999.2500        68.9769         3.0449      -999.2500      -999.2500         0.3730         0.8192         0.3626      -999.2500         2.4458        54.6102     
 9103.0000      -999.2500      -999.2500         6.8754        87.2429        70.0378      -999.2500        70.0378         2.9686      -999.2500      -999.2500         0.5271         0.6227         0.3841      -999.2500         2.1240        54.4252     
 9103.5000      -999.2500      -999.2500         8.5905        88.6182        71.2415      -999.2500        71.2415         2.8841      -999.2500      -999.2500         0.4947         0.7098         0.3808      -999.2500         1.8288        54.2459     
 9104.0000      -999.2500      -999.2500        10.0151        88.8074        72.0812      -999.2500        72.0812         2.8028      -999.2500      -999.2500         0.4435         0.7556         0.3673      -999.2500         1.8167        54.1718     
