~Version Information Section
VERS.          2.0                                     : CWLS LOG ASCII Standard
WRAP.          NO                                      : One line per depth step
CREA.          03/10/17                                : LAS Creation Date
~Well Information Section
STRT.ft        1488.5000                               : Start Depth
STOP.ft        9399.5000                               : Stop Depth
STEP.ft        0.5000                                  : Step
NULL.          -999.2500                               : Null Value
COMP.          OCCIDENTAL PETROLEUM CORPORATION (U.K)  : Company
WELL.          15/17-4                                 : Well
FLD .          WILDCAT                                 : Field
LOC .          NORTH SEA                               : Location
LOC1.          -                                       : Location (UTM)
CTRY.          UK                                      : Country
PROV.          UKCS                                    : Province
UWI .          899                                     : UWI Number
API .          -                                       : API Number
SECT.          -                                       : Section
TOWN.          -                                       : Township
RNGE.          -                                       : Range
PDAT.          MSL                                     : Perm Datum
EPD .ft        0.0                                     : Elevation
LMF .          RKB                                     : Log Measured From
DMF .          RKB                                     : Drill Measured From
APD .ft        78.0                                    : Above Perm Datum
EKB .ft        78.0                                    : Elev-Kelly Bushing
EDF .ft        77.0                                    : Elev-Drill Floor
EGL .ft        -476.0                                  : Elev-Ground Level (Water Depth)
TDD .ft        9423.0                                  : Total Depth (Driller)
TDL .ft        9407.0                                  : Total Depth (Logger)
SRVC.          SCHLUMBERGER                            : Service Company
LATI.          58 29 04.0" N                           : Latitude
LONG.          00 17 21.0" E                           : Longitude
DATE.          08-JUL-1973 - 09-AUG-1973               : Logging Date
PROJ.          UKCS                                    : Project
SET .          COMP_WIRE                               : Set
~Curve Information Section
DEPTH.ft                                               : Depth Curve
CALD.in                                                : Caliper (from FDC/CNL/GR)
MCAL.in                                                : Caliper (from MLL/ML)
DPHI.                                                  : Density Porosity
DT.us/ft                                               : Delta-T
GR.gAPI                                                : Gamma Ray (from ISF/BHC/GR)
GRD.gAPI                                               : Gamma Ray (from FDC/CNL/GR)
GRL.gAPI                                               : Gamma Ray (from DLL/GR)
ILD.Ohmm                                               : Deep Induction Standard Processed Resistivity
LLD.Ohmm                                               : Latero-Log Deep (Resistivity)
LLS.Ohmm                                               : Latero-Log Shallow (Resistivity)
MINV.Ohmm                                              : Micro-Inverse Resistivity
MLL.Ohmm                                               : Mll Resistivity
MNOR.Ohmm                                              : Micro-Normal Resistivity
NPHI.pu                                                : Neutron Porosity
SFL.Ohmm                                               : Spherically Focussed log Resistivity
SP.mV                                                  : Spontaneous Potential (from ISF/BHC/GR)
~ASCII Log Data Section
# ...
 5936.5000        12.6799      -999.2500        25.4415       105.7028        35.9529        33.1032        35.9529         0.4359      -999.2500      -999.2500      -999.2500      -999.2500      -999.2500        28.8528         0.6673        26.0672     
 5937.0000        12.6507      -999.2500        25.9058       106.0638        35.4505        33.8132        35.4505         0.4346      -999.2500      -999.2500      -999.2500      -999.2500      -999.2500        29.0074         0.6612        25.9135     
 5937.5000        12.6175      -999.2500        26.3581       106.4246        35.2387        34.4602        35.2387         0.4333      -999.2500      -999.2500      -999.2500      -999.2500      -999.2500        28.8712         0.6545        25.8204     
 5938.0000        12.5706      -999.2500        25.7169       106.7401        35.4570        33.6591        35.4570         0.4316      -999.2500      -999.2500      -999.2500      -999.2500      -999.2500        29.0522         0.6410        25.7868     
 5938.5000        12.4814      -999.2500        24.4623       107.0034        35.6866        33.1824        35.6866         0.4301      -999.2500      -999.2500      -999.2500      -999.2500      -999.2500        29.3244         0.6277        25.7833     
 5939.0000        12.4366      -999.2500        25.0046       107.0453        35.8912        36.2967        35.8912         0.4320      -999.2500      -999.2500      -999.2500      -999.2500      -999.2500        28.9581         0.6178        25.7522     
 5939.5000        12.4345      -999.2500        24.4282       106.7052        36.1548        37.1656        36.1548         0.4396      -999.2500      -999.2500      -999.2500      -999.2500      -999.2500        29.1822         0.6132        25.7217     
 5940.0000        12.4176      -999.2500        24.2323       106.0739        36.3317        38.0476        36.3317         0.4556      -999.2500      -999.2500      -999.2500      -999.2500      -999.2500        30.2128         0.6103        25.8203     
 5940.5000        12.4065      -999.2500        24.9503       105.2301        36.5424        39.5787        36.5424         0.4795      -999.2500      -999.2500      -999.2500      -999.2500      -999.2500        30.4307         0.6272        26.1299     
 5941.0000        12.3969      -999.2500        24.3213       104.3554        37.1341        41.0153        37.1341         0.5056      -999.2500      -999.2500      -999.2500      -999.2500      -999.2500        30.6721         0.6751        26.5464     
 5941.5000        12.3908      -999.2500        23.5536       103.6165        38.8221        42.5830        38.8221         0.5366      -999.2500      -999.2500      -999.2500      -999.2500      -999.2500        31.1289         0.7102        27.0278     
 5942.0000        12.3694      -999.2500        22.9264       103.0645        41.7953        45.3292        41.7953         0.5811      -999.2500      -999.2500      -999.2500      -999.2500      -999.2500        32.3222         0.7284        27.6048     
 5942.5000        12.3736      -999.2500        21.9391       102.8713        45.4949        48.5056        45.4949         0.6317      -999.2500      -999.2500      -999.2500      -999.2500      -999.2500        33.4519         0.7652        28.5569     
 5943.0000        12.4652      -999.2500        20.7397       103.4461        50.8239        52.4414        50.8239         0.6800      -999.2500      -999.2500      -999.2500      -999.2500      -999.2500        33.4082         0.8236        29.8111     
 5943.5000        12.5910      -999.2500        18.9056       105.1830        55.7134        56.7847        55.7134         0.7263      -999.2500      -999.2500      -999.2500      -999.2500      -999.2500        33.8209         0.8903        30.7705     
 5944.0000        12.6166      -999.2500        18.9885       107.5764        57.6609        59.6441        57.6609         0.7678      -999.2500      -999.2500      -999.2500      -999.2500      -999.2500        35.2880         0.9385        31.2503     
 5944.5000        12.5681      -999.2500        21.2125       109.6496        56.7748        58.5024        56.7748         0.8011      -999.2500      -999.2500      -999.2500      -999.2500      -999.2500        36.3371         0.9552        31.0656     
 5945.0000        12.5679      -999.2500        22.6288       111.3943        53.6111        55.5223        53.6111         0.8218      -999.2500      -999.2500      -999.2500      -999.2500      -999.2500        35.9969         0.9395        30.1545     
 5945.5000        12.5775      -999.2500        24.3362       112.4451        50.2630        53.2886        50.2630         0.8242      -999.2500      -999.2500      -999.2500      -999.2500      -999.2500        35.1821         0.8969        29.1326     
 5946.0000        12.5229      -999.2500        25.0752       112.0762        47.5376        49.4292        47.5376         0.7805      -999.2500      -999.2500      -999.2500      -999.2500      -999.2500        35.4853         0.8699        28.3432     
 5946.5000        12.4988      -999.2500        26.7323       111.1321        44.5916        44.0085        44.5916         0.7118      -999.2500      -999.2500      -999.2500      -999.2500      -999.2500        34.7286         0.8812        27.5204     
 5947.0000        12.4371      -999.2500        27.5277       110.4529        41.0801        37.5651        41.0801         0.6511      -999.2500      -999.2500      -999.2500      -999.2500      -999.2500        32.2880         0.8747        26.7217     
 5947.5000        12.4254      -999.2500        26.8967       109.8388        37.6838        35.6150        37.6838         0.5951      -999.2500      -999.2500      -999.2500      -999.2500      -999.2500        31.8220         0.8098        26.2607     
 5948.0000        12.4609      -999.2500        25.7795       109.7359        35.5910        34.7216        35.5910         0.5485      -999.2500      -999.2500      -999.2500      -999.2500      -999.2500        31.1008         0.7156        26.1166     
 5948.5000        12.5052      -999.2500        26.1341       109.5712        35.6290        36.7209        35.6290         0.5139      -999.2500      -999.2500      -999.2500      -999.2500      -999.2500        30.8053         0.6484        26.0641     
 5949.0000        12.5011      -999.2500        26.4088       108.8614        36.9913        40.0439        36.9913         0.4935      -999.2500      -999.2500      -999.2500      -999.2500      -999.2500        31.7749         0.6210        26.0247     
 5949.5000        12.5195      -999.2500        26.7935       108.3764        38.7037        39.5206        38.7037         0.4734      -999.2500      -999.2500      -999.2500      -999.2500      -999.2500        32.0975         0.6121        26.0644     
 5950.0000        12.5526      -999.2500        26.9415       108.2003        40.2284        38.6267        40.2284         0.4566      -999.2500      -999.2500      -999.2500      -999.2500      -999.2500        31.8631         0.6278        26.1539     
 5950.5000        12.5389      -999.2500        26.6943       108.1989        40.9336        35.9446        40.9336         0.4519      -999.2500      -999.2500      -999.2500      -999.2500      -999.2500        31.2162         0.6501        26.1858     
 5951.0000        12.5530      -999.2500        27.3948       108.0791        40.4020        35.1363        40.4020         0.4544      -999.2500      -999.2500      -999.2500      -999.2500      -999.2500        29.8723         0.6523        26.1478     
 5951.5000        12.5681      -999.2500        26.7338       107.5899        39.1012        35.4686        39.1012         0.4610      -999.2500      -999.2500      -999.2500      -999.2500      -999.2500        29.0086         0.6485        26.0088     
 5952.0000        12.5590      -999.2500        26.0008       106.6428        38.1580        33.6246        38.1580         0.4716      -999.2500      -999.2500      -999.2500      -999.2500      -999.2500        28.1583         0.6552        25.8491     
