~Version Information Section
VERS.          2.0                                     : CWLS LOG ASCII Standard
WRAP.          NO                                      : One line per depth step
CREA.          03/10/17                                : LAS Creation Date
~Well Information Section
STRT.ft        1488.5000                               : Start Depth
STOP.ft        9399.5000                               : Stop Depth
STEP.ft        0.5000                                  : Step
NULL.          -999.2500                               : Null Value
COMP.          OCCIDENTAL PETROLEUM CORPORATION (U.K)  : Company
WELL.          15/17-4                                 : Well
FLD .          WILDCAT                                 : Field
LOC .          NORTH SEA                               : Location
LOC1.          -                                       : Location (UTM)
CTRY.          UK                                      : Country
PROV.          UKCS                                    : Province
UWI .          899                                     : UWI Number
API .          -                                       : API Number
SECT.          -                                       : Section
TOWN.          -                                       : Township
RNGE.          -                                       : Range
PDAT.          MSL                                     : Perm Datum
EPD .ft        0.0                                     : Elevation
LMF .          RKB                                     : Log Measured From
DMF .          RKB                                     : Drill Measured From
APD .ft        78.0                                    : Above Perm Datum
EKB .ft        78.0                                    : Elev-Kelly Bushing
EDF .ft        77.0                                    : Elev-Drill Floor
EGL .ft        -476.0                                  : Elev-Ground Level (Water Depth)
TDD .ft        9423.0                                  : Total Depth (Driller)
TDL .ft        9407.0                                  : Total Depth (Logger)
SRVC.          SCHLUMBERGER                            : Service Company
LATI.          58 29 04.0" N                           : Latitude
LONG.          00 17 21.0" E                           : Longitude
DATE.          08-JUL-1973 - 09-AUG-1973               : Logging Date
PROJ.          UKCS                                    : Project
SET .          COMP_WIRE                               : Set
~Curve Information Section
DEPTH.ft                                               : Depth Curve
CALD.in                                                : Caliper (from FDC/CNL/GR)
MCAL.in                                                : Caliper (from MLL/ML)
DPHI.                                                  : Density Porosity
DT.us/ft                                               : Delta-T
GR.gAPI                                                : Gamma Ray (from ISF/BHC/GR)
GRD.gAPI                                               : Gamma Ray (from FDC/CNL/GR)
GRL.gAPI                                               : Gamma Ray (from DLL/GR)
ILD.Ohmm                                               : Deep Induction Standard Processed Resistivity
LLD.Ohmm                                               : Latero-Log Deep (Resistivity)
LLS.Ohmm                                               : Latero-Log Shallow (Resistivity)
MINV.Ohmm                                              : Micro-Inverse Resistivity
MLL.Ohmm                                               : Mll Resistivity
MNOR.Ohmm                                              : Micro-Normal Resistivity
NPHI.pu                                                : Neutron Porosity
SFL.Ohmm                                               : Spherically Focussed log Resistivity
SP.mV                                                  : Spontaneous Potential (from ISF/BHC/GR)
~ASCII Log Data Section
# ...
 6800.5000        13.8741      -999.2500        26.0160       129.9885        33.6326        35.7086        33.6326         0.8490      -999.2500      -999.2500      -999.2500      -999.2500      -999.2500        42.5069         0.9719        47.0392     
 6801.0000        13.7278      -999.2500        25.4327       128.3911        33.3119        35.8981        33.3119         0.8117      -999.2500      -999.2500      -999.2500      -999.2500      -999.2500        42.2367         0.9075        46.9333     
 6801.5000        13.5455      -999.2500        25.6501       135.8598        33.8548        36.5826        33.8548         0.8399      -999.2500      -999.2500      -999.2500      -999.2500      -999.2500        41.9221         0.8095        46.8317     
 6802.0000        13.6100      -999.2500        26.9383       142.7112        35.1938        37.8279        35.1938         0.9053      -999.2500      -999.2500      -999.2500      -999.2500      -999.2500        40.7277         0.7662        46.7239     
 6802.5000        13.7950      -999.2500        25.6346       144.9600        36.5901        37.9440        36.5901         0.9924      -999.2500      -999.2500      -999.2500      -999.2500      -999.2500        40.0078         0.7637        46.5605     
 6803.0000        13.7829      -999.2500        24.9162       148.1887        37.6209        36.4212        37.6209         1.0815      -999.2500      -999.2500      -999.2500      -999.2500      -999.2500        37.8010         0.8225        46.3250     
 6803.5000        13.8187      -999.2500        23.2693       150.1599        37.9934        34.8612        37.9934         1.1858      -999.2500      -999.2500      -999.2500      -999.2500      -999.2500        33.9816         0.9385        46.0732     
 6804.0000        13.6258      -999.2500        19.8628       151.6602        37.4657        33.6452        37.4657         1.3011      -999.2500      -999.2500      -999.2500      -999.2500      -999.2500        32.1695         1.0580        45.8420     
 6804.5000        13.7953      -999.2500        19.8832       143.9166        36.3799        32.7368        36.3799         1.4052      -999.2500      -999.2500      -999.2500      -999.2500      -999.2500        29.6759         1.2098        45.7249     
 6805.0000        13.3416      -999.2500        22.6063       129.6454        35.0746        33.4822        35.0746         1.4774      -999.2500      -999.2500      -999.2500      -999.2500      -999.2500        27.8675         1.4186        45.5841     
 6805.5000        13.1971      -999.2500        21.6238       121.6161        34.1226        34.1820        34.1226         1.5116      -999.2500      -999.2500      -999.2500      -999.2500      -999.2500        27.4441         1.6036        45.3077     
 6806.0000        13.3276      -999.2500        26.9658       122.7562        34.1611        34.7462        34.1611         1.5149      -999.2500      -999.2500      -999.2500      -999.2500      -999.2500        31.9896         1.4509        45.2678     
 6806.5000        13.5268      -999.2500        35.0769       136.5540        36.3473        34.6820        36.3473         1.4748      -999.2500      -999.2500      -999.2500      -999.2500      -999.2500        38.5551         1.0326        45.4465     
 6807.0000        13.6930      -999.2500        38.6861       155.2444        39.0644        34.2535        39.0644         1.3881      -999.2500      -999.2500      -999.2500      -999.2500      -999.2500        44.7488         0.8162        45.7699     
 6807.5000        13.9529      -999.2500        34.5941       162.3874        40.5095        34.1268        40.5095         1.2598      -999.2500      -999.2500      -999.2500      -999.2500      -999.2500        45.7733         0.8317        46.1099     
 6808.0000        14.5642      -999.2500        29.0512       152.5078        41.3488        34.3276        41.3488         1.1441      -999.2500      -999.2500      -999.2500      -999.2500      -999.2500        43.3715         0.9030        46.2111     
 6808.5000        14.1210      -999.2500        26.1562       139.5419        41.6873        34.6859        41.6873         1.0942      -999.2500      -999.2500      -999.2500      -999.2500      -999.2500        41.9674         0.9271        46.2198     
 6809.0000        14.5150      -999.2500        22.9147       132.8410        41.0740        35.5373        41.0740         1.1293      -999.2500      -999.2500      -999.2500      -999.2500      -999.2500        40.7353         0.9040        46.2182     
 6809.5000        14.5903      -999.2500        21.5877       123.4981        39.4987        35.7076        39.4987         1.2359      -999.2500      -999.2500      -999.2500      -999.2500      -999.2500        38.4629         0.8858        45.8011     
 6810.0000        14.2959      -999.2500        21.3869       107.7760        37.7229        35.3914        37.7229         1.4244      -999.2500      -999.2500      -999.2500      -999.2500      -999.2500        34.2264         0.9087        44.7114     
 6810.5000        14.1896      -999.2500        18.3528        89.5486        35.8927        36.4123        35.8927         1.6681      -999.2500      -999.2500      -999.2500      -999.2500      -999.2500        27.3697         1.4242        43.4309     
 6811.0000        13.7367      -999.2500        16.9967        76.4483        34.0473        36.8433        34.0473         1.9006      -999.2500      -999.2500      -999.2500      -999.2500      -999.2500        19.2338         2.8413        41.9714     
 6811.5000        13.5918      -999.2500        15.1516        73.4707        32.7614        35.4543        32.7614         2.2464      -999.2500      -999.2500      -999.2500      -999.2500      -999.2500        15.6079         3.5851        40.5816     
 6812.0000        13.2737      -999.2500        14.7137        75.4038        32.0188        32.7597        32.0188         2.6880      -999.2500      -999.2500      -999.2500      -999.2500      -999.2500        16.1816         2.8873        39.8345     
 6812.5000        12.7609      -999.2500        15.8973        76.7704        31.2795        30.6943        31.2795         2.9859      -999.2500      -999.2500      -999.2500      -999.2500      -999.2500        17.0741         2.2757        39.5621     
 6813.0000        12.5197      -999.2500        16.3972        77.4054        31.0552        30.0433        31.0552         2.9147      -999.2500      -999.2500      -999.2500      -999.2500      -999.2500        17.7356         2.1559        39.5468     
 6813.5000        12.4159      -999.2500        16.3193        77.2437        31.3478        29.3091        31.3478         2.4822      -999.2500      -999.2500      -999.2500      -999.2500      -999.2500        18.3399         2.1334        39.8624     
 6814.0000        12.4367      -999.2500        15.5574        78.6705        31.4635        28.1077        31.4635         2.1169      -999.2500      -999.2500      -999.2500      -999.2500      -999.2500        19.9100         2.1567        41.4888     
 6814.5000        12.5330      -999.2500        15.5956        88.9640        32.0540        28.7784        32.0540         1.8901      -999.2500      -999.2500      -999.2500      -999.2500      -999.2500        22.6802         2.0461        43.9085     
 6815.0000        12.8432      -999.2500        17.3952       104.5941        32.9157        29.4760        32.9157         1.6653      -999.2500      -999.2500      -999.2500      -999.2500      -999.2500        28.8254         1.4645        45.5464     
 6815.5000        13.3841      -999.2500        21.3293       115.6003        33.3887        30.0230        33.3887         1.5330      -999.2500      -999.2500      -999.2500      -999.2500      -999.2500        34.7184         0.9629        46.5347     
 6816.0000        13.5068      -999.2500        25.2128       119.3211        33.8467        32.2829        33.8467         1.4365      -999.2500      -999.2500      -999.2500      -999.2500      -999.2500        39.0872         0.9560        47.0476     
