~Version Information Section
VERS.          2.0                                     : CWLS LOG ASCII Standard
WRAP.          NO                                      : One line per depth step
CREA.          03/10/17                                : LAS Creation Date
~Well Information Section
STRT.ft        1488.5000                               : Start Depth
STOP.ft        9399.5000                               : Stop Depth
STEP.ft        0.5000                                  : Step
NULL.          -999.2500                               : Null Value
COMP.          OCCIDENTAL PETROLEUM CORPORATION (U.K)  : Company
WELL.          15/17-4                                 : Well
FLD .          WILDCAT                                 : Field
LOC .          NORTH SEA                               : Location
LOC1.          -                                       : Location (UTM)
CTRY.          UK                                      : Country
PROV.          UKCS                                    : Province
UWI .          899                                     : UWI Number
API .          -                                       : API Number
SECT.          -                                       : Section
TOWN.          -                                       : Township
RNGE.          -                                       : Range
PDAT.          MSL                                     : Perm Datum
EPD .ft        0.0                                     : Elevation
LMF .          RKB                                     : Log Measured From
DMF .          RKB                                     : Drill Measured From
APD .ft        78.0                                    : Above Perm Datum
EKB .ft        78.0                                    : Elev-Kelly Bushing
EDF .ft        77.0                                    : Elev-Drill Floor
EGL .ft        -476.0                                  : Elev-Ground Level (Water Depth)
TDD .ft        9423.0                                  : Total Depth (Driller)
TDL .ft        9407.0                                  : Total Depth (Logger)
SRVC.          SCHLUMBERGER                            : Service Company
LATI.          58 29 04.0" N                           : Latitude
LONG.          00 17 21.0" E                           : Longitude
DATE.          08-JUL-1973 - 09-AUG-1973               : Logging Date
PROJ.          UKCS                                    : Project
SET .          COMP_WIRE                               : Set
~Curve Information Section
DEPTH.ft                                               : Depth Curve
CALD.in                                                : Caliper (from FDC/CNL/GR)
MCAL.in                                                : Caliper (from MLL/ML)
DPHI.                                                  : Density Porosity
DT.us/ft                                               : Delta-T
GR.gAPI                                                : Gamma Ray (from ISF/BHC/GR)
GRD.gAPI                                               : Gamma Ray (from FDC/CNL/GR)
GRL.gAPI                                               : Gamma Ray (from DLL/GR)
ILD.Ohmm                                               : Deep Induction Standard Processed Resistivity
LLD.Ohmm                                               : Latero-Log Deep (Resistivity)
LLS.Ohmm                                               : Latero-Log Shallow (Resistivity)
MINV.Ohmm                                              : Micro-Inverse Resistivity
MLL.Ohmm                                               : Mll Resistivity
MNOR.Ohmm                                              : Micro-Normal Resistivity
NPHI.pu                                                : Neutron Porosity
SFL.Ohmm                                               : Spherically Focussed log Resistivity
SP.mV                                                  : Spontaneous Potential (from ISF/BHC/GR)
~ASCII Log Data Section
# ...
 5072.5000        12.3556      -999.2500        28.9158       136.6190        47.2086        46.9649        47.2086         0.8569      -999.2500      -999.2500      -999.2500      -999.2500      -999.2500        42.9785         0.9081        39.5486     
 5073.0000        12.3680      -999.2500        30.6063       137.1948        50.5211        47.7560        50.5211         0.8422      -999.2500      -999.2500      -999.2500      -999.2500      -999.2500        47.0137         0.7875        40.4582     
 5073.5000        12.3647      -999.2500        32.6149       140.4958        52.1702        49.9994        52.1702         0.8237      -999.2500      -999.2500      -999.2500      -999.2500      -999.2500        48.9266         0.6901        41.2349     
 5074.0000        12.2965      -999.2500        33.4976       144.2438        52.0489        50.6391        52.0489         0.8002      -999.2500      -999.2500      -999.2500      -999.2500      -999.2500        48.6841         0.6833        41.7590     
 5074.5000        12.3531      -999.2500        33.4692       146.0472        51.6232        50.3162        51.6232         0.7803      -999.2500      -999.2500      -999.2500      -999.2500      -999.2500        49.2077         0.7194        42.1271     
 5075.0000        12.3757      -999.2500        33.2306       147.0287        50.5417        47.7285        50.5417         0.7636      -999.2500      -999.2500      -999.2500      -999.2500      -999.2500        49.6392         0.7323        42.3589     
 5075.5000        12.3468      -999.2500        33.1783       148.8730        48.6794        47.6808        48.6794         0.7490      -999.2500      -999.2500      -999.2500      -999.2500      -999.2500        50.3314         0.7126        42.5030     
 5076.0000        12.2985      -999.2500        34.8274       151.3980        48.3077        48.6051        48.3077         0.7461      -999.2500      -999.2500      -999.2500      -999.2500      -999.2500        51.3031         0.6871        42.6340     
 5076.5000        12.2391      -999.2500        34.7301       153.4520        49.7720        47.8561        49.7720         0.7488      -999.2500      -999.2500      -999.2500      -999.2500      -999.2500        50.3989         0.6716        42.7353     
 5077.0000        12.2137      -999.2500        34.6102       154.1416        50.7288        48.9571        50.7288         0.7516      -999.2500      -999.2500      -999.2500      -999.2500      -999.2500        49.9012         0.6648        42.8174     
 5077.5000        12.2092      -999.2500        34.0158       154.0608        50.6701        49.3101        50.6701         0.7552      -999.2500      -999.2500      -999.2500      -999.2500      -999.2500        49.4737         0.6674        42.9572     
 5078.0000        12.2182      -999.2500        33.2146       153.0788        50.8383        49.8893        50.8383         0.7541      -999.2500      -999.2500      -999.2500      -999.2500      -999.2500        48.0414         0.6815        43.0606     
 5078.5000        12.2381      -999.2500        33.0560       151.3507        51.7055        50.7951        51.7055         0.7515      -999.2500      -999.2500      -999.2500      -999.2500      -999.2500        46.7434         0.7040        43.0663     
 5079.0000        12.2809      -999.2500        33.0078       149.8805        52.1730        51.7211        52.1730         0.7606      -999.2500      -999.2500      -999.2500      -999.2500      -999.2500        45.9725         0.7210        43.0839     
 5079.5000        12.3003      -999.2500        33.0714       149.0222        51.4680        52.4761        51.4680         0.7762      -999.2500      -999.2500      -999.2500      -999.2500      -999.2500        46.3260         0.7235        43.1349     
 5080.0000        12.2835      -999.2500        32.9333       148.6574        50.1358        51.8676        50.1358         0.7928      -999.2500      -999.2500      -999.2500      -999.2500      -999.2500        46.6412         0.7181        43.1446     
 5080.5000        12.2576      -999.2500        33.0776       148.5537        48.3837        51.7545        48.3837         0.8135      -999.2500      -999.2500      -999.2500      -999.2500      -999.2500        46.5873         0.7162        43.0809     
 5081.0000        12.2373      -999.2500        32.3794       147.6929        47.0772        52.4941        47.0772         0.8338      -999.2500      -999.2500      -999.2500      -999.2500      -999.2500        45.4420         0.7190        42.9277     
 5081.5000        12.2260      -999.2500        31.2546       143.9927        47.7280        54.2530        47.7280         0.8531      -999.2500      -999.2500      -999.2500      -999.2500      -999.2500        44.8331         0.7425        42.6994     
 5082.0000        12.2560      -999.2500        29.8188       137.4177        49.4586        54.1780        49.4586         0.8659      -999.2500      -999.2500      -999.2500      -999.2500      -999.2500        44.0111         0.8038        42.4862     
 5082.5000        12.2746      -999.2500        27.1748       130.0974        49.8969        55.3637        49.8969         0.8693      -999.2500      -999.2500      -999.2500      -999.2500      -999.2500        42.3598         0.8888        42.3198     
 5083.0000        12.2768      -999.2500        24.3204       124.6476        49.1706        55.3424        49.1706         0.8678      -999.2500      -999.2500      -999.2500      -999.2500      -999.2500        42.3462         0.9565        42.2205     
 5083.5000        12.2650      -999.2500        24.9942       124.1237        48.9699        54.3576        48.9699         0.8648      -999.2500      -999.2500      -999.2500      -999.2500      -999.2500        43.2029         0.9408        42.1886     
 5084.0000        12.2781      -999.2500        26.0874       128.3149        49.8787        51.4372        49.8787         0.8591      -999.2500      -999.2500      -999.2500      -999.2500      -999.2500        44.4542         0.8550        42.2143     
 5084.5000        12.2989      -999.2500        27.7201       135.1483        52.2054        49.7963        52.2054         0.8481      -999.2500      -999.2500      -999.2500      -999.2500      -999.2500        44.7768         0.7936        42.3103     
 5085.0000        12.1748      -999.2500        28.5135       141.6888        55.0837        52.4842        55.0837         0.8345      -999.2500      -999.2500      -999.2500      -999.2500      -999.2500        44.0038         0.7649        42.4724     
 5085.5000        12.1617      -999.2500        30.5928       145.6534        56.4806        53.9545        56.4806         0.8186      -999.2500      -999.2500      -999.2500      -999.2500      -999.2500        44.3507         0.7382        42.6213     
 5086.0000        12.1576      -999.2500        32.7521       148.0222        56.1138        55.2814        56.1138         0.7993      -999.2500      -999.2500      -999.2500      -999.2500      -999.2500        45.3863         0.7180        42.7442     
 5086.5000        12.1449      -999.2500        32.6485       148.1578        54.9954        55.8570        54.9954         0.7838      -999.2500      -999.2500      -999.2500      -999.2500      -999.2500        45.7443         0.7140        42.8176     
 5087.0000        12.1552      -999.2500        31.8814       146.0074        54.3812        54.7555        54.3812         0.7764      -999.2500      -999.2500      -999.2500      -999.2500      -999.2500        45.5043         0.7527        42.7179     
 5087.5000        12.2012      -999.2500        31.9146       144.4068        54.0371        53.0143        54.0371         0.7757      -999.2500      -999.2500      -999.2500      -999.2500      -999.2500        45.9075         0.8041        42.5159     
 5088.0000        12.2833      -999.2500        31.6494       144.3888        53.0272        53.2520        53.0272         0.7817      -999.2500      -999.2500      -999.2500      -999.2500      -999.2500        47.7370         0.7749        42.3410     
