~Version Information Section
VERS.          2.0                                     : CWLS LOG ASCII Standard
WRAP.          NO                                      : One line per depth step
CREA.          03/10/17                                : LAS Creation Date
~Well Information Section
STRT.ft        1488.5000                               : Start Depth
STOP.ft        9399.5000                               : Stop Depth
STEP.ft        0.5000                                  : Step
NULL.          -999.2500                               : Null Value
COMP.          OCCIDENTAL PETROLEUM CORPORATION (U.K)  : Company
WELL.          15/17-4                                 : Well
FLD .          WILDCAT                                 : Field
LOC .          NORTH SEA                               : Location
LOC1.          -                                       : Location (UTM)
CTRY.          UK                                      : Country
PROV.          UKCS                                    : Province
UWI .          899                                     : UWI Number
API .          -                                       : API Number
SECT.          -                                       : Section
TOWN.          -                                       : Township
RNGE.          -                                       : Range
PDAT.          MSL                                     : Perm Datum
EPD .ft        0.0                                     : Elevation
LMF .          RKB                                     : Log Measured From
DMF .          RKB                                     : Drill Measured From
APD .ft        78.0                                    : Above Perm Datum
EKB .ft        78.0                                    : Elev-Kelly Bushing
EDF .ft        77.0                                    : Elev-Drill Floor
EGL .ft        -476.0                                  : Elev-Ground Level (Water Depth)
TDD .ft        9423.0                                  : Total Depth (Driller)
TDL .ft        9407.0                                  : Total Depth (Logger)
SRVC.          SCHLUMBERGER                            : Service Company
LATI.          58 29 04.0" N                           : Latitude
LONG.          00 17 21.0" E                           : Longitude
DATE.          08-JUL-1973 - 09-AUG-1973               : Logging Date
PROJ.          UKCS                                    : Project
SET .          COMP_WIRE                               : Set
~Curve Information Section
DEPTH.ft                                               : Depth Curve
CALD.in                                                : Caliper (from FDC/CNL/GR)
MCAL.in                                                : Caliper (from MLL/ML)
DPHI.                                                  : Density Porosity
DT.us/ft                                               : Delta-T
GR.gAPI                                                : Gamma Ray (from ISF/BHC/GR)
GRD.gAPI                                               : Gamma Ray (from FDC/CNL/GR)
GRL.gAPI                                               : Gamma Ray (from DLL/GR)
ILD.Ohmm                                               : Deep Induction Standard Processed Resistivity
LLD.Ohmm                                               : Latero-Log Deep (Resistivity)
LLS.Ohmm                                               : Latero-Log Shallow (Resistivity)
MINV.Ohmm                                              : Micro-Inverse Resistivity
MLL.Ohmm                                               : Mll Resistivity
MNOR.Ohmm                                              : Micro-Normal Resistivity
NPHI.pu                                                : Neutron Porosity
SFL.Ohmm                                               : Spherically Focussed log Resistivity
SP.mV                                                  : Spontaneous Potential (from ISF/BHC/GR)
~ASCII Log Data Section
# ...
 5360.5000        12.6895      -999.2500        31.7311       115.2454        29.3788        29.2381        29.3788         0.4193      -999.2500      -999.2500      -999.2500      -999.2500      -999.2500        34.3697         0.5388        24.5980     
 5361.0000        12.6974      -999.2500        31.3641       115.1297        29.3534        28.1389        29.3534         0.4166      -999.2500      -999.2500      -999.2500      -999.2500      -999.2500        33.8890         0.5372        24.6890     
 5361.5000        12.6861      -999.2500        31.1002       115.0148        29.2741        27.5840        29.2741         0.4133      -999.2500      -999.2500      -999.2500      -999.2500      -999.2500        33.0852         0.5294        24.9149     
 5362.0000        12.6805      -999.2500        31.1620       114.9044        29.3087        27.1800        29.3087         0.4111      -999.2500      -999.2500      -999.2500      -999.2500      -999.2500        32.2988         0.5215        25.0275     
 5362.5000        12.6827      -999.2500        30.6360       114.8087        29.3971        28.2388        29.3971         0.4107      -999.2500      -999.2500      -999.2500      -999.2500      -999.2500        31.0617         0.5154        25.0296     
 5363.0000        12.6927      -999.2500        29.6067       114.7634        29.4017        29.3503        29.4017         0.4108      -999.2500      -999.2500      -999.2500      -999.2500      -999.2500        31.1593         0.5156        25.0879     
 5363.5000        12.7131      -999.2500        28.8693       114.7572        29.4063        29.1614        29.4063         0.4114      -999.2500      -999.2500      -999.2500      -999.2500      -999.2500        32.0009         0.5181        25.1896     
 5364.0000        12.7486      -999.2500        28.1329       114.7511        29.3875        28.1730        29.3875         0.4131      -999.2500      -999.2500      -999.2500      -999.2500      -999.2500        32.7465         0.5184        25.2352     
 5364.5000        12.7393      -999.2500        27.8792       114.7274        29.2923        28.1073        29.2923         0.4147      -999.2500      -999.2500      -999.2500      -999.2500      -999.2500        32.2593         0.5196        25.1377     
 5365.0000        12.7162      -999.2500        28.6771       114.6282        28.8882        29.0413        28.8882         0.4151      -999.2500      -999.2500      -999.2500      -999.2500      -999.2500        32.8392         0.5213        24.9492     
 5365.5000        12.7016      -999.2500        29.8395       114.4615        28.1927        29.4299        28.1927         0.4154      -999.2500      -999.2500      -999.2500      -999.2500      -999.2500        32.9744         0.5240        24.7193     
 5366.0000        12.7153      -999.2500        29.8731       114.3800        27.6743        29.2822        27.6743         0.4171      -999.2500      -999.2500      -999.2500      -999.2500      -999.2500        31.9565         0.5238        24.6560     
 5366.5000        12.7475      -999.2500        28.8166       114.4268        27.1795        28.6214        27.1795         0.4190      -999.2500      -999.2500      -999.2500      -999.2500      -999.2500        31.6530         0.5199        24.7052     
 5367.0000        12.7464      -999.2500        28.4389       114.4890        26.6676        28.8764        26.6676         0.4196      -999.2500      -999.2500      -999.2500      -999.2500      -999.2500        32.1482         0.5157        24.5643     
 5367.5000        12.7358      -999.2500        28.1843       114.5275        26.4772        29.1728        26.4772         0.4216      -999.2500      -999.2500      -999.2500      -999.2500      -999.2500        32.6949         0.5135        24.5001     
 5368.0000        12.7331      -999.2500        27.1888       114.5872        26.5624        28.8768        26.5624         0.4235      -999.2500      -999.2500      -999.2500      -999.2500      -999.2500        32.5548         0.5150        24.8893     
 5368.5000        12.7325      -999.2500        27.6183       114.6225        26.8819        28.6633        26.8819         0.4238      -999.2500      -999.2500      -999.2500      -999.2500      -999.2500        32.5458         0.5188        25.3646     
 5369.0000        12.7319      -999.2500        28.2919       114.4601        27.3150        29.6113        27.3150         0.4239      -999.2500      -999.2500      -999.2500      -999.2500      -999.2500        32.5372         0.5235        25.6277     
 5369.5000        12.7313      -999.2500        28.0490       114.1272        27.8849        29.4577        27.8849         0.4240      -999.2500      -999.2500      -999.2500      -999.2500      -999.2500        32.8496         0.5272        25.7191     
 5370.0000        12.7307      -999.2500        27.5569       113.7038        28.4375        30.9546        28.4375         0.4243      -999.2500      -999.2500      -999.2500      -999.2500      -999.2500        32.4538         0.5287        25.5757     
 5370.5000        12.7301      -999.2500        27.0098       113.3621        28.5629        31.9293        28.5629         0.4263      -999.2500      -999.2500      -999.2500      -999.2500      -999.2500        32.0925         0.5307        25.2879     
 5371.0000        12.7240      -999.2500        27.2847       113.2860        28.5918        32.0046        28.5918         0.4284      -999.2500      -999.2500      -999.2500      -999.2500      -999.2500        32.4145         0.5363        24.8730     
 5371.5000        12.7167      -999.2500        28.4066       113.5047        28.9015        31.4938        28.9015         0.4299      -999.2500      -999.2500      -999.2500      -999.2500      -999.2500        33.1041         0.5406        24.5285     
 5372.0000        12.7096      -999.2500        28.0817       113.8939        29.1952        30.8341        29.1952         0.4319      -999.2500      -999.2500      -999.2500      -999.2500      -999.2500        33.3863         0.5387        24.3953     
 5372.5000        12.7424      -999.2500        27.9031       114.2332        29.3225        30.2971        29.3225         0.4326      -999.2500      -999.2500      -999.2500      -999.2500      -999.2500        33.6435         0.5316        24.3740     
 5373.0000        12.7308      -999.2500        28.7467       114.5026        29.5103        29.1919        29.5103         0.4312      -999.2500      -999.2500      -999.2500      -999.2500      -999.2500        33.5980         0.5237        24.3761     
 5373.5000        12.7113      -999.2500        29.2514       114.5664        29.5631        28.6742        29.5631         0.4285      -999.2500      -999.2500      -999.2500      -999.2500      -999.2500        33.5562         0.5231        24.3466     
 5374.0000        12.6890      -999.2500        28.9921       114.4669        29.5717        29.4868        29.5717         0.4262      -999.2500      -999.2500      -999.2500      -999.2500      -999.2500        33.1261         0.5276        24.3368     
 5374.5000        12.6960      -999.2500        29.1488       114.4058        29.6587        28.5200        29.6587         0.4244      -999.2500      -999.2500      -999.2500      -999.2500      -999.2500        32.6227         0.5270        24.4184     
 5375.0000        12.7112      -999.2500        29.0216       114.3259        29.5029        27.8689        29.5029         0.4206      -999.2500      -999.2500      -999.2500      -999.2500      -999.2500        32.1204         0.5214        24.6048     
 5375.5000        12.7368      -999.2500        27.0009       114.3489        29.4369        28.8958        29.4369         0.4165      -999.2500      -999.2500      -999.2500      -999.2500      -999.2500        31.2020         0.5173        24.8549     
 5376.0000        12.7434      -999.2500        25.8347       114.5152        29.8877        30.5720        29.8877         0.4159      -999.2500      -999.2500      -999.2500      -999.2500      -999.2500        31.1488         0.5163        25.0805     
