~Version Information Section
VERS.          2.0                                     : CWLS LOG ASCII Standard
WRAP.          NO                                      : One line per depth step
CREA.          03/10/17                                : LAS Creation Date
~Well Information Section
STRT.ft        1488.5000                               : Start Depth
STOP.ft        9399.5000                               : Stop Depth
STEP.ft        0.5000                                  : Step
NULL.          -999.2500                               : Null Value
COMP.          OCCIDENTAL PETROLEUM CORPORATION (U.K)  : Company
WELL.          15/17-4                                 : Well
FLD .          WILDCAT                                 : Field
LOC .          NORTH SEA                               : Location
LOC1.          -                                       : Location (UTM)
CTRY.          UK                                      : Country
PROV.          UKCS                                    : Province
UWI .          899                                     : UWI Number
API .          -                                       : API Number
SECT.          -                                       : Section
TOWN.          -                                       : Township
RNGE.          -                                       : Range
PDAT.          MSL                                     : Perm Datum
EPD .ft        0.0                                     : Elevation
LMF .          RKB                                     : Log Measured From
DMF .          RKB                                     : Drill Measured From
APD .ft        78.0                                    : Above Perm Datum
EKB .ft        78.0                                    : Elev-Kelly Bushing
EDF .ft        77.0                                    : Elev-Drill Floor
EGL .ft        -476.0                                  : Elev-Ground Level (Water Depth)
TDD .ft        9423.0                                  : Total Depth (Driller)
TDL .ft        9407.0                                  : Total Depth (Logger)
SRVC.          SCHLUMBERGER                            : Service Company
LATI.          58 29 04.0" N                           : Latitude
LONG.          00 17 21.0" E                           : Longitude
DATE.          08-JUL-1973 - 09-AUG-1973               : Logging Date
PROJ.          UKCS                                    : Project
SET .          COMP_WIRE                               : Set
~Curve Information Section
DEPTH.ft                                               : Depth Curve
CALD.in                                                : Caliper (from FDC/CNL/GR)
MCAL.in                                                : Caliper (from MLL/ML)
DPHI.                                                  : Density Porosity
DT.us/ft                                               : Delta-T
GR.gAPI                                                : Gamma Ray (from ISF/BHC/GR)
GRD.gAPI                                               : Gamma Ray (from FDC/CNL/GR)
GRL.gAPI                                               : Gamma Ray (from DLL/GR)
ILD.Ohmm                                               : Deep Induction Standard Processed Resistivity
LLD.Ohmm                                               : Latero-Log Deep (Resistivity)
LLS.Ohmm                                               : Latero-Log Shallow (Resistivity)
MINV.Ohmm                                              : Micro-Inverse Resistivity
MLL.Ohmm                                               : Mll Resistivity
MNOR.Ohmm                                              : Micro-Normal Resistivity
NPHI.pu                                                : Neutron Porosity
SFL.Ohmm                                               : Spherically Focussed log Resistivity
SP.mV                                                  : Spontaneous Potential (from ISF/BHC/GR)
~ASCII Log Data Section
# ...
 6224.5000        12.9378      -999.2500        21.4904       112.9379        56.8241        62.8584        56.8241         1.0092      -999.2500      -999.2500      -999.2500      -999.2500      -999.2500        36.8670         0.9736        34.9020     
 6225.0000        12.8495      -999.2500        21.1174       117.2954        57.4749        64.0530        57.4749         1.0343      -999.2500      -999.2500      -999.2500      -999.2500      -999.2500        37.5461         0.9864        35.5314     
 6225.5000        12.9213      -999.2500        20.7457       120.5866        58.7536        64.8525        58.7536         1.0376      -999.2500      -999.2500      -999.2500      -999.2500      -999.2500        38.9195         0.9895        36.2724     
 6226.0000        13.0220      -999.2500        19.9918       121.8874        60.2883        64.2304        60.2883         1.0237      -999.2500      -999.2500      -999.2500      -999.2500      -999.2500        40.1453         0.9815        36.7384     
 6226.5000        13.0286      -999.2500        20.6442       122.4112        61.3069        61.5078        61.3069         1.0078      -999.2500      -999.2500      -999.2500      -999.2500      -999.2500        40.3164         0.9953        36.8540     
 6227.0000        13.0940      -999.2500        21.5633       121.7554        59.8845        59.5368        59.8845         0.9806      -999.2500      -999.2500      -999.2500      -999.2500      -999.2500        39.8985         1.0328        36.6595     
 6227.5000        13.0580      -999.2500        20.9153       120.2537        56.4574        58.9214        56.4574         0.9346      -999.2500      -999.2500      -999.2500      -999.2500      -999.2500        39.6377         1.0296        36.2446     
 6228.0000        12.9961      -999.2500        20.9366       117.7506        52.7141        57.1590        52.7141         0.8791      -999.2500      -999.2500      -999.2500      -999.2500      -999.2500        39.9678         0.9687        35.3048     
 6228.5000        13.1166      -999.2500        22.3410       114.6385        48.8161        53.3767        48.8161         0.8098      -999.2500      -999.2500      -999.2500      -999.2500      -999.2500        39.1150         0.9093        33.9892     
 6229.0000        13.0801      -999.2500        23.3953       111.5947        44.9222        47.9051        44.9222         0.7382      -999.2500      -999.2500      -999.2500      -999.2500      -999.2500        36.0050         0.8909        32.2731     
 6229.5000        12.9641      -999.2500        24.3019       107.9417        40.6735        41.2830        40.6735         0.6843      -999.2500      -999.2500      -999.2500      -999.2500      -999.2500        34.2751         0.8829        29.9769     
 6230.0000        12.6878      -999.2500        24.7661       105.9672        36.9873        39.1033        36.9873         0.6422      -999.2500      -999.2500      -999.2500      -999.2500      -999.2500        33.6300         0.8486        28.1541     
 6230.5000        12.7929      -999.2500        25.2114       106.6606        35.2567        37.3351        35.2567         0.6089      -999.2500      -999.2500      -999.2500      -999.2500      -999.2500        32.0869         0.8062        27.1944     
 6231.0000        12.8833      -999.2500        25.1091       107.6400        35.4820        37.0766        35.4820         0.5844      -999.2500      -999.2500      -999.2500      -999.2500      -999.2500        31.2715         0.7720        26.8455     
 6231.5000        12.9457      -999.2500        25.2345       107.7715        36.8362        37.0027        36.8362         0.5654      -999.2500      -999.2500      -999.2500      -999.2500      -999.2500        31.4851         0.7507        26.9948     
 6232.0000        12.9616      -999.2500        24.6350       106.5476        38.0301        35.3939        38.0301         0.5561      -999.2500      -999.2500      -999.2500      -999.2500      -999.2500        31.5728         0.7417        27.4895     
 6232.5000        13.0004      -999.2500        23.7458       104.6416        38.9684        35.9967        38.9684         0.5548      -999.2500      -999.2500      -999.2500      -999.2500      -999.2500        30.3868         0.7418        28.1424     
 6233.0000        12.9454      -999.2500        23.4653       103.2189        40.5384        37.5550        40.5384         0.5593      -999.2500      -999.2500      -999.2500      -999.2500      -999.2500        29.0789         0.7542        28.7411     
 6233.5000        12.9059      -999.2500        23.2129       102.5876        42.4479        39.3474        42.4479         0.5736      -999.2500      -999.2500      -999.2500      -999.2500      -999.2500        28.8207         0.7709        29.1237     
 6234.0000        12.9427      -999.2500        23.6043       103.5763        43.7215        41.0089        43.7215         0.5921      -999.2500      -999.2500      -999.2500      -999.2500      -999.2500        29.1704         0.7753        29.3777     
 6234.5000        12.9672      -999.2500        23.3838       106.8639        44.2435        42.9762        44.2435         0.6156      -999.2500      -999.2500      -999.2500      -999.2500      -999.2500        29.5185         0.7667        29.7550     
 6235.0000        12.8749      -999.2500        23.3546       110.8841        45.9327        46.1249        45.9327         0.6464      -999.2500      -999.2500      -999.2500      -999.2500      -999.2500        31.4446         0.7699        30.7269     
 6235.5000        12.7453      -999.2500        24.4198       113.0017        49.6130        50.9253        49.6130         0.6747      -999.2500      -999.2500      -999.2500      -999.2500      -999.2500        34.0135         0.7937        31.8568     
 6236.0000        12.7333      -999.2500        23.9372       112.8135        53.8352        55.8157        53.8352         0.7033      -999.2500      -999.2500      -999.2500      -999.2500      -999.2500        35.2623         0.8261        32.2102     
 6236.5000        12.7325      -999.2500        22.1849       110.5813        57.8261        56.1543        57.8261         0.7377      -999.2500      -999.2500      -999.2500      -999.2500      -999.2500        35.6085         0.8703        32.1611     
 6237.0000        12.7264      -999.2500        20.8806       108.3137        60.4593        53.7484        60.4593         0.7742      -999.2500      -999.2500      -999.2500      -999.2500      -999.2500        34.9322         0.9234        32.1736     
 6237.5000        12.6794      -999.2500        19.6791       109.3517        61.6431        52.9504        61.6431         0.8083      -999.2500      -999.2500      -999.2500      -999.2500      -999.2500        35.5635         0.9641        32.7841     
 6238.0000        12.6310      -999.2500        18.2597       112.1159        62.7783        53.3190        62.7783         0.8336      -999.2500      -999.2500      -999.2500      -999.2500      -999.2500        35.4609         0.9803        33.9392     
 6238.5000        12.6185      -999.2500        18.9248       113.3815        63.3214        56.3596        63.3214         0.8450      -999.2500      -999.2500      -999.2500      -999.2500      -999.2500        35.2391         0.9822        34.8746     
 6239.0000        12.6222      -999.2500        21.4510       112.2894        61.9312        57.9640        61.9312         0.8427      -999.2500      -999.2500      -999.2500      -999.2500      -999.2500        35.5314         0.9801        34.5582     
 6239.5000        12.6647      -999.2500        21.7307       109.1842        59.6437        55.4776        59.6437         0.8335      -999.2500      -999.2500      -999.2500      -999.2500      -999.2500        36.2312         0.9825        33.2427     
 6240.0000        12.6125      -999.2500        22.2579       106.1542        56.0831        52.9997        56.0831         0.8244      -999.2500      -999.2500      -999.2500      -999.2500      -999.2500        35.9535         0.9931        31.9549     
