~Version Information Section
VERS.          2.0                                     : CWLS LOG ASCII Standard
WRAP.          NO                                      : One line per depth step
CREA.          03/10/17                                : LAS Creation Date
~Well Information Section
STRT.ft        1488.5000                               : Start Depth
STOP.ft        9399.5000                               : Stop Depth
STEP.ft        0.5000                                  : Step
NULL.          -999.2500                               : Null Value
COMP.          OCCIDENTAL PETROLEUM CORPORATION (U.K)  : Company
WELL.          15/17-4                                 : Well
FLD .          WILDCAT                                 : Field
LOC .          NORTH SEA                               : Location
LOC1.          -                                       : Location (UTM)
CTRY.          UK                                      : Country
PROV.          UKCS                                    : Province
UWI .          899                                     : UWI Number
API .          -                                       : API Number
SECT.          -                                       : Section
TOWN.          -                                       : Township
RNGE.          -                                       : Range
PDAT.          MSL                                     : Perm Datum
EPD .ft        0.0                                     : Elevation
LMF .          RKB                                     : Log Measured From
DMF .          RKB                                     : Drill Measured From
APD .ft        78.0                                    : Above Perm Datum
EKB .ft        78.0                                    : Elev-Kelly Bushing
EDF .ft        77.0                                    : Elev-Drill Floor
EGL .ft        -476.0                                  : Elev-Ground Level (Water Depth)
TDD .ft        9423.0                                  : Total Depth (Driller)
TDL .ft        9407.0                                  : Total Depth (Logger)
SRVC.          SCHLUMBERGER                            : Service Company
LATI.          58 29 04.0" N                           : Latitude
LONG.          00 17 21.0" E                           : Longitude
DATE.          08-JUL-1973 - 09-AUG-1973               : Logging Date
PROJ.          UKCS                                    : Project
SET .          COMP_WIRE                               : Set
~Curve Information Section
DEPTH.ft                                               : Depth Curve
CALD.in                                                : Caliper (from FDC/CNL/GR)
MCAL.in                                                : Caliper (from MLL/ML)
DPHI.                                                  : Density Porosity
DT.us/ft                                               : Delta-T
GR.gAPI                                                : Gamma Ray (from ISF/BHC/GR)
GRD.gAPI                                               : Gamma Ray (from FDC/CNL/GR)
GRL.gAPI                                               : Gamma Ray (from DLL/GR)
ILD.Ohmm                                               : Deep Induction Standard Processed Resistivity
LLD.Ohmm                                               : Latero-Log Deep (Resistivity)
LLS.Ohmm                                               : Latero-Log Shallow (Resistivity)
MINV.Ohmm                                              : Micro-Inverse Resistivity
MLL.Ohmm                                               : Mll Resistivity
MNOR.Ohmm                                              : Micro-Normal Resistivity
NPHI.pu                                                : Neutron Porosity
SFL.Ohmm                                               : Spherically Focussed log Resistivity
SP.mV                                                  : Spontaneous Potential (from ISF/BHC/GR)
~ASCII Log Data Section
# ...
 4784.5000      -999.2500      -999.2500      -999.2500       147.6427        22.9814        20.4858        22.9814         0.4608      -999.2500      -999.2500      -999.2500      -999.2500      -999.2500      -999.2500         0.3881        24.9413     
 4785.0000      -999.2500      -999.2500      -999.2500       146.7827        24.0145        20.3575        24.0145         0.4646      -999.2500      -999.2500      -999.2500      -999.2500      -999.2500      -999.2500         0.3819        24.8413     
 4785.5000      -999.2500      -999.2500      -999.2500       138.0602        24.0487        20.1015        24.0487         0.4601      -999.2500      -999.2500      -999.2500      -999.2500      -999.2500      -999.2500         0.3838        24.7826     
 4786.0000      -999.2500      -999.2500      -999.2500       130.3154        24.3759        20.8263        24.3759         0.4525      -999.2500      -999.2500      -999.2500      -999.2500      -999.2500      -999.2500         0.4050        24.7832     
 4786.5000      -999.2500      -999.2500      -999.2500       124.0671        25.1133        19.9713        25.1133         0.4570      -999.2500      -999.2500      -999.2500      -999.2500      -999.2500      -999.2500         0.4400        24.8168     
 4787.0000      -999.2500      -999.2500      -999.2500       117.4673        25.5807        19.7293        25.5807         0.4643      -999.2500      -999.2500      -999.2500      -999.2500      -999.2500      -999.2500         0.4359        24.8724     
 4787.5000      -999.2500      -999.2500      -999.2500       115.8497        25.4516        19.4636        25.4516         0.4718      -999.2500      -999.2500      -999.2500      -999.2500      -999.2500      -999.2500         0.4224        24.8482     
 4788.0000      -999.2500      -999.2500      -999.2500       117.6436        25.7720        20.7574        25.7720         0.4737      -999.2500      -999.2500      -999.2500      -999.2500      -999.2500      -999.2500         0.4199        24.8023     
 4788.5000      -999.2500      -999.2500      -999.2500       122.6236        26.2388        22.0746        26.2388         0.4737      -999.2500      -999.2500      -999.2500      -999.2500      -999.2500      -999.2500         0.4366        24.8351     
 4789.0000      -999.2500      -999.2500      -999.2500       128.6234        25.9390        23.3542        25.9390         0.4746      -999.2500      -999.2500      -999.2500      -999.2500      -999.2500      -999.2500         0.4402        24.8866     
 4789.5000      -999.2500      -999.2500      -999.2500       131.6817        24.9866        26.2358        24.9866         0.4780      -999.2500      -999.2500      -999.2500      -999.2500      -999.2500      -999.2500         0.4199        24.8977     
 4790.0000      -999.2500      -999.2500      -999.2500       130.7961        24.1715        29.0831        24.1715         0.4747      -999.2500      -999.2500      -999.2500      -999.2500      -999.2500      -999.2500         0.4141        24.9589     
 4790.5000      -999.2500      -999.2500      -999.2500       125.6467        24.1634        31.1816        24.1634         0.4739      -999.2500      -999.2500      -999.2500      -999.2500      -999.2500      -999.2500         0.4247        25.0679     
 4791.0000      -999.2500      -999.2500      -999.2500       118.3970        24.9034        31.7311        24.9034         0.4704      -999.2500      -999.2500      -999.2500      -999.2500      -999.2500      -999.2500         0.4489        25.1881     
 4791.5000      -999.2500      -999.2500      -999.2500       113.8119        25.2221        31.6570        25.2221         0.4662      -999.2500      -999.2500      -999.2500      -999.2500      -999.2500      -999.2500         0.4525        25.1887     
 4792.0000      -999.2500      -999.2500      -999.2500       114.3889        24.2726        31.4439        24.2726         0.4653      -999.2500      -999.2500      -999.2500      -999.2500      -999.2500      -999.2500         0.4513        25.1626     
 4792.5000      -999.2500      -999.2500      -999.2500       115.9437        23.6852        31.4701        23.6852         0.4654      -999.2500      -999.2500      -999.2500      -999.2500      -999.2500      -999.2500         0.4448        25.0961     
 4793.0000      -999.2500      -999.2500      -999.2500       116.5335        23.2008        30.0128        23.2008         0.4654      -999.2500      -999.2500      -999.2500      -999.2500      -999.2500      -999.2500         0.4382        25.0909     
 4793.5000      -999.2500      -999.2500      -999.2500       116.7002        23.4518        29.9376        23.4518         0.4654      -999.2500      -999.2500      -999.2500      -999.2500      -999.2500      -999.2500         0.4441        25.0915     
 4794.0000      -999.2500      -999.2500        37.4214       116.6611        24.6692        30.9107        24.6692         0.4642      -999.2500      -999.2500      -999.2500      -999.2500      -999.2500        41.8809         0.4549        25.0922     
 4794.5000        12.6801      -999.2500        38.1248       116.8419        25.8850        31.9918        25.8850         0.4583      -999.2500      -999.2500      -999.2500      -999.2500      -999.2500        42.3082         0.4655        25.1122     
 4795.0000        13.0472      -999.2500        39.4458       117.5711        26.8452        32.4979        26.8452         0.4489      -999.2500      -999.2500      -999.2500      -999.2500      -999.2500        43.3720         0.4595        25.1800     
 4795.5000        13.0699      -999.2500        39.7864       119.6254        26.8251        32.9156        26.8251         0.4463      -999.2500      -999.2500      -999.2500      -999.2500      -999.2500        44.6246         0.4409        25.2343     
 4796.0000        13.7035      -999.2500        39.2136       120.5817        26.3687        33.6119        26.3687         0.4437      -999.2500      -999.2500      -999.2500      -999.2500      -999.2500        44.4756         0.4213        25.2853     
 4796.5000        14.0141      -999.2500        37.3160       120.3660        25.6770        33.3511        25.6770         0.4407      -999.2500      -999.2500      -999.2500      -999.2500      -999.2500        42.5586         0.4346        25.3401     
 4797.0000        14.1432      -999.2500        35.6006       119.8470        25.5274        32.0999        25.5274         0.4438      -999.2500      -999.2500      -999.2500      -999.2500      -999.2500        42.4780         0.4431        25.3937     
 4797.5000        13.6828      -999.2500        36.0368       119.7691        25.4887        31.7560        25.4887         0.4466      -999.2500      -999.2500      -999.2500      -999.2500      -999.2500        43.1184         0.4448        25.3394     
 4798.0000        13.6848      -999.2500        37.0819       119.8738        25.8904        31.2305        25.8904         0.4489      -999.2500      -999.2500      -999.2500      -999.2500      -999.2500        43.4146         0.4415        25.2809     
 4798.5000        13.7967      -999.2500        38.4868       120.6219        26.5764        30.4944        26.5764         0.4490      -999.2500      -999.2500      -999.2500      -999.2500      -999.2500        42.6552         0.4374        25.2060     
 4799.0000        14.1165      -999.2500        38.6665       121.9130        26.8504        30.1158        26.8504         0.4490      -999.2500      -999.2500      -999.2500      -999.2500      -999.2500        42.9017         0.4367        25.2575     
 4799.5000        14.1343      -999.2500        38.7857       121.1191        28.7884        30.6047        28.7884         0.4491      -999.2500      -999.2500      -999.2500      -999.2500      -999.2500        43.7912         0.4516        25.2982     
 4800.0000        14.0502      -999.2500        38.8377       120.6120        32.0620        32.0250        32.0620         0.3860      -999.2500      -999.2500      -999.2500      -999.2500      -999.2500        43.7546         0.4952        23.9200     
