~Version Information Section
VERS.          2.0                                     : CWLS LOG ASCII Standard
WRAP.          NO                                      : One line per depth step
CREA.          03/10/17                                : LAS Creation Date
~Well Information Section
STRT.ft        1488.5000                               : Start Depth
STOP.ft        9399.5000                               : Stop Depth
STEP.ft        0.5000                                  : Step
NULL.          -999.2500                               : Null Value
COMP.          OCCIDENTAL PETROLEUM CORPORATION (U.K)  : Company
WELL.          15/17-4                                 : Well
FLD .          WILDCAT                                 : Field
LOC .          NORTH SEA                               : Location
LOC1.          -                                       : Location (UTM)
CTRY.          UK                                      : Country
PROV.          UKCS                                    : Province
UWI .          899                                     : UWI Number
API .          -                                       : API Number
SECT.          -                                       : Section
TOWN.          -                                       : Township
RNGE.          -                                       : Range
PDAT.          MSL                                     : Perm Datum
EPD .ft        0.0                                     : Elevation
LMF .          RKB                                     : Log Measured From
DMF .          RKB                                     : Drill Measured From
APD .ft        78.0                                    : Above Perm Datum
EKB .ft        78.0                                    : Elev-Kelly Bushing
EDF .ft        77.0                                    : Elev-Drill Floor
EGL .ft        -476.0                                  : Elev-Ground Level (Water Depth)
TDD .ft        9423.0                                  : Total Depth (Driller)
TDL .ft        9407.0                                  : Total Depth (Logger)
SRVC.          SCHLUMBERGER                            : Service Company
LATI.          58 29 04.0" N                           : Latitude
LONG.          00 17 21.0" E                           : Longitude
DATE.          08-JUL-1973 - 09-AUG-1973               : Logging Date
PROJ.          UKCS                                    : Project
SET .          COMP_WIRE                               : Set
~Curve Information Section
DEPTH.ft                                               : Depth Curve
CALD.in                                                : Caliper (from FDC/CNL/GR)
MCAL.in                                                : Caliper (from MLL/ML)
DPHI.                                                  : Density Porosity
DT.us/ft                                               : Delta-T
GR.gAPI                                                : Gamma Ray (from ISF/BHC/GR)
GRD.gAPI                                               : Gamma Ray (from FDC/CNL/GR)
GRL.gAPI                                               : Gamma Ray (from DLL/GR)
ILD.Ohmm                                               : Deep Induction Standard Processed Resistivity
LLD.Ohmm                                               : Latero-Log Deep (Resistivity)
LLS.Ohmm                                               : Latero-Log Shallow (Resistivity)
MINV.Ohmm                                              : Micro-Inverse Resistivity
MLL.Ohmm                                               : Mll Resistivity
MNOR.Ohmm                                              : Micro-Normal Resistivity
NPHI.pu                                                : Neutron Porosity
SFL.Ohmm                                               : Spherically Focussed log Resistivity
SP.mV                                                  : Spontaneous Potential (from ISF/BHC/GR)
~ASCII Log Data Section
# ...
 8224.5000        13.7731        14.3395        21.1624        98.2185        45.0381        46.0356        45.0381         2.2691         2.1723         2.4121         0.5418         0.5330         0.5390        40.7487         1.7547        49.8949     
 8225.0000        13.6271        14.2216        18.8482        98.4006        47.1377        49.0643        47.1377         2.2420         2.1920         2.4051         0.5662         0.5795         0.5143        40.1190         1.6369        49.9385     
 8225.5000        13.6781        14.2619        17.5123        95.2687        49.3405        49.4923        49.3405         2.1920         2.1754         2.4194         0.7435         0.9769         0.4652        38.0647         1.6747        50.1269     
 8226.0000        13.6272        14.3006        20.4053        92.3123        50.8877        50.1640        50.8877         2.0886         2.0879         2.2907         0.4621         0.6689         0.4093        36.3297         1.6819        50.4348     
 8226.5000        13.5438        14.2718        21.3914        93.7088        50.7448        49.3805        50.7448         2.0349         1.9724         2.1622         0.3619         0.4979         0.3911        35.0747         1.6529        50.6736     
 8227.0000        13.5195        14.3107        19.7517        96.7096        48.5192        46.6543        48.5192         2.0672         1.9596         2.1362         0.5912         0.9146         0.4286        34.7618         1.5805        50.7964     
 8227.5000        13.4983        14.3397        17.9319        96.9142        46.1872        42.8963        46.1872         2.0877         1.9297         2.0070         0.4451         0.5615         0.4751        33.6838         1.5274        50.8615     
 8228.0000        13.4772        14.3055        19.5806        97.2899        44.9900        42.7457        44.9900         2.1096         1.7968         1.9029         0.5050         0.6236         0.5194        31.7863         1.6449        50.8780     
 8228.5000        13.4560        14.2933        14.5457       100.3896        43.9509        43.7548        43.9509         2.1438         1.7982         1.9585         1.1090         1.5121         0.5638        30.1844         1.8522        50.8372     
 8229.0000        13.5128        14.2988        13.9557       101.2575        42.1571        44.2003        42.1571         2.1904         1.8940         2.0492         0.5858         0.9882         0.6082        29.1027         1.9452        50.7941     
 8229.5000        13.5439        14.2884        14.1836        97.2073        40.3514        43.3973        40.3514         2.2552         1.9886         2.2263         0.8168         1.7380         0.6493        29.3132         1.9353        50.7634     
 8230.0000        13.5326        14.2860        15.2321        96.3493        39.1249        43.0201        39.1249         2.2969         2.0747         2.4205         0.7739         1.0478         0.6497        29.6016         1.8269        50.7289     
 8230.5000        13.5437        14.2932        15.1315        99.7175        38.4662        42.1187        38.4662         2.3036         2.1643         2.3810         0.4577         0.8323         0.6357        28.8221         1.7368        50.7828     
 8231.0000        13.5704        14.3032        13.6260       100.9056        39.1406        42.0382        39.1406         2.2591         2.2455         2.4008         0.8904         1.5115         0.6553        29.6092         1.8337        50.9304     
 8231.5000        13.5937        14.3143        15.9688       102.0966        40.7613        43.8676        40.7613         2.1241         2.2683         2.4024         0.6069         0.7019         0.6268        31.3431         1.8421        51.0469     
 8232.0000        13.5564        14.3013        19.9808       100.7644        42.6042        46.6954        42.6042         1.9914         2.2572         2.3314         0.7362         0.9345         0.5704        33.2764         1.6679        51.0824     
 8232.5000        13.4809        14.3122        22.3408        97.9084        44.1356        48.2444        44.1356         1.9212         2.1765         2.3259         0.7659         0.8875         0.5135        36.2830         1.5371        51.0565     
 8233.0000        13.4174        14.2497        23.1171        98.4435        45.8702        48.3731        45.8702         1.8697         2.0456         2.2781         0.4879         0.6297         0.4565        36.9140         1.4470        50.9826     
 8233.5000        13.3514        14.1463        22.9125       100.5181        47.3694        49.4309        47.3694         1.8422         1.9100         2.0726         0.3602         0.6406         0.4076        35.5550         1.4111        50.8497     
 8234.0000        13.5909        14.0386        20.3388       103.5248        47.5167        48.9134        47.5167         1.8408         1.7831         1.8825         0.4894         0.6910         0.3879        34.8523         1.4649        50.6892     
 8234.5000        13.5985        14.0440        17.9146       105.3644        47.1790        48.0191        47.1790         1.8642         1.7065         1.8280         0.5677         0.6609         0.3882        33.8899         1.5156        50.5640     
 8235.0000        13.5993        14.1238        15.9179       104.7939        47.2697        47.3940        47.2697         1.9066         1.7154         1.7987         0.4246         0.6040         0.4219        32.0118         1.5607        50.5698     
 8235.5000        13.5590        14.0378        13.9789       106.1826        47.7358        47.5538        47.7358         1.9560         1.8291         1.7884         0.6355         1.0559         0.5091        29.9396         1.6591        50.7165     
 8236.0000        13.4966        14.0228        12.1707       106.7479        48.2136        47.6694        48.2136         1.9929         1.9519         1.8636         0.5778         0.9726         0.6070        29.4003         1.7834        50.8441     
 8236.5000        13.5238        14.0863        11.3543       100.7289        48.5193        49.4957        48.5193         1.9855         2.0749         2.0524         0.8502         1.2907         0.6764        29.9901         1.8614        50.8805     
 8237.0000        13.5419        14.0935        12.2225        95.0584        48.5879        49.7048        48.5879         1.9360         2.1980         2.2493         0.6350         1.0510         0.6489        31.1463         1.8101        50.8304     
 8237.5000        13.5273        14.1278        13.5181        97.2961        48.4680        50.8404        48.4680         1.8725         2.3036         2.4328         0.6157         1.3035         0.5747        32.8513         1.6573        50.7801     
 8238.0000        13.5053        14.2024        16.3064       103.7110        48.1820        50.6316        48.1820         1.8169         2.3352         2.4649         0.6608         0.8227         0.4983        35.0085         1.5167        50.7249     
 8238.5000        13.6335        14.2557        19.5448       105.6427        47.4967        52.4783        47.4967         1.7856         2.1741         2.3344         0.3366         0.7475         0.4220        37.9985         1.4212        50.6251     
 8239.0000        13.6993        14.1917        23.0569       104.2692        46.4890        52.5665        46.4890         1.7706         1.9483         2.1044         0.4597         0.7359         0.3566        39.6828         1.2862        50.5897     
 8239.5000        13.7421        14.1347        25.4314       103.2783        45.5199        50.5687        45.5199         1.7516         1.7061         1.7953         0.3213         0.5268         0.3347        36.9579         1.2711        50.6393     
 8240.0000        13.6948        14.1106        17.6356       101.3219        44.5157        48.6719        44.5157         1.7352         1.4895         1.5439         0.4281         1.0265         0.3678        32.5889         1.4514        50.6793     
