~Version Information Section
VERS.          2.0                                     : CWLS LOG ASCII Standard
WRAP.          NO                                      : One line per depth step
CREA.          03/10/17                                : LAS Creation Date
~Well Information Section
STRT.ft        1488.5000                               : Start Depth
STOP.ft        9399.5000                               : Stop Depth
STEP.ft        0.5000                                  : Step
NULL.          -999.2500                               : Null Value
COMP.          OCCIDENTAL PETROLEUM CORPORATION (U.K)  : Company
WELL.          15/17-4                                 : Well
FLD .          WILDCAT                                 : Field
LOC .          NORTH SEA                               : Location
LOC1.          -                                       : Location (UTM)
CTRY.          UK                                      : Country
PROV.          UKCS                                    : Province
UWI .          899                                     : UWI Number
API .          -                                       : API Number
SECT.          -                                       : Section
TOWN.          -                                       : Township
RNGE.          -                                       : Range
PDAT.          MSL                                     : Perm Datum
EPD .ft        0.0                                     : Elevation
LMF .          RKB                                     : Log Measured From
DMF .          RKB                                     : Drill Measured From
APD .ft        78.0                                    : Above Perm Datum
EKB .ft        78.0                                    : Elev-Kelly Bushing
EDF .ft        77.0                                    : Elev-Drill Floor
EGL .ft        -476.0                                  : Elev-Ground Level (Water Depth)
TDD .ft        9423.0                                  : Total Depth (Driller)
TDL .ft        9407.0                                  : Total Depth (Logger)
SRVC.          SCHLUMBERGER                            : Service Company
LATI.          58 29 04.0" N                           : Latitude
LONG.          00 17 21.0" E                           : Longitude
DATE.          08-JUL-1973 - 09-AUG-1973               : Logging Date
PROJ.          UKCS                                    : Project
SET .          COMP_WIRE                               : Set
~Curve Information Section
DEPTH.ft                                               : Depth Curve
CALD.in                                                : Caliper (from FDC/CNL/GR)
MCAL.in                                                : Caliper (from MLL/ML)
DPHI.                                                  : Density Porosity
DT.us/ft                                               : Delta-T
GR.gAPI                                                : Gamma Ray (from ISF/BHC/GR)
GRD.gAPI                                               : Gamma Ray (from FDC/CNL/GR)
GRL.gAPI                                               : Gamma Ray (from DLL/GR)
ILD.Ohmm                                               : Deep Induction Standard Processed Resistivity
LLD.Ohmm                                               : Latero-Log Deep (Resistivity)
LLS.Ohmm                                               : Latero-Log Shallow (Resistivity)
MINV.Ohmm                                              : Micro-Inverse Resistivity
MLL.Ohmm                                               : Mll Resistivity
MNOR.Ohmm                                              : Micro-Normal Resistivity
NPHI.pu                                                : Neutron Porosity
SFL.Ohmm                                               : Spherically Focussed log Resistivity
SP.mV                                                  : Spontaneous Potential (from ISF/BHC/GR)
~ASCII Log Data Section
# ...
 7360.5000        13.4178      -999.2500         6.7751        72.4001        16.1674        14.9311        16.1674         4.0542      -999.2500      -999.2500      -999.2500      -999.2500      -999.2500        16.7962         2.9199        40.9296     
 7361.0000        13.4590      -999.2500         6.9117        72.9850        16.0646        14.4764        16.0646         3.9316      -999.2500      -999.2500      -999.2500      -999.2500      -999.2500        16.8763         2.8454        41.0279     
 7361.5000        13.5076      -999.2500         7.4300        73.0123        16.0266        14.2602        16.0266         3.7834      -999.2500      -999.2500      -999.2500      -999.2500      -999.2500        16.7822         2.8369        41.1525     
 7362.0000        13.5110      -999.2500         7.1978        72.8227        16.0976        14.4005        16.0976         3.6991      -999.2500      -999.2500      -999.2500      -999.2500      -999.2500        16.4578         2.8616        41.4604     
 7362.5000        13.5115      -999.2500         6.1889        72.3274        16.3189        14.7119        16.3189         3.7223      -999.2500      -999.2500      -999.2500      -999.2500      -999.2500        15.8665         2.8879        41.7119     
 7363.0000        13.5120      -999.2500         5.5670        71.9234        16.8449        14.8363        16.8449         3.7992      -999.2500      -999.2500      -999.2500      -999.2500      -999.2500        15.1344         2.9010        41.8005     
 7363.5000        13.5055      -999.2500         5.4056        71.7174        17.8754        13.9605        17.8754         3.8781      -999.2500      -999.2500      -999.2500      -999.2500      -999.2500        14.7976         2.9175        41.8346     
 7364.0000        13.4985      -999.2500         5.6634        71.5514        19.2416        12.9699        19.2416         3.9547      -999.2500      -999.2500      -999.2500      -999.2500      -999.2500        14.7995         2.9178        41.8217     
 7364.5000        13.5325      -999.2500         4.8031        71.2047        19.2543        12.1910        19.2543         4.0197      -999.2500      -999.2500      -999.2500      -999.2500      -999.2500        14.2471         2.8916        41.7754     
 7365.0000        13.5338      -999.2500         3.6354        70.5972        18.2053        11.7179        18.2053         4.0718      -999.2500      -999.2500      -999.2500      -999.2500      -999.2500        13.7851         2.9263        41.7039     
 7365.5000        13.5343      -999.2500         3.1903        69.9179        17.5602        12.2732        17.5602         4.1245      -999.2500      -999.2500      -999.2500      -999.2500      -999.2500        13.4968         3.0561        41.5944     
 7366.0000        13.5246      -999.2500         3.3422        69.2412        17.0623        13.3009        17.0623         4.1998      -999.2500      -999.2500      -999.2500      -999.2500      -999.2500        13.4385         3.0970        41.4264     
 7366.5000        13.5140      -999.2500         3.6031        68.7559        16.5973        13.8675        16.5973         4.2962      -999.2500      -999.2500      -999.2500      -999.2500      -999.2500        13.7925         2.9938        41.3279     
 7367.0000        13.4662      -999.2500         2.5825        68.5495        16.2614        14.0405        16.2614         4.3878      -999.2500      -999.2500      -999.2500      -999.2500      -999.2500        13.7546         3.0529        41.2813     
 7367.5000        13.3997      -999.2500         1.2612        68.7673        16.4271        14.0450        16.4271         4.4723      -999.2500      -999.2500      -999.2500      -999.2500      -999.2500        13.8490         3.2635        41.4262     
 7368.0000        13.3977      -999.2500         0.0834        69.4662        17.3344        14.2723        17.3344         4.5478      -999.2500      -999.2500      -999.2500      -999.2500      -999.2500        14.3302         3.2691        41.8022     
 7368.5000        13.3642      -999.2500         1.0784        70.2915        18.1552        14.7542        18.1552         4.6225      -999.2500      -999.2500      -999.2500      -999.2500      -999.2500        14.0424         3.1997        42.0851     
 7369.0000        13.3475      -999.2500         2.0864        70.7012        17.9758        15.0452        17.9758         4.7199      -999.2500      -999.2500      -999.2500      -999.2500      -999.2500        13.6932         3.2749        42.2562     
 7369.5000        13.3333      -999.2500         3.4950        70.6475        17.2476        15.0659        17.2476         4.8621      -999.2500      -999.2500      -999.2500      -999.2500      -999.2500        13.6294         3.3301        42.3759     
 7370.0000        13.3261      -999.2500         2.9463        70.0449        16.4882        14.4789        16.4882         4.9999      -999.2500      -999.2500      -999.2500      -999.2500      -999.2500        13.2544         3.2977        42.4178     
 7370.5000        13.3404      -999.2500         2.1016        69.3244        15.8453        13.9053        15.8453         5.0959      -999.2500      -999.2500      -999.2500      -999.2500      -999.2500        12.5920         3.4461        42.4611     
 7371.0000        13.3201      -999.2500         1.7768        68.8246        15.5267        13.0019        15.5267         5.1495      -999.2500      -999.2500      -999.2500      -999.2500      -999.2500        12.4328         3.7284        42.6087     
 7371.5000        13.3119      -999.2500         4.1774        68.3753        15.8968        13.3836        15.8968         5.1273      -999.2500      -999.2500      -999.2500      -999.2500      -999.2500        12.8850         3.7644        42.8214     
 7372.0000        13.3044      -999.2500         5.0306        68.4673        16.5847        14.3456        16.5847         5.0601      -999.2500      -999.2500      -999.2500      -999.2500      -999.2500        13.6364         3.6185        42.8949     
 7372.5000        13.2944      -999.2500         5.1261        69.3761        17.1460        15.0828        17.1460         4.9883      -999.2500      -999.2500      -999.2500      -999.2500      -999.2500        13.8520         3.5704        42.9152     
 7373.0000        13.2834      -999.2500         4.2449        70.5543        17.2418        14.9487        17.2418         4.8992      -999.2500      -999.2500      -999.2500      -999.2500      -999.2500        14.1754         3.5649        43.0624     
 7373.5000        13.2725      -999.2500         4.6183        71.7060        16.8991        15.0322        16.8991         4.7974      -999.2500      -999.2500      -999.2500      -999.2500      -999.2500        14.4393         3.3986        43.2290     
 7374.0000        13.2623      -999.2500         4.4529        72.4025        16.7397        15.3863        16.7397         4.6959      -999.2500      -999.2500      -999.2500      -999.2500      -999.2500        14.3714         3.1522        43.3060     
 7374.5000        13.2542      -999.2500         4.8283        71.8925        16.7515        15.6577        16.7515         4.6307      -999.2500      -999.2500      -999.2500      -999.2500      -999.2500        13.9900         3.1060        43.1904     
 7375.0000        13.2461      -999.2500         5.3081        70.7782        16.8098        15.1650        16.8098         4.6164      -999.2500      -999.2500      -999.2500      -999.2500      -999.2500        13.4359         3.3047        43.0382     
 7375.5000        13.2547      -999.2500         5.0145        70.2436        16.8910        15.2205        16.8910         4.6757      -999.2500      -999.2500      -999.2500      -999.2500      -999.2500        13.4623         3.5018        43.0037     
 7376.0000        13.2644      -999.2500         5.0721        70.4077        16.9256        15.2498        16.9256         4.7931      -999.2500      -999.2500      -999.2500      -999.2500      -999.2500        13.6309         3.5108        42.9602     
