~Version Information Section
VERS.          2.0                                     : CWLS LOG ASCII Standard
WRAP.          NO                                      : One line per depth step
CREA.          03/10/17                                : LAS Creation Date
~Well Information Section
STRT.ft        1488.5000                               : Start Depth
STOP.ft        9399.5000                               : Stop Depth
STEP.ft        0.5000                                  : Step
NULL.          -999.2500                               : Null Value
COMP.          OCCIDENTAL PETROLEUM CORPORATION (U.K)  : Company
WELL.          15/17-4                                 : Well
FLD .          WILDCAT                                 : Field
LOC .          NORTH SEA                               : Location
LOC1.          -                                       : Location (UTM)
CTRY.          UK                                      : Country
PROV.          UKCS                                    : Province
UWI .          899                                     : UWI Number
API .          -                                       : API Number
SECT.          -                                       : Section
TOWN.          -                                       : Township
RNGE.          -                                       : Range
PDAT.          MSL                                     : Perm Datum
EPD .ft        0.0                                     : Elevation
LMF .          RKB                                     : Log Measured From
DMF .          RKB                                     : Drill Measured From
APD .ft        78.0                                    : Above Perm Datum
EKB .ft        78.0                                    : Elev-Kelly Bushing
EDF .ft        77.0                                    : Elev-Drill Floor
EGL .ft        -476.0                                  : Elev-Ground Level (Water Depth)
TDD .ft        9423.0                                  : Total Depth (Driller)
TDL .ft        9407.0                                  : Total Depth (Logger)
SRVC.          SCHLUMBERGER                            : Service Company
LATI.          58 29 04.0" N                           : Latitude
LONG.          00 17 21.0" E                           : Longitude
DATE.          08-JUL-1973 - 09-AUG-1973               : Logging Date
PROJ.          UKCS                                    : Project
SET .          COMP_WIRE                               : Set
~Curve Information Section
DEPTH.ft                                               : Depth Curve
CALD.in                                                : Caliper (from FDC/CNL/GR)
MCAL.in                                                : Caliper (from MLL/ML)
DPHI.                                                  : Density Porosity
DT.us/ft                                               : Delta-T
GR.gAPI                                                : Gamma Ray (from ISF/BHC/GR)
GRD.gAPI                                               : Gamma Ray (from FDC/CNL/GR)
GRL.gAPI                                               : Gamma Ray (from DLL/GR)
ILD.Ohmm                                               : Deep Induction Standard Processed Resistivity
LLD.Ohmm                                               : Latero-Log Deep (Resistivity)
LLS.Ohmm                                               : Latero-Log Shallow (Resistivity)
MINV.Ohmm                                              : Micro-Inverse Resistivity
MLL.Ohmm                                               : Mll Resistivity
MNOR.Ohmm                                              : Micro-Normal Resistivity
NPHI.pu                                                : Neutron Porosity
SFL.Ohmm                                               : Spherically Focussed log Resistivity
SP.mV                                                  : Spontaneous Potential (from ISF/BHC/GR)
~ASCII Log Data Section
# ...
 8512.5000        12.3414        12.6119        12.9983        74.9475        25.0861        26.2255        25.0861        19.4555        43.4673        32.0427         1.2965         3.0244         1.1770        16.2304         8.6583        31.6355     
 8513.0000        12.3510        12.7610        13.4089        76.2639        25.3552        25.8413        25.3552        19.4555        33.8904        25.2160         2.0024         5.3122         1.7118        18.6826         8.4487        31.6820     
 8513.5000        12.3605        12.7246        19.7091        75.8930        25.2741        25.9613        25.2741        19.4555        25.6078        21.3182         1.9823         6.5707         1.7794        19.0293         7.5363        31.7523     
 8514.0000        12.3620        12.6825        19.9072        71.7378        25.0893        25.9902        25.0893        19.4555        24.0489        20.0877         1.2332         4.4170         1.2908        14.4174         7.7409        31.8644     
 8514.5000        12.3629        12.7328        13.9185        66.5417        25.1948        25.3790        25.1948        19.4556        25.5635        22.4256         2.0785         7.3836         1.6135         8.7414         9.3816        32.0194     
 8515.0000        12.3638        12.7166         6.3919        62.3035        25.4931        24.8837        25.4931        19.4556        35.4005        24.8549         2.0924         7.4907         1.7725         6.8886        10.1944        32.1736     
 8515.5000        12.3598        12.5769         3.9759        60.4544        25.9224        25.5322        25.9224        19.4556        46.4122        28.5981         1.1641         8.1749         1.3732         6.8324         9.5561        32.3768     
 8516.0000        12.3456        12.4270         7.1697        62.8581        26.5112        27.9308        26.5112        19.4080        55.0236        40.0227         0.8868         3.2123         0.9475         8.3437         9.3674        32.5525     
 8516.5000        12.3314        12.3561         7.4488        68.9833        27.4087        30.8859        27.4087        18.2140        44.2943        33.7943         0.8347         2.6972         0.8205        11.5446         8.4962        32.4612     
 8517.0000        12.3172        12.3530        11.5853        75.0634        28.7798        31.4248        28.7798        15.6283        23.9931        20.8694         0.9246         2.5558         0.8430        16.1464         6.0871        32.2404     
 8517.5000        12.2933        12.3846        16.6751        80.8584        30.6979        31.7988        30.6979        13.1382        15.1600        10.8349         1.0153         2.7351         0.9001        21.4632         4.4953        32.0636     
 8518.0000        12.2576        12.4230        22.9375        86.3761        32.9828        33.1788        32.9828        10.8742         9.4106         6.6160         0.9263         2.4160         0.8560        24.0491         4.2694        31.8928     
 8518.5000        12.2309        12.4573        26.1797        89.3952        35.3261        34.8086        35.3261         8.5509         7.1000         5.1736         0.9468         2.3659         0.8655        24.9746         4.2977        31.9051     
 8519.0000        12.2319        12.4927        25.7349        90.6424        37.8164        35.9380        37.8164         6.6395         6.0538         4.6499         0.9878         2.3734         0.9262        25.3708         4.0477        32.0691     
 8519.5000        12.2328        12.5339        24.6494        91.5332        40.4045        36.6307        40.4045         5.2755         5.4447         4.3315         0.9416         2.2678         0.9482        25.6472         3.4836        32.1858     
 8520.0000        12.2384        12.5767        25.3764        92.2720        42.9926        37.6912        42.9926         4.2534         4.8469         4.0529         0.8938         2.2297         0.9411        25.8165         3.0199        32.2764     
 8520.5000        12.2469        12.6194        24.4885        92.8816        45.8411        39.8221        45.8411         3.4661         4.3466         3.5701         0.7832         2.3035         0.8023        25.9264         2.7382        32.5055     
 8521.0000        12.2555        12.6621        23.7670        93.4259        48.5380        43.5106        48.5380         2.9164         3.8226         3.0756         0.8604         2.2423         0.7982        25.8941         2.4627        32.8947     
 8521.5000        12.2804        12.7060        23.7126        93.8124        50.4630        48.4689        50.4630         2.5075         3.2890         2.6785         0.8742         2.2462         0.8575        25.5359         2.2409        33.3919     
 8522.0000        12.2921        12.7630        23.3258        93.9677        52.0068        53.9168        52.0068         2.2130         2.9802         2.3514         1.0040         2.6116         0.9188        25.2266         2.0669        34.0491     
 8522.5000        12.2779        12.8455        22.1365        93.8465        53.5143        59.6186        53.5143         2.0498         2.7197         2.1374         1.1030         2.4968         0.9799        24.9307         1.9208        34.8603     
 8523.0000        12.2637        12.9441        20.7491        93.4424        55.0557        62.6574        55.0557         1.9239         2.4591         1.9976         1.0157         2.3460         1.0048        25.4338         1.8303        35.7486     
 8523.5000        12.3039        13.0567        19.2517        92.4457        56.6793        64.9337        56.6793         1.7984         2.2758         1.9107         1.1789         2.7116         0.9369        25.7941         1.7907        36.6868     
 8524.0000        12.3742        13.1600        17.4784        91.4589        58.5775        64.3690        58.5775         1.6949         2.3443         1.8955         0.5821         3.4462         0.8258        26.3631         1.8537        37.5446     
 8524.5000        12.4566        13.1539        15.6269        91.1466        60.1043        63.3776        60.1043         1.6172         2.4420         1.9567         0.8796         3.0200         0.9022        27.1519         1.9707        38.2402     
 8525.0000        12.6366        13.0967        13.7790        91.4284        60.5229        61.1552        60.5229         1.5631         2.5619         2.0255         1.0303         2.1752         1.0111        28.6258         1.9057        38.7417     
 8525.5000        12.5839        13.2902        17.6371        92.8236        60.4244        58.5954        60.4244         1.5210         2.6212         2.0686         0.9603         2.0950         0.9317        29.4406         1.7240        39.1269     
 8526.0000        12.5638        13.7492        22.2177        95.1553        60.2791        58.7266        60.2791         1.4811         2.5780         2.0484         1.1140         2.3215         0.7508        31.2743         1.6206        39.9620     
 8526.5000        12.6100        14.2194        22.9808        97.5076        59.9641        59.0158        59.9641         1.4491         2.4035         1.9301         0.5150         0.6625         0.4443        34.3602         1.5191        41.1031     
 8527.0000        13.1172        14.5347        22.4092        99.7938        59.1132        59.4266        59.1132         1.4279         2.2049         1.6760         0.2153         0.6291         0.2430        38.1701         1.3859        41.8068     
 8527.5000        14.0058        14.4313        27.2527       102.1261        57.6317        60.2617        57.6317         1.4049         2.0058         1.5656         0.5374         1.3957         0.5906        37.9977         1.3518        41.9481     
 8528.0000        14.1291        14.2122        27.1093       101.5591        56.0160        62.7922        56.0160         1.3821         1.8477         1.5320         1.1771         1.2679         1.1139        39.3729         1.3759        41.8083     
