~Version Information Section
VERS.          2.0                                     : CWLS LOG ASCII Standard
WRAP.          NO                                      : One line per depth step
CREA.          03/10/17                                : LAS Creation Date
~Well Information Section
STRT.ft        1488.5000                               : Start Depth
STOP.ft        9399.5000                               : Stop Depth
STEP.ft        0.5000                                  : Step
NULL.          -999.2500                               : Null Value
COMP.          OCCIDENTAL PETROLEUM CORPORATION (U.K)  : Company
WELL.          15/17-4                                 : Well
FLD .          WILDCAT                                 : Field
LOC .          NORTH SEA                               : Location
LOC1.          -                                       : Location (UTM)
CTRY.          UK                                      : Country
PROV.          UKCS                                    : Province
UWI .          899                                     : UWI Number
API .          -                                       : API Number
SECT.          -                                       : Section
TOWN.          -                                       : Township
RNGE.          -                                       : Range
PDAT.          MSL                                     : Perm Datum
EPD .ft        0.0                                     : Elevation
LMF .          RKB                                     : Log Measured From
DMF .          RKB                                     : Drill Measured From
APD .ft        78.0                                    : Above Perm Datum
EKB .ft        78.0                                    : Elev-Kelly Bushing
EDF .ft        77.0                                    : Elev-Drill Floor
EGL .ft        -476.0                                  : Elev-Ground Level (Water Depth)
TDD .ft        9423.0                                  : Total Depth (Driller)
TDL .ft        9407.0                                  : Total Depth (Logger)
SRVC.          SCHLUMBERGER                            : Service Company
LATI.          58 29 04.0" N                           : Latitude
LONG.          00 17 21.0" E                           : Longitude
DATE.          08-JUL-1973 - 09-AUG-1973               : Logging Date
PROJ.          UKCS                                    : Project
SET .          COMP_WIRE                               : Set
~Curve Information Section
DEPTH.ft                                               : Depth Curve
CALD.in                                                : Caliper (from FDC/CNL/GR)
MCAL.in                                                : Caliper (from MLL/ML)
DPHI.                                                  : Density Porosity
DT.us/ft                                               : Delta-T
GR.gAPI                                                : Gamma Ray (from ISF/BHC/GR)
GRD.gAPI                                               : Gamma Ray (from FDC/CNL/GR)
GRL.gAPI                                               : Gamma Ray (from DLL/GR)
ILD.Ohmm                                               : Deep Induction Standard Processed Resistivity
LLD.Ohmm                                               : Latero-Log Deep (Resistivity)
LLS.Ohmm                                               : Latero-Log Shallow (Resistivity)
MINV.Ohmm                                              : Micro-Inverse Resistivity
MLL.Ohmm                                               : Mll Resistivity
MNOR.Ohmm                                              : Micro-Normal Resistivity
NPHI.pu                                                : Neutron Porosity
SFL.Ohmm                                               : Spherically Focussed log Resistivity
SP.mV                                                  : Spontaneous Potential (from ISF/BHC/GR)
~ASCII Log Data Section
# ...
 7072.5000        12.5769      -999.2500        20.8642       105.0976        46.6726        43.9336        46.6726         1.0961      -999.2500      -999.2500      -999.2500      -999.2500      -999.2500        31.7875         1.0519        41.4497     
 7073.0000        12.5658      -999.2500        20.4168       104.3468        47.5547        41.3017        47.5547         1.1266      -999.2500      -999.2500      -999.2500      -999.2500      -999.2500        31.1846         1.0928        41.3924     
 7073.5000        12.5820      -999.2500        20.4985       103.2352        48.3092        40.7849        48.3092         1.1600      -999.2500      -999.2500      -999.2500      -999.2500      -999.2500        30.7090         1.1523        41.3061     
 7074.0000        12.6164      -999.2500        20.3935       101.8632        48.6443        39.6346        48.6443         1.2094      -999.2500      -999.2500      -999.2500      -999.2500      -999.2500        30.5196         1.2230        41.4108     
 7074.5000        12.6195      -999.2500        20.1217       100.4067        48.0607        41.1374        48.0607         1.2578      -999.2500      -999.2500      -999.2500      -999.2500      -999.2500        31.3494         1.2922        41.6909     
 7075.0000        12.6305      -999.2500        19.6309        98.9333        47.0956        42.2405        47.0956         1.2945      -999.2500      -999.2500      -999.2500      -999.2500      -999.2500        31.5199         1.3162        42.1106     
 7075.5000        12.6798      -999.2500        18.5482        97.7243        46.5629        41.7016        46.5629         1.3216      -999.2500      -999.2500      -999.2500      -999.2500      -999.2500        31.1789         1.3135        42.6866     
 7076.0000        12.7633      -999.2500        17.5386        97.3504        46.4069        40.1922        46.4069         1.3561      -999.2500      -999.2500      -999.2500      -999.2500      -999.2500        29.7850         1.3501        43.4177     
 7076.5000        12.8597      -999.2500        16.6847        98.0118        46.2167        40.5466        46.2167         1.4045      -999.2500      -999.2500      -999.2500      -999.2500      -999.2500        29.0390         1.3724        44.0843     
 7077.0000        12.9698      -999.2500        15.6998        99.4686        45.5564        41.0311        45.5564         1.4648      -999.2500      -999.2500      -999.2500      -999.2500      -999.2500        30.1838         1.2896        44.4679     
 7077.5000        12.9683      -999.2500        15.5411       100.7350        44.1408        38.6509        44.1408         1.5303      -999.2500      -999.2500      -999.2500      -999.2500      -999.2500        30.7233         1.1995        44.6158     
 7078.0000        12.9357      -999.2500        17.8085       100.5114        41.4146        37.2176        41.4146         1.5618      -999.2500      -999.2500      -999.2500      -999.2500      -999.2500        30.0840         1.1905        44.5915     
 7078.5000        12.9354      -999.2500        17.6024        98.1983        38.8424        36.1143        38.8424         1.5628      -999.2500      -999.2500      -999.2500      -999.2500      -999.2500        29.6627         1.2600        44.3662     
 7079.0000        12.9441      -999.2500        17.9592        94.5762        37.7898        36.3518        37.7898         1.5596      -999.2500      -999.2500      -999.2500      -999.2500      -999.2500        28.6785         1.4752        43.9526     
 7079.5000        13.0101      -999.2500        17.9083        92.0167        37.8771        38.2367        37.8771         1.5450      -999.2500      -999.2500      -999.2500      -999.2500      -999.2500        27.3858         1.7351        43.4562     
 7080.0000        13.1258      -999.2500        16.9262        92.3748        39.0443        40.0765        39.0443         1.5147      -999.2500      -999.2500      -999.2500      -999.2500      -999.2500        26.9511         1.7357        42.8557     
 7080.5000        13.2325      -999.2500        16.2709        95.2487        40.5421        41.0312        40.5421         1.4820      -999.2500      -999.2500      -999.2500      -999.2500      -999.2500        27.2576         1.4734        42.1132     
 7081.0000        13.2200      -999.2500        17.6669        98.3539        41.4334        40.6155        41.4334         1.4519      -999.2500      -999.2500      -999.2500      -999.2500      -999.2500        28.0945         1.2509        41.5112     
 7081.5000        12.9101      -999.2500        19.4398       100.1192        41.6516        40.3837        41.6516         1.4206      -999.2500      -999.2500      -999.2500      -999.2500      -999.2500        29.0103         1.1754        41.3614     
 7082.0000        12.7603      -999.2500        19.2006       100.1433        41.5356        41.2369        41.5356         1.3758      -999.2500      -999.2500      -999.2500      -999.2500      -999.2500        29.8355         1.1761        41.6244     
 7082.5000        12.6617      -999.2500        19.4155        99.1854        41.4220        41.0552        41.4220         1.3330      -999.2500      -999.2500      -999.2500      -999.2500      -999.2500        30.0666         1.2006        42.0272     
 7083.0000        12.6679      -999.2500        18.2584        98.3619        41.5663        41.2351        41.5663         1.3061      -999.2500      -999.2500      -999.2500      -999.2500      -999.2500        29.7628         1.2169        42.3756     
 7083.5000        12.8554      -999.2500        16.5820        97.7608        41.9605        42.7587        41.9605         1.2809      -999.2500      -999.2500      -999.2500      -999.2500      -999.2500        29.5071         1.2021        42.6786     
 7084.0000        13.0982      -999.2500        17.2958        97.3977        42.4747        43.8440        42.4747         1.2669      -999.2500      -999.2500      -999.2500      -999.2500      -999.2500        29.7461         1.1815        43.0359     
 7084.5000        13.2850      -999.2500        18.5129        97.3992        42.8627        43.6439        42.8627         1.2694      -999.2500      -999.2500      -999.2500      -999.2500      -999.2500        29.5878         1.1847        43.3955     
 7085.0000        13.3294      -999.2500        17.8425        97.9089        43.1028        43.7125        43.1028         1.2850      -999.2500      -999.2500      -999.2500      -999.2500      -999.2500        29.6281         1.1884        43.6096     
 7085.5000        13.3426      -999.2500        17.2121        98.8313        43.2069        44.6826        43.2069         1.3103      -999.2500      -999.2500      -999.2500      -999.2500      -999.2500        30.0785         1.1663        43.4604     
 7086.0000        13.3488      -999.2500        17.6842        99.6979        42.6350        44.4318        42.6350         1.3477      -999.2500      -999.2500      -999.2500      -999.2500      -999.2500        30.4523         1.1392        43.0706     
 7086.5000        13.2307      -999.2500        18.3778        99.5953        41.6198        43.7844        41.6198         1.3932      -999.2500      -999.2500      -999.2500      -999.2500      -999.2500        30.3368         1.1275        42.8857     
 7087.0000        13.0717      -999.2500        17.9517        98.2094        40.6816        43.1886        40.6816         1.4306      -999.2500      -999.2500      -999.2500      -999.2500      -999.2500        29.6620         1.1723        43.0463     
 7087.5000        13.0861      -999.2500        18.0561        96.0303        39.7080        42.1905        39.7080         1.4587      -999.2500      -999.2500      -999.2500      -999.2500      -999.2500        29.0416         1.2785        43.3295     
 7088.0000        13.2140      -999.2500        17.0270        94.4979        39.1192        42.9496        39.1192         1.4878      -999.2500      -999.2500      -999.2500      -999.2500      -999.2500        28.6354         1.3862        43.5744     
