~Version Information Section
VERS.          2.0                                     : CWLS LOG ASCII Standard
WRAP.          NO                                      : One line per depth step
CREA.          03/10/17                                : LAS Creation Date
~Well Information Section
STRT.ft        1488.5000                               : Start Depth
STOP.ft        9399.5000                               : Stop Depth
STEP.ft        0.5000                                  : Step
NULL.          -999.2500                               : Null Value
COMP.          OCCIDENTAL PETROLEUM CORPORATION (U.K)  : Company
WELL.          15/17-4                                 : Well
FLD .          WILDCAT                                 : Field
LOC .          NORTH SEA                               : Location
LOC1.          -                                       : Location (UTM)
CTRY.          UK                                      : Country
PROV.          UKCS                                    : Province
UWI .          899                                     : UWI Number
API .          -                                       : API Number
SECT.          -                                       : Section
TOWN.          -                                       : Township
RNGE.          -                                       : Range
PDAT.          MSL                                     : Perm Datum
EPD .ft        0.0                                     : Elevation
LMF .          RKB                                     : Log Measured From
DMF .          RKB                                     : Drill Measured From
APD .ft        78.0                                    : Above Perm Datum
EKB .ft        78.0                                    : Elev-Kelly Bushing
EDF .ft        77.0                                    : Elev-Drill Floor
EGL .ft        -476.0                                  : Elev-Ground Level (Water Depth)
TDD .ft        9423.0                                  : Total Depth (Driller)
TDL .ft        9407.0                                  : Total Depth (Logger)
SRVC.          SCHLUMBERGER                            : Service Company
LATI.          58 29 04.0" N                           : Latitude
LONG.          00 17 21.0" E                           : Longitude
DATE.          08-JUL-1973 - 09-AUG-1973               : Logging Date
PROJ.          UKCS                                    : Project
SET .          COMP_WIRE                               : Set
~Curve Information Section
DEPTH.ft                                               : Depth Curve
CALD.in                                                : Caliper (from FDC/CNL/GR)
MCAL.in                                                : Caliper (from MLL/ML)
DPHI.                                                  : Density Porosity
DT.us/ft                                               : Delta-T
GR.gAPI                                                : Gamma Ray (from ISF/BHC/GR)
GRD.gAPI                                               : Gamma Ray (from FDC/CNL/GR)
GRL.gAPI                                               : Gamma Ray (from DLL/GR)
ILD.Ohmm                                               : Deep Induction Standard Processed Resistivity
LLD.Ohmm                                               : Latero-Log Deep (Resistivity)
LLS.Ohmm                                               : Latero-Log Shallow (Resistivity)
MINV.Ohmm                                              : Micro-Inverse Resistivity
MLL.Ohmm                                               : Mll Resistivity
MNOR.Ohmm                                              : Micro-Normal Resistivity
NPHI.pu                                                : Neutron Porosity
SFL.Ohmm                                               : Spherically Focussed log Resistivity
SP.mV                                                  : Spontaneous Potential (from ISF/BHC/GR)
~ASCII Log Data Section
# ...
 7936.5000        13.2152      -999.2500         1.1529        76.3634        27.5914        27.5008        27.5914         3.6971         3.4461         3.7817      -999.2500      -999.2500      -999.2500        17.9394         2.9940        52.1396     
 7937.0000        13.2505      -999.2500         1.3175        77.2824        28.0142        25.6802        28.0142         3.6219         3.3592         3.6421      -999.2500      -999.2500      -999.2500        18.4166         2.9164        52.0944     
 7937.5000        13.2819      -999.2500         2.3360        78.0829        27.8374        25.3702        27.8374         3.5462         3.2581         3.5264      -999.2500      -999.2500      -999.2500        18.9097         2.8255        52.1972     
 7938.0000        13.2858      -999.2500         2.3744        78.7516        27.7149        25.6926        27.7149         3.4702         3.1547         3.4806      -999.2500      -999.2500      -999.2500        19.2993         2.7573        52.4752     
 7938.5000        13.2867      -999.2500         2.8455        79.1094        28.1242        25.5187        28.1242         3.3957         3.1135         3.5014      -999.2500      -999.2500      -999.2500        19.3890         2.7177        52.8442     
 7939.0000        13.2876      -999.2500         3.4063        79.1924        28.8998        24.5120        28.8998         3.3341         3.1384         3.5679      -999.2500      -999.2500      -999.2500        19.3101         2.6933        53.0730     
 7939.5000        13.2886      -999.2500         3.0102        79.1531        29.4749        23.4950        29.4749         3.3006         3.1772         3.6418      -999.2500      -999.2500      -999.2500        18.9519         2.6459        53.0157     
 7940.0000        13.2896      -999.2500         3.8268        78.9101        28.6712        21.9939        28.6712         3.2849         3.2260         3.6694      -999.2500      -999.2500      -999.2500        19.0031         2.6395        52.8297     
 7940.5000        13.2910      -999.2500         3.7685        78.4829        27.3109        21.0560        27.3109         3.2699         3.1952         3.6391      -999.2500      -999.2500      -999.2500        19.0620         2.6928        52.6337     
 7941.0000        13.2924      -999.2500         2.7496        78.0170        26.3655        20.9210        26.3655         3.2555         3.1355         3.5495      -999.2500      -999.2500      -999.2500        18.9351         2.7168        52.3977     
 7941.5000        13.2937      -999.2500         2.7564        77.8188        25.7124        20.9395        25.7124         3.2558         3.0916         3.4747      -999.2500      -999.2500      -999.2500        18.5696         2.6937        52.1741     
 7942.0000        13.2902      -999.2500         3.3231        78.0344        25.3283        21.1087        25.3283         3.2740         3.0803         3.4794      -999.2500      -999.2500      -999.2500        18.3969         2.6410        52.0845     
 7942.5000        13.2857      -999.2500         3.4790        78.2080        25.0476        21.2908        25.0476         3.3074         3.1026         3.5219      -999.2500      -999.2500      -999.2500        18.5118         2.5819        52.1486     
 7943.0000        13.2812      -999.2500         4.0650        77.7253        24.9283        21.1232        24.9283         3.3113         3.2597         3.5973      -999.2500      -999.2500      -999.2500        18.5601         2.5638        52.3062     
 7943.5000        13.2847      -999.2500         4.3588        76.8783        24.9263        21.9095        24.9263         3.2604         3.3219         3.7380      -999.2500      -999.2500      -999.2500        18.1884         2.6246        52.5202     
 7944.0000        13.2925      -999.2500         4.2750        76.4651        25.1825        22.1400        25.1825         3.2114         3.1445         3.6903      -999.2500      -999.2500      -999.2500        17.7474         2.7305        52.6591     
 7944.5000        13.3002      -999.2500         3.9639        76.6200        25.7223        21.7515        25.7223         3.1900         3.0062         3.5167      -999.2500      -999.2500      -999.2500        17.9236         2.7982        52.6771     
 7945.0000        13.3040      -999.2500         3.7967        77.5103        26.2782        20.7661        26.2782         3.1690         2.9065         3.3357      -999.2500      -999.2500      -999.2500        18.6516         2.7206        52.6534     
 7945.5000        13.2998      -999.2500         4.1097        78.8366        26.9288        21.0716        26.9288         3.1302         2.8955         3.1724      -999.2500      -999.2500      -999.2500        19.5967         2.5334        52.6026     
 7946.0000        13.2956      -999.2500         4.7278        79.7568        27.7506        22.6345        27.7506         3.0680         2.9714         3.1535      -999.2500      -999.2500      -999.2500        20.1045         2.4364        52.5745     
 7946.5000        13.2914      -999.2500         4.5036        79.9025        28.6224        24.1637        28.6224         2.9703         3.0060         3.3046      -999.2500      -999.2500      -999.2500        20.1668         2.4945        52.5735     
 7947.0000        13.2716      -999.2500         3.7326        79.6044        29.3505        25.0621        29.3505         2.8440         2.9385         3.2629      -999.2500      -999.2500      -999.2500        19.8047         2.6051        52.5757     
 7947.5000        13.2839      -999.2500         3.7388        79.6340        29.9231        26.4686        29.9231         2.7666         2.7820         3.0832      -999.2500      -999.2500      -999.2500        19.9717         2.6784        52.6116     
 7948.0000        13.2887      -999.2500         4.0370        80.7053        30.3853        28.1003        30.3853         2.7484         2.6056         2.8798      -999.2500      -999.2500      -999.2500        21.1119         2.5891        52.6779     
 7948.5000        13.1598      -999.2500         4.5366        82.1925        30.7235        29.4648        30.7235         2.7235         2.4311         2.6814      -999.2500      -999.2500      -999.2500        22.1252         2.3152        52.7397     
 7949.0000        13.1415      -999.2500         5.3657        83.1485        31.0708        28.4764        31.0708         2.6919         2.4136         2.6301      -999.2500      -999.2500      -999.2500        21.9950         2.1625        52.7751     
 7949.5000        13.1234      -999.2500         6.2887        83.5712        31.3723        27.9243        31.3723         2.6737         2.5395         2.6931      -999.2500      -999.2500      -999.2500        21.2078         2.2728        52.8239     
 7950.0000        13.1049      -999.2500         6.5377        83.3822        31.3473        27.7606        31.3473         2.6823         2.5934         2.8817      -999.2500      -999.2500      -999.2500        20.2165         2.4555        52.8655     
 7950.5000        13.1066      -999.2500         5.5880        82.5802        30.5454        27.3715        30.5454         2.7037         2.6279         2.9339      -999.2500      -999.2500      -999.2500        19.5272         2.5964        52.9012     
 7951.0000        13.1047      -999.2500         4.1198        81.3982        29.3268        26.0265        29.3268         2.7524         2.7075         2.9157      -999.2500      -999.2500      -999.2500        18.9314         2.6648        52.9915     
 7951.5000        13.0735      -999.2500         2.9859        80.0142        28.3265        25.1548        28.3265         2.8460         2.8695         3.2302      -999.2500      -999.2500      -999.2500        18.4047         2.7076        53.0540     
 7952.0000        13.0445      -999.2500         2.3320        78.3372        27.5842        24.1673        27.5842         2.9450         3.1139         3.5150      -999.2500      -999.2500      -999.2500        18.1345         2.6986        53.0876     
