~Version Information Section
VERS.          2.0                                     : CWLS LOG ASCII Standard
WRAP.          NO                                      : One line per depth step
CREA.          03/10/17                                : LAS Creation Date
~Well Information Section
STRT.ft        1488.5000                               : Start Depth
STOP.ft        9399.5000                               : Stop Depth
STEP.ft        0.5000                                  : Step
NULL.          -999.2500                               : Null Value
COMP.          OCCIDENTAL PETROLEUM CORPORATION (U.K)  : Company
WELL.          15/17-4                                 : Well
FLD .          WILDCAT                                 : Field
LOC .          NORTH SEA                               : Location
LOC1.          -                                       : Location (UTM)
CTRY.          UK                                      : Country
PROV.          UKCS                                    : Province
UWI .          899                                     : UWI Number
API .          -                                       : API Number
SECT.          -                                       : Section
TOWN.          -                                       : Township
RNGE.          -                                       : Range
PDAT.          MSL                                     : Perm Datum
EPD .ft        0.0                                     : Elevation
LMF .          RKB                                     : Log Measured From
DMF .          RKB                                     : Drill Measured From
APD .ft        78.0                                    : Above Perm Datum
EKB .ft        78.0                                    : Elev-Kelly Bushing
EDF .ft        77.0                                    : Elev-Drill Floor
EGL .ft        -476.0                                  : Elev-Ground Level (Water Depth)
TDD .ft        9423.0                                  : Total Depth (Driller)
TDL .ft        9407.0                                  : Total Depth (Logger)
SRVC.          SCHLUMBERGER                            : Service Company
LATI.          58 29 04.0" N                           : Latitude
LONG.          00 17 21.0" E                           : Longitude
DATE.          08-JUL-1973 - 09-AUG-1973               : Logging Date
PROJ.          UKCS                                    : Project
SET .          COMP_WIRE                               : Set
~Curve Information Section
DEPTH.ft                                               : Depth Curve
CALD.in                                                : Caliper (from FDC/CNL/GR)
MCAL.in                                                : Caliper (from MLL/ML)
DPHI.                                                  : Density Porosity
DT.us/ft                                               : Delta-T
GR.gAPI                                                : Gamma Ray (from ISF/BHC/GR)
GRD.gAPI                                               : Gamma Ray (from FDC/CNL/GR)
GRL.gAPI                                               : Gamma Ray (from DLL/GR)
ILD.Ohmm                                               : Deep Induction Standard Processed Resistivity
LLD.Ohmm                                               : Latero-Log Deep (Resistivity)
LLS.Ohmm                                               : Latero-Log Shallow (Resistivity)
MINV.Ohmm                                              : Micro-Inverse Resistivity
MLL.Ohmm                                               : Mll Resistivity
MNOR.Ohmm                                              : Micro-Normal Resistivity
NPHI.pu                                                : Neutron Porosity
SFL.Ohmm                                               : Spherically Focussed log Resistivity
SP.mV                                                  : Spontaneous Potential (from ISF/BHC/GR)
~ASCII Log Data Section
# ...
 5648.5000        12.7760      -999.2500        28.9009       124.0219        42.0831        38.3920        42.0831         0.4783      -999.2500      -999.2500      -999.2500      -999.2500      -999.2500        34.1862         0.5973        28.5517     
 5649.0000        12.8024      -999.2500        28.8916       131.2696        44.3190        40.5033        44.3190         0.5118      -999.2500      -999.2500      -999.2500      -999.2500      -999.2500        37.1043         0.5837        30.6130     
 5649.5000        13.0588      -999.2500        30.0483       139.2950        47.4908        44.5035        47.4908         0.5484      -999.2500      -999.2500      -999.2500      -999.2500      -999.2500        41.4842         0.5849        33.2189     
 5650.0000        13.7142      -999.2500        30.9756       144.5743        49.8904        48.9430        49.8904         0.5935      -999.2500      -999.2500      -999.2500      -999.2500      -999.2500        45.4078         0.5955        35.1016     
 5650.5000        13.8866      -999.2500        30.5759       142.9191        50.8664        52.3395        50.8664         0.6401      -999.2500      -999.2500      -999.2500      -999.2500      -999.2500        45.3663         0.6161        35.4241     
 5651.0000        13.8596      -999.2500        29.4064       136.8861        50.7487        53.4118        50.7487         0.6818      -999.2500      -999.2500      -999.2500      -999.2500      -999.2500        44.0482         0.6611        34.8473     
 5651.5000        13.7073      -999.2500        28.4569       129.8484        50.0126        52.4945        50.0126         0.6988      -999.2500      -999.2500      -999.2500      -999.2500      -999.2500        42.6123         0.7503        33.8313     
 5652.0000        13.5324      -999.2500        26.4674       124.1477        47.9813        50.8244        47.9813         0.6838      -999.2500      -999.2500      -999.2500      -999.2500      -999.2500        40.4910         0.8031        32.5425     
 5652.5000        13.3707      -999.2500        27.1142       122.0002        45.6125        49.5206        45.6125         0.6668      -999.2500      -999.2500      -999.2500      -999.2500      -999.2500        38.0478         0.7718        30.8628     
 5653.0000        13.3459      -999.2500        27.7906       121.6023        44.0255        47.1024        44.0255         0.6479      -999.2500      -999.2500      -999.2500      -999.2500      -999.2500        35.4602         0.7309        29.5723     
 5653.5000        13.2338      -999.2500        27.4068       122.1791        43.0892        43.9899        43.0892         0.6293      -999.2500      -999.2500      -999.2500      -999.2500      -999.2500        33.4929         0.7159        28.7688     
 5654.0000        12.9954      -999.2500        27.6302       123.9364        43.6384        44.4459        43.6384         0.6173      -999.2500      -999.2500      -999.2500      -999.2500      -999.2500        34.0290         0.7275        28.2543     
 5654.5000        12.8260      -999.2500        26.7357       126.0954        46.1586        48.0023        46.1586         0.6073      -999.2500      -999.2500      -999.2500      -999.2500      -999.2500        36.6946         0.7362        28.6776     
 5655.0000        12.8041      -999.2500        25.9983       127.9476        48.7595        50.9769        48.7595         0.5994      -999.2500      -999.2500      -999.2500      -999.2500      -999.2500        39.2457         0.7242        29.3105     
 5655.5000        12.8362      -999.2500        26.8235       129.6188        49.6656        50.8982        49.6656         0.5896      -999.2500      -999.2500      -999.2500      -999.2500      -999.2500        42.0782         0.6857        29.5649     
 5656.0000        12.8153      -999.2500        28.2696       130.9787        49.1917        48.8123        49.1917         0.5804      -999.2500      -999.2500      -999.2500      -999.2500      -999.2500        43.5911         0.6558        29.7048     
 5656.5000        12.8017      -999.2500        29.5980       131.1408        47.9155        45.5405        47.9155         0.5685      -999.2500      -999.2500      -999.2500      -999.2500      -999.2500        43.0093         0.6708        29.5866     
 5657.0000        12.8145      -999.2500        30.1275       130.0691        45.5908        42.5467        45.5908         0.5446      -999.2500      -999.2500      -999.2500      -999.2500      -999.2500        41.2051         0.6893        28.9511     
 5657.5000        12.7854      -999.2500        29.8427       128.4475        42.7151        38.5679        42.7151         0.5144      -999.2500      -999.2500      -999.2500      -999.2500      -999.2500        39.0250         0.6748        27.9912     
 5658.0000        12.7959      -999.2500        30.1046       126.3148        39.1829        34.2907        39.1829         0.4881      -999.2500      -999.2500      -999.2500      -999.2500      -999.2500        35.6687         0.6387        27.4396     
 5658.5000        12.7504      -999.2500        30.4730       124.0481        34.9105        31.4144        34.9105         0.4620      -999.2500      -999.2500      -999.2500      -999.2500      -999.2500        32.7018         0.5971        27.4922     
 5659.0000        12.7408      -999.2500        30.4580       122.3783        32.4565        29.7527        32.4565         0.4343      -999.2500      -999.2500      -999.2500      -999.2500      -999.2500        32.3785         0.5607        27.5318     
 5659.5000        12.7575      -999.2500        29.6314       121.3271        31.8436        27.7128        31.8436         0.4111      -999.2500      -999.2500      -999.2500      -999.2500      -999.2500        32.0304         0.5340        27.1077     
 5660.0000        12.7559      -999.2500        28.2812       120.6611        31.5861        27.6970        31.5861         0.3945      -999.2500      -999.2500      -999.2500      -999.2500      -999.2500        32.7406         0.5146        26.4013     
 5660.5000        12.7278      -999.2500        28.9175       120.3622        31.6426        26.9583        31.6426         0.3816      -999.2500      -999.2500      -999.2500      -999.2500      -999.2500        33.6120         0.5045        25.7726     
 5661.0000        12.7218      -999.2500        29.7906       120.1124        31.2532        26.1491        31.2532         0.3731      -999.2500      -999.2500      -999.2500      -999.2500      -999.2500        34.6116         0.5032        25.4199     
 5661.5000        12.7312      -999.2500        30.4022       119.7746        30.2546        27.5479        30.2546         0.3711      -999.2500      -999.2500      -999.2500      -999.2500      -999.2500        34.0181         0.5058        25.3349     
 5662.0000        12.7738      -999.2500        30.3392       119.4205        29.4343        27.5349        29.4343         0.3729      -999.2500      -999.2500      -999.2500      -999.2500      -999.2500        33.0466         0.5102        25.3773     
 5662.5000        12.8183      -999.2500        29.1872       119.0419        28.8871        27.1080        28.8871         0.3802      -999.2500      -999.2500      -999.2500      -999.2500      -999.2500        32.6192         0.5147        25.3353     
 5663.0000        12.8289      -999.2500        29.1685       118.6349        29.1047        27.3985        29.1047         0.3927      -999.2500      -999.2500      -999.2500      -999.2500      -999.2500        32.4352         0.5177        25.2264     
 5663.5000        12.8191      -999.2500        29.4946       118.1323        29.9845        26.4272        29.9845         0.4024      -999.2500      -999.2500      -999.2500      -999.2500      -999.2500        32.2161         0.5189        25.3037     
 5664.0000        12.8083      -999.2500        29.5090       117.6888        30.1805        26.2717        30.1805         0.4079      -999.2500      -999.2500      -999.2500      -999.2500      -999.2500        31.6700         0.5199        25.5603     
