~Version Information Section
VERS.          2.0                                     : CWLS LOG ASCII Standard
WRAP.          NO                                      : One line per depth step
CREA.          03/10/17                                : LAS Creation Date
~Well Information Section
STRT.ft        1488.5000                               : Start Depth
STOP.ft        9399.5000                               : Stop Depth
STEP.ft        0.5000                                  : Step
NULL.          -999.2500                               : Null Value
COMP.          OCCIDENTAL PETROLEUM CORPORATION (U.K)  : Company
WELL.          15/17-4                                 : Well
FLD .          WILDCAT                                 : Field
LOC .          NORTH SEA                               : Location
LOC1.          -                                       : Location (UTM)
CTRY.          UK                                      : Country
PROV.          UKCS                                    : Province
UWI .          899                                     : UWI Number
API .          -                                       : API Number
SECT.          -                                       : Section
TOWN.          -                                       : Township
RNGE.          -                                       : Range
PDAT.          MSL                                     : Perm Datum
EPD .ft        0.0                                     : Elevation
LMF .          RKB                                     : Log Measured From
DMF .          RKB                                     : Drill Measured From
APD .ft        78.0                                    : Above Perm Datum
EKB .ft        78.0                                    : Elev-Kelly Bushing
EDF .ft        77.0                                    : Elev-Drill Floor
EGL .ft        -476.0                                  : Elev-Ground Level (Water Depth)
TDD .ft        9423.0                                  : Total Depth (Driller)
TDL .ft        9407.0                                  : Total Depth (Logger)
SRVC.          SCHLUMBERGER                            : Service Company
LATI.          58 29 04.0" N                           : Latitude
LONG.          00 17 21.0" E                           : Longitude
DATE.          08-JUL-1973 - 09-AUG-1973               : Logging Date
PROJ.          UKCS                                    : Project
SET .          COMP_WIRE                               : Set
~Curve Information Section
DEPTH.ft                                               : Depth Curve
CALD.in                                                : Caliper (from FDC/CNL/GR)
MCAL.in                                                : Caliper (from MLL/ML)
DPHI.                                                  : Density Porosity
DT.us/ft                                               : Delta-T
GR.gAPI                                                : Gamma Ray (from ISF/BHC/GR)
GRD.gAPI                                               : Gamma Ray (from FDC/CNL/GR)
GRL.gAPI                                               : Gamma Ray (from DLL/GR)
ILD.Ohmm                                               : Deep Induction Standard Processed Resistivity
LLD.Ohmm                                               : Latero-Log Deep (Resistivity)
LLS.Ohmm                                               : Latero-Log Shallow (Resistivity)
MINV.Ohmm                                              : Micro-Inverse Resistivity
MLL.Ohmm                                               : Mll Resistivity
MNOR.Ohmm                                              : Micro-Normal Resistivity
NPHI.pu                                                : Neutron Porosity
SFL.Ohmm                                               : Spherically Focussed log Resistivity
SP.mV                                                  : Spontaneous Potential (from ISF/BHC/GR)
~ASCII Log Data Section
# ...
 7648.5000        13.0859      -999.2500         5.9332        74.3919        17.8424        17.7792        17.8424         4.3532         4.0725         4.3563      -999.2500      -999.2500      -999.2500        14.5514         3.3736        48.4178     
 7649.0000        13.0316      -999.2500         5.1349        72.2128        16.7117        17.1830        16.7117         4.6979         4.1889         4.5282      -999.2500      -999.2500      -999.2500        13.8505         3.5488        48.2948     
 7649.5000        13.0269      -999.2500         2.8522        69.3317        15.1829        15.3042        15.1829         5.0432         4.2734         4.6573      -999.2500      -999.2500      -999.2500        12.1826         4.2218        48.2425     
 7650.0000        13.0691      -999.2500         0.4200        66.7794        13.9746        15.0964        13.9746         5.2677         4.6570         5.2584      -999.2500      -999.2500      -999.2500        10.7912         5.1291        48.2417     
 7650.5000        13.0047      -999.2500         0.4823        65.1806        13.6758        13.8866        13.6758         5.3731         6.0564         6.7600      -999.2500      -999.2500      -999.2500        10.5425         6.2719        48.1959     
 7651.0000        12.9990      -999.2500         0.1138        66.1100        14.3796        13.5280        14.3796         5.4138         7.7381         8.0354      -999.2500      -999.2500      -999.2500        10.9338         7.3544        48.0952     
 7651.5000        13.0309      -999.2500        -0.3739        69.1044        15.4987        14.8237        15.4987         5.4179         7.7899         7.7847      -999.2500      -999.2500      -999.2500        12.8307         6.4563        48.0393     
 7652.0000        13.0450      -999.2500         0.7359        71.7639        16.2182        16.1741        16.2182         5.3584         6.6244         6.6012      -999.2500      -999.2500      -999.2500        14.2238         4.5397        48.0383     
 7652.5000        13.0704      -999.2500         2.0516        73.3623        16.5211        17.0672        16.5211         5.1568         5.4532         5.6199      -999.2500      -999.2500      -999.2500        14.7475         3.7718        47.9942     
 7653.0000        13.0736      -999.2500         4.0029        74.0824        16.7994        17.1502        16.7994         4.8582         4.6204         5.0208      -999.2500      -999.2500      -999.2500        14.9140         3.8244        47.9000     
 7653.5000        13.0742      -999.2500         5.5083        74.0960        17.3193        16.9119        17.3193         4.5559         4.2037         4.5865      -999.2500      -999.2500      -999.2500        15.1578         4.0811        47.8424     
 7654.0000        13.0842      -999.2500         6.1910        73.7970        17.7701        16.5639        17.7701         4.3458         4.2165         4.5142      -999.2500      -999.2500      -999.2500        15.3534         4.1114        47.8576     
 7654.5000        13.1180      -999.2500         5.0880        73.3424        17.9120        16.5694        17.9120         4.2948         4.3061         4.6290      -999.2500      -999.2500      -999.2500        15.0124         4.1193        47.7505     
 7655.0000        13.0828      -999.2500         3.9071        72.7126        17.9441        16.0075        17.9441         4.3334         4.3387         4.6630      -999.2500      -999.2500      -999.2500        14.8860         4.0543        47.4916     
 7655.5000        13.0431      -999.2500         3.1836        72.0441        17.9223        14.5295        17.9223         4.4050         4.3615         4.6802      -999.2500      -999.2500      -999.2500        14.3245         3.9485        47.2744     
 7656.0000        13.0556      -999.2500         2.4496        71.3459        17.5569        13.6223        17.5569         4.5395         4.4946         4.7953      -999.2500      -999.2500      -999.2500        14.0234         4.1011        47.1022     
 7656.5000        13.0775      -999.2500         1.8118        70.6401        16.9958        13.6046        16.9958         4.8066         4.7147         5.0487      -999.2500      -999.2500      -999.2500        13.3532         4.7632        46.9046     
 7657.0000        13.0780      -999.2500         2.6515        69.5674        16.6519        13.6103        16.6519         5.1201         4.9532         5.2833      -999.2500      -999.2500      -999.2500        12.6975         5.2005        46.8348     
 7657.5000        13.0485      -999.2500         3.4048        68.0697        16.4381        13.6160        16.4381         5.3339         5.2139         5.4117      -999.2500      -999.2500      -999.2500        12.1450         4.9478        46.7902     
 7658.0000        13.0111      -999.2500         3.9388        66.3418        16.3887        13.4112        16.3887         5.4106         5.7231         5.7957      -999.2500      -999.2500      -999.2500        11.2657         5.2248        46.5299     
 7658.5000        13.0331      -999.2500         3.9439        65.6787        16.4749        12.9387        16.4749         5.4171         6.6249         6.6063      -999.2500      -999.2500      -999.2500        10.5246         6.8678        46.2972     
 7659.0000        13.0267      -999.2500         3.5395        67.1830        16.5825        12.9965        16.5825         5.4385         6.9713         7.0811      -999.2500      -999.2500      -999.2500        10.7095         7.5786        46.2782     
 7659.5000        13.0601      -999.2500         3.9727        69.2781        16.6209        14.3414        16.6209         5.5181         6.3542         6.6640      -999.2500      -999.2500      -999.2500        11.8925         5.7146        46.3579     
 7660.0000        13.1317      -999.2500         3.9925        70.6380        16.3070        15.4091        16.3070         5.6220         5.4975         5.7475      -999.2500      -999.2500      -999.2500        12.9000         3.9619        46.4405     
 7660.5000        13.1253      -999.2500         3.6391        70.8422        15.6875        15.7905        15.6875         5.5945         4.8387         4.8912      -999.2500      -999.2500      -999.2500        13.2147         3.9321        46.5045     
 7661.0000        13.1332      -999.2500         4.0727        70.0186        15.3480        15.4188        15.3480         5.4298         4.7171         4.7792      -999.2500      -999.2500      -999.2500        12.8579         5.2501        46.5678     
 7661.5000        13.1580      -999.2500         2.8695        69.6895        15.7900        15.2067        15.7900         5.2753         5.1979         5.3499      -999.2500      -999.2500      -999.2500        12.6904         5.8955        46.7118     
 7662.0000        13.2458      -999.2500         3.2228        70.4534        16.5269        15.7201        16.5269         5.2145         6.0846         6.0787      -999.2500      -999.2500      -999.2500        12.8285         5.1217        46.9573     
 7662.5000        13.2918      -999.2500         4.5163        71.2921        16.9417        16.6176        16.9417         5.2098         6.3525         6.4260      -999.2500      -999.2500      -999.2500        12.9749         4.7088        47.2836     
 7663.0000        13.2865      -999.2500         3.4689        71.9421        17.0932        17.5071        17.0932         5.2332         5.7071         6.0555      -999.2500      -999.2500      -999.2500        13.0867         4.6613        47.6127     
 7663.5000        13.2651      -999.2500         0.9416        72.4937        17.0480        17.5943        17.0480         5.2560         5.2068         5.5909      -999.2500      -999.2500      -999.2500        13.1172         4.4890        47.8361     
 7664.0000        13.2764      -999.2500         0.7291        72.1704        16.8180        15.7680        16.8180         5.2603         4.9396         5.2742      -999.2500      -999.2500      -999.2500        13.0011         4.2326        47.9124     
