~Version Information Section
VERS.          2.0                                     : CWLS LOG ASCII Standard
WRAP.          NO                                      : One line per depth step
CREA.          03/10/17                                : LAS Creation Date
~Well Information Section
STRT.ft        1488.5000                               : Start Depth
STOP.ft        9399.5000                               : Stop Depth
STEP.ft        0.5000                                  : Step
NULL.          -999.2500                               : Null Value
COMP.          OCCIDENTAL PETROLEUM CORPORATION (U.K)  : Company
WELL.          15/17-4                                 : Well
FLD .          WILDCAT                                 : Field
LOC .          NORTH SEA                               : Location
LOC1.          -                                       : Location (UTM)
CTRY.          UK                                      : Country
PROV.          UKCS                                    : Province
UWI .          899                                     : UWI Number
API .          -                                       : API Number
SECT.          -                                       : Section
TOWN.          -                                       : Township
RNGE.          -                                       : Range
PDAT.          MSL                                     : Perm Datum
EPD .ft        0.0                                     : Elevation
LMF .          RKB                                     : Log Measured From
DMF .          RKB                                     : Drill Measured From
APD .ft        78.0                                    : Above Perm Datum
EKB .ft        78.0                                    : Elev-Kelly Bushing
EDF .ft        77.0                                    : Elev-Drill Floor
EGL .ft        -476.0                                  : Elev-Ground Level (Water Depth)
TDD .ft        9423.0                                  : Total Depth (Driller)
TDL .ft        9407.0                                  : Total Depth (Logger)
SRVC.          SCHLUMBERGER                            : Service Company
LATI.          58 29 04.0" N                           : Latitude
LONG.          00 17 21.0" E                           : Longitude
DATE.          08-JUL-1973 - 09-AUG-1973               : Logging Date
PROJ.          UKCS                                    : Project
SET .          COMP_WIRE                               : Set
~Curve Information Section
DEPTH.ft                                               : Depth Curve
CALD.in                                                : Caliper (from FDC/CNL/GR)
MCAL.in                                                : Caliper (from MLL/ML)
DPHI.                                                  : Density Porosity
DT.us/ft                                               : Delta-T
GR.gAPI                                                : Gamma Ray (from ISF/BHC/GR)
GRD.gAPI                                               : Gamma Ray (from FDC/CNL/GR)
GRL.gAPI                                               : Gamma Ray (from DLL/GR)
ILD.Ohmm                                               : Deep Induction Standard Processed Resistivity
LLD.Ohmm                                               : Latero-Log Deep (Resistivity)
LLS.Ohmm                                               : Latero-Log Shallow (Resistivity)
MINV.Ohmm                                              : Micro-Inverse Resistivity
MLL.Ohmm                                               : Mll Resistivity
MNOR.Ohmm                                              : Micro-Normal Resistivity
NPHI.pu                                                : Neutron Porosity
SFL.Ohmm                                               : Spherically Focussed log Resistivity
SP.mV                                                  : Spontaneous Potential (from ISF/BHC/GR)
~ASCII Log Data Section
# ...
 6512.5000        12.6696      -999.2500        25.4508        95.4472        32.3456        33.4921        32.3456         0.5118      -999.2500      -999.2500      -999.2500      -999.2500      -999.2500        28.0092         0.6443        26.0114     
 6513.0000        12.6612      -999.2500        25.6284        95.1057        32.8012        33.4336        32.8012         0.5213      -999.2500      -999.2500      -999.2500      -999.2500      -999.2500        27.6432         0.6440        26.3347     
 6513.5000        12.6475      -999.2500        25.8709        94.6301        32.7094        34.2201        32.7094         0.5251      -999.2500      -999.2500      -999.2500      -999.2500      -999.2500        27.0153         0.6460        26.3315     
 6514.0000        12.6226      -999.2500        26.2157        94.1533        32.4332        33.2637        32.4332         0.5260      -999.2500      -999.2500      -999.2500      -999.2500      -999.2500        26.6517         0.6543        26.1689     
 6514.5000        12.5973      -999.2500        26.0549        94.0217        32.4200        31.9670        32.4200         0.5260      -999.2500      -999.2500      -999.2500      -999.2500      -999.2500        26.8415         0.6758        26.0265     
 6515.0000        12.5739      -999.2500        26.2428        94.4100        32.4750        32.0652        32.4750         0.5240      -999.2500      -999.2500      -999.2500      -999.2500      -999.2500        27.1243         0.6943        25.8515     
 6515.5000        12.5656      -999.2500        25.8483        95.0315        32.3312        32.9287        32.3312         0.5197      -999.2500      -999.2500      -999.2500      -999.2500      -999.2500        27.2876         0.6921        25.6942     
 6516.0000        12.5586      -999.2500        26.0291        95.4768        31.9150        31.9762        31.9150         0.5141      -999.2500      -999.2500      -999.2500      -999.2500      -999.2500        26.8218         0.6755        25.8851     
 6516.5000        12.5517      -999.2500        25.4223        95.6644        31.3392        31.4117        31.3392         0.5075      -999.2500      -999.2500      -999.2500      -999.2500      -999.2500        26.9932         0.6590        26.3239     
 6517.0000        12.5493      -999.2500        25.2300        95.7173        30.8530        32.5913        30.8530         0.5004      -999.2500      -999.2500      -999.2500      -999.2500      -999.2500        27.6715         0.6517        26.5893     
 6517.5000        12.5484      -999.2500        25.0644        95.7184        30.7497        33.8583        30.7497         0.4919      -999.2500      -999.2500      -999.2500      -999.2500      -999.2500        28.0133         0.6499        26.7021     
 6518.0000        12.5476      -999.2500        25.1351        95.6566        31.5023        34.9025        31.5023         0.4857      -999.2500      -999.2500      -999.2500      -999.2500      -999.2500        27.7042         0.6499        26.8253     
 6518.5000        12.5467      -999.2500        26.0236        95.4604        32.9078        34.4166        32.9078         0.4905      -999.2500      -999.2500      -999.2500      -999.2500      -999.2500        26.9882         0.6499        26.9193     
 6519.0000        12.5458      -999.2500        26.8652        95.0701        33.9569        33.5677        33.9569         0.5059      -999.2500      -999.2500      -999.2500      -999.2500      -999.2500        26.4838         0.6540        26.7825     
 6519.5000        12.5449      -999.2500        26.8511        94.4565        34.4570        33.6125        34.4570         0.5252      -999.2500      -999.2500      -999.2500      -999.2500      -999.2500        25.8249         0.6623        26.3847     
 6520.0000        12.5440      -999.2500        25.7436        93.7535        34.8034        33.8022        34.8034         0.5503      -999.2500      -999.2500      -999.2500      -999.2500      -999.2500        25.3589         0.6749        26.0052     
 6520.5000        12.5431      -999.2500        24.3426        93.1642        35.0985        33.3946        35.0985         0.5798      -999.2500      -999.2500      -999.2500      -999.2500      -999.2500        25.3374         0.7042        25.7578     
 6521.0000        12.5423      -999.2500        24.3145        92.9228        34.9113        34.3240        34.9113         0.6138      -999.2500      -999.2500      -999.2500      -999.2500      -999.2500        25.7549         0.7661        25.5335     
 6521.5000        12.5378      -999.2500        23.4587        92.8855        34.1369        35.4386        34.1369         0.6569      -999.2500      -999.2500      -999.2500      -999.2500      -999.2500        26.1510         0.8406        25.4093     
 6522.0000        12.4673      -999.2500        23.3601        92.7708        32.7963        35.7714        32.7963         0.7045      -999.2500      -999.2500      -999.2500      -999.2500      -999.2500        26.8031         0.8793        25.7778     
 6522.5000        12.4729      -999.2500        23.4551        92.6004        32.1656        34.0287        32.1656         0.7494      -999.2500      -999.2500      -999.2500      -999.2500      -999.2500        26.8587         0.8949        26.4843     
 6523.0000        12.4749      -999.2500        23.3809        92.1117        32.6974        33.4561        32.6974         0.7905      -999.2500      -999.2500      -999.2500      -999.2500      -999.2500        26.3676         0.9176        27.1224     
 6523.5000        12.4687      -999.2500        22.5832        91.5449        32.7422        35.1109        32.7422         0.8179      -999.2500      -999.2500      -999.2500      -999.2500      -999.2500        26.2902         0.9367        27.5069     
 6524.0000        12.4625      -999.2500        21.6770        91.4480        32.1170        34.1549        32.1170         0.8240      -999.2500      -999.2500      -999.2500      -999.2500      -999.2500        26.4610         0.9431        27.5154     
 6524.5000        12.4575      -999.2500        22.0633        91.4482        31.2010        31.9122        31.2010         0.8171      -999.2500      -999.2500      -999.2500      -999.2500      -999.2500        26.6766         0.9371        27.1177     
 6525.0000        12.4617      -999.2500        22.1002        91.5260        30.5596        31.0818        30.5596         0.7992      -999.2500      -999.2500      -999.2500      -999.2500      -999.2500        26.9381         0.9201        26.5650     
 6525.5000        12.4666      -999.2500        22.2493        91.9225        30.7307        32.4958        30.7307         0.7661      -999.2500      -999.2500      -999.2500      -999.2500      -999.2500        27.2440         0.8980        26.3347     
 6526.0000        12.4715      -999.2500        22.3146        92.4267        31.9031        34.3406        31.9031         0.7349      -999.2500      -999.2500      -999.2500      -999.2500      -999.2500        27.6341         0.8772        26.2827     
 6526.5000        12.4650      -999.2500        21.7970        92.4420        33.5694        35.0343        33.5694         0.7164      -999.2500      -999.2500      -999.2500      -999.2500      -999.2500        27.4098         0.8619        26.1820     
 6527.0000        12.4576      -999.2500        21.5200        91.0387        34.8255        34.5726        34.8255         0.7031      -999.2500      -999.2500      -999.2500      -999.2500      -999.2500        26.7542         0.8570        26.1321     
 6527.5000        12.4926      -999.2500        20.1676        86.9771        35.4301        33.5527        35.4301         0.6958      -999.2500      -999.2500      -999.2500      -999.2500      -999.2500        26.2940         0.8688        26.1847     
 6528.0000        12.5171      -999.2500        17.2258        79.1028        35.5914        32.3607        35.5914         0.6907      -999.2500      -999.2500      -999.2500      -999.2500      -999.2500        25.0519         0.9329        26.3466     
