~Version Information Section
VERS.          2.0                                     : CWLS LOG ASCII Standard
WRAP.          NO                                      : One line per depth step
CREA.          03/10/17                                : LAS Creation Date
~Well Information Section
STRT.ft        550.5000                                : Start Depth
STOP.ft        8567.0000                               : Stop Depth
STEP.ft        0.5000                                  : Step
NULL.          -999.2500                               : Null Value
COMP.          CONOCO GULF NCB                         : Company
WELL.          15/19-2                                 : Well
FLD .          WILDCAT                                 : Field
LOC .          NORTH SEA                               : Location
LOC1.          -                                       : Location (UTM)
CTRY.          UK                                      : Country
PROV.          UKCS                                    : Province
UWI .          908                                     : UWI Number
API .          -                                       : API Number
SECT.          -                                       : Section
TOWN.          -                                       : Township
RNGE.          -                                       : Range
PDAT.          MSL                                     : Perm Datum
EPD .ft        0.0                                     : Elevation
LMF .          RKB                                     : Log Measured From
DMF .          RKB                                     : Drill Measured From
APD .ft        71.0                                    : Above Perm Datum
EKB .ft        71.0                                    : Elev-Kelly Bushing
EDF .          -                                       : Elev-Drill Floor
EGL .ft        -495.0                                  : Elev-Ground Level (Water Depth)
TDD .ft        8575.0                                  : Total Depth (Driller)
TDL .ft        8567.0                                  : Total Depth (Logger)
SRVC.          SCHLUMBERGER                            : Service Company
LATI.          58 29 27.8" N                           : Latitude
LONG.          00 39 43.6" E                           : Longitude
DATE.          10-APR-1974 - 11-JUN-1974               : Logging Date
PROJ.          UKCS                                    : Project
SET .          COMP_WIRE                               : Set
~Curve Information Section
DEPTH.ft                                               : Depth Curve
CALD.in                                                : Caliper (from FDC/CNL/GR)
DRHO.g/cc                                              : Delta Rho
DT.us/ft                                               : Delta-T
GR.gAPI                                                : Gamma Ray (from ISF/BHC/GR)
GRD.gAPI                                               : Gamma Ray (from FDC/CNL/GR)
ILD.Ohmm                                               : Deep Induction Standard Processed Resistivity
LLD.Ohmm                                               : Latero-Log Deep (Resistivity)
LLS.Ohmm                                               : Latero-Log Shallow (Resistivity)
MCAL.in                                                : Caliper (from MLL/ML)
MINV.Ohmm                                              : Micro-Inverse Resistivity
MLL.Ohmm                                               : Mll Resistivity
MNOR.Ohmm                                              : Micro-Normal Resistivity
NPHI.pu                                                : Neutron Porosity
RHOB.g/cc                                              : Bulk Density
SFLU.Ohmm                                              : SFL Resistivity (Unaveraged)
SP.mV                                                  : Spontaneous Potential 
~ASCII Log Data Section
# ...
 4534.5000        13.2001         0.0213       143.2592        45.4351        49.3623         0.8478         0.8532         0.7764        12.5262         0.4465         0.8256         0.3921        50.4704         2.0302         0.7184        40.2734     
 4535.0000        13.0909         0.0256       143.8659        47.5217        50.2008         0.8513         0.8564         0.7793        12.5539         0.4483         0.8265         0.3887        49.2603         2.0375         0.7222        40.2595     
 4535.5000        12.9640         0.0343       144.2805        47.7680        51.7896         0.8537         0.8572         0.7821        12.6215         0.4508         0.8528         0.3924        47.7315         2.0403         0.7272        40.1369     
 4536.0000        12.9833         0.0432       144.1025        47.3243        53.1168         0.8569         0.8584         0.7849        12.7423         0.4534         0.8550         0.3971        47.5343         2.0413         0.7328        39.9722     
 4536.5000        13.2081         0.0420       143.7103        46.6982        53.2980         0.8611         0.8656         0.7883        12.7142         0.4559         0.8408         0.4102        47.3430         2.0425         0.7388        39.8427     
 4537.0000        13.3960         0.0388       143.0665        45.8333        53.7307         0.8647         0.8761         0.7934        12.6625         0.4579         0.8210         0.4251        46.9470         2.0440         0.7465        39.7754     
 4537.5000        13.3764         0.0418       142.5658        44.4538        53.7454         0.8675         0.8849         0.7989        12.6634         0.4599         0.8192         0.4318        47.3604         2.0480         0.7591        39.7188     
 4538.0000        12.9855         0.0461       141.6042        43.2077        53.4715         0.8688         0.8898         0.8025        12.6722         0.4955         0.8647         0.4361        46.9753         2.0553         0.7672        39.6971     
 4538.5000        12.9568         0.0387       140.5846        42.6879        53.6388         0.8697         0.8911         0.8049        12.6988         0.5540         0.8028         0.4666        46.6383         2.0473         0.7687        39.6860     
 4539.0000        13.0424         0.0438       139.5290        42.8797        53.5978         0.8715         0.8889         0.8069        12.7120         0.5447         0.7538         0.4984        47.5230         2.0429         0.7676        39.7068     
 4539.5000        13.1354         0.0526       138.8057        43.6726        54.1394         0.8737         0.8846         0.8080        12.7111         0.4912         0.7925         0.4652        48.1711         2.0502         0.7647        39.7663     
 4540.0000        13.1919         0.0567       139.1836        44.5366        54.6833         0.8755         0.8825         0.8090        12.7145         0.4710         0.8597         0.4636        48.0205         2.0547         0.7623        39.8285     
 4540.5000        13.2142         0.0506       139.7736        45.0884        54.0090         0.8763         0.8846         0.8096        12.7637         0.4715         0.7570         0.4664        48.3340         2.0519         0.7615        39.8868     
 4541.0000        13.1153         0.0408       140.2247        45.4286        53.6543         0.8763         0.8906         0.8100        12.8330         0.4720         0.7370         0.4692        49.4755         2.0497         0.7617        39.9370     
 4541.5000        12.9834         0.0169       140.6744        45.8424        54.0914         0.8759         0.8870         0.8092        12.8894         0.4764         0.7186         0.4713        49.3273         2.0354         0.7619        39.9716     
 4542.0000        13.0391         0.0085       140.4225        46.0412        54.0692         0.8752         0.8787         0.8069        12.8783         0.4954         0.7987         0.4663        48.6156         2.0240         0.7622        40.0042     
 4542.5000        13.2047         0.0106       139.9832        45.6888        53.0486         0.8735         0.8717         0.8039        12.7848         0.5103         0.8561         0.4581        48.2364         2.0307         0.7624        40.0486     
 4543.0000        13.1799         0.0198       139.3715        45.2463        51.6871         0.8711         0.8655         0.8004        12.7013         0.5060         0.8363         0.4580        47.6270         2.0513         0.7626        40.0667     
 4543.5000        13.0514         0.0287       139.3427        45.2253        50.5945         0.8680         0.8612         0.7987        12.6600         0.4993         0.8392         0.4627        46.2723         2.0559         0.7628        40.0067     
 4544.0000        12.9622         0.0300       139.8589        45.5374        50.7129         0.8642         0.8567         0.7976        12.6239         0.4798         0.9578         0.4594        45.0183         2.0537         0.7639        40.0284     
 4544.5000        12.9253         0.0301       140.3037        46.0750        50.5527         0.8603         0.8551         0.8007        12.6808         0.4400         0.9447         0.4526        44.6502         2.0365         0.7656        39.9334     
 4545.0000        12.9671         0.0402       140.4872        46.5543        50.9727         0.8564         0.8550         0.8052        12.8524         0.4681         0.8147         0.4515        44.9687         2.0317         0.7668        39.8033     
 4545.5000        13.0209         0.0603       140.6638        46.6172        51.4618         0.8524         0.8573         0.8093        12.9625         0.4750         0.9311         0.4592        45.9927         2.0452         0.7675        39.5640     
 4546.0000        13.0649         0.0630       140.7613        46.1431        51.7251         0.8502         0.8602         0.8125        12.9930         0.4391         0.9629         0.4403        46.8082         2.0510         0.7668        39.2819     
 4546.5000        13.0533         0.0652       140.7893        45.6178        51.7448         0.8497         0.8630         0.8149        12.9751         0.4786         0.7721         0.4655        47.5241         2.0554         0.7651        39.1730     
 4547.0000        13.1670         0.0649       140.1799        45.6359        52.7775         0.8497         0.8625         0.8133        12.9890         0.4407         0.7800         0.4331        49.3494         2.0786         0.7628        39.1158     
 4547.5000        13.2165         0.0522       139.4764        45.8450        54.9674         0.8509         0.8617         0.8110        13.0196         0.4850         0.8146         0.4747        49.6526         2.0759         0.7602        39.0688     
 4548.0000        13.2344         0.0394       138.6639        45.7234        56.2585         0.8528         0.8611         0.8105        12.9993         0.4929         0.8444         0.4578        49.7809         2.0552         0.7584        39.0240     
 4548.5000        13.2423         0.0384       139.0922        45.0179        55.8895         0.8542         0.8600         0.8102        12.9489         0.4627         0.8114         0.4434        48.1763         2.0515         0.7580        39.0127     
 4549.0000        13.0730         0.0412       139.5600        43.6548        54.7592         0.8543         0.8647         0.8097        12.8879         0.4439         0.8468         0.4551        46.7680         2.0456         0.7550        39.0360     
 4549.5000        12.9876         0.0199       140.0265        42.4002        52.6568         0.8539         0.8719         0.8091        12.8363         0.4519         0.7744         0.4668        46.1477         2.0363         0.7529        39.1673     
 4550.0000        13.0246         0.0068       140.3266        41.9391        52.2566         0.8551         0.8789         0.8084        12.8325         0.4841         0.7414         0.4772        47.0099         2.0333         0.7580        39.3984     
