~Version Information Section
VERS.          2.0                                     : CWLS LOG ASCII Standard
WRAP.          NO                                      : One line per depth step
CREA.          03/10/17                                : LAS Creation Date
~Well Information Section
STRT.ft        550.5000                                : Start Depth
STOP.ft        8567.0000                               : Stop Depth
STEP.ft        0.5000                                  : Step
NULL.          -999.2500                               : Null Value
COMP.          CONOCO GULF NCB                         : Company
WELL.          15/19-2                                 : Well
FLD .          WILDCAT                                 : Field
LOC .          NORTH SEA                               : Location
LOC1.          -                                       : Location (UTM)
CTRY.          UK                                      : Country
PROV.          UKCS                                    : Province
UWI .          908                                     : UWI Number
API .          -                                       : API Number
SECT.          -                                       : Section
TOWN.          -                                       : Township
RNGE.          -                                       : Range
PDAT.          MSL                                     : Perm Datum
EPD .ft        0.0                                     : Elevation
LMF .          RKB                                     : Log Measured From
DMF .          RKB                                     : Drill Measured From
APD .ft        71.0                                    : Above Perm Datum
EKB .ft        71.0                                    : Elev-Kelly Bushing
EDF .          -                                       : Elev-Drill Floor
EGL .ft        -495.0                                  : Elev-Ground Level (Water Depth)
TDD .ft        8575.0                                  : Total Depth (Driller)
TDL .ft        8567.0                                  : Total Depth (Logger)
SRVC.          SCHLUMBERGER                            : Service Company
LATI.          58 29 27.8" N                           : Latitude
LONG.          00 39 43.6" E                           : Longitude
DATE.          10-APR-1974 - 11-JUN-1974               : Logging Date
PROJ.          UKCS                                    : Project
SET .          COMP_WIRE                               : Set
~Curve Information Section
DEPTH.ft                                               : Depth Curve
CALD.in                                                : Caliper (from FDC/CNL/GR)
DRHO.g/cc                                              : Delta Rho
DT.us/ft                                               : Delta-T
GR.gAPI                                                : Gamma Ray (from ISF/BHC/GR)
GRD.gAPI                                               : Gamma Ray (from FDC/CNL/GR)
ILD.Ohmm                                               : Deep Induction Standard Processed Resistivity
LLD.Ohmm                                               : Latero-Log Deep (Resistivity)
LLS.Ohmm                                               : Latero-Log Shallow (Resistivity)
MCAL.in                                                : Caliper (from MLL/ML)
MINV.Ohmm                                              : Micro-Inverse Resistivity
MLL.Ohmm                                               : Mll Resistivity
MNOR.Ohmm                                              : Micro-Normal Resistivity
NPHI.pu                                                : Neutron Porosity
RHOB.g/cc                                              : Bulk Density
SFLU.Ohmm                                              : SFL Resistivity (Unaveraged)
SP.mV                                                  : Spontaneous Potential 
~ASCII Log Data Section
# ...
 4822.5000        13.7990         0.0486       141.0770        38.2992        47.5129         0.5013         0.6514         0.6339        13.6542         0.5342         0.7700         0.4628        51.9019         2.0766         0.6085        43.3205     
 4823.0000        13.7182         0.0544       142.3482        38.4881        46.3415         0.4999         0.6382         0.6175        13.6884         0.4967         0.6598         0.4627        52.6784         2.0374         0.6004        43.4239     
 4823.5000        13.8086         0.0827       143.0013        38.7041        44.9414         0.5012         0.6004         0.5842        13.6580         0.5009         0.6891         0.4573        51.4834         2.0335         0.5855        43.5428     
 4824.0000        13.8529         0.0760       142.5299        39.1021        44.3795         0.5054         0.5667         0.5538        13.6592         0.5190         0.6849         0.4754        50.4093         2.0271         0.5704        43.8099     
 4824.5000        13.8662         0.0815       140.6852        39.9205        45.0338         0.5109         0.5460         0.5305        13.6791         0.5243         0.7275         0.4186        49.7663         2.0383         0.5607        44.0826     
 4825.0000        13.8358         0.0981       139.6720        41.1602        45.1224         0.5166         0.5482         0.5314        13.6921         0.4556         0.6875         0.4037        50.8436         2.0798         0.5603        44.2904     
 4825.5000        13.8413         0.0951       139.8014        42.1390        45.2069         0.5224         0.5684         0.5500        13.7078         0.3857         0.6386         0.4276        50.8776         2.1001         0.5681        44.2451     
 4826.0000        13.7294         0.0933       140.0034        42.1090        45.7472         0.5289         0.5912         0.5712        13.6751         0.4910         0.7589         0.4616        49.5012         2.1116         0.5791        44.1656     
 4826.5000        13.8266         0.0738       139.9520        41.4607        47.2551         0.5361         0.6113         0.5840        13.6420         0.4682         0.7631         0.4413        48.7472         2.1196         0.5905        44.0045     
 4827.0000        13.8867         0.0565       139.7065        40.5257        48.8591         0.5433         0.6352         0.5894        13.6237         0.4455         0.7241         0.4227        47.9860         2.1125         0.5976        43.7435     
 4827.5000        13.9427         0.0620       139.0500        39.5751        50.3827         0.5481         0.6337         0.5906        13.6170         0.4312         0.7842         0.4308        46.6958         2.1010         0.6023        43.4649     
 4828.0000        13.9806         0.0709       138.2840        38.8067        51.6612         0.5497         0.6179         0.5913        13.6254         0.4780         0.8416         0.4578        46.9878         2.1058         0.6080        43.3535     
 4828.5000        13.8556         0.0656       137.6542        38.4442        51.8772         0.5493         0.6235         0.6090        13.6821         0.4703         0.7406         0.4061        48.1994         2.1105         0.6141        43.3236     
 4829.0000        14.0022         0.0633       137.1176        38.3823        52.0244         0.5475         0.6534         0.6438        13.6558         0.4172         0.7778         0.4484        49.7379         2.1093         0.6198        43.2801     
 4829.5000        14.0184         0.0628       137.4085        38.7273        52.6956         0.5434         0.6753         0.6458        13.6361         0.4921         0.7395         0.4699        49.3202         2.1063         0.6254        43.2314     
 4830.0000        14.0265         0.0574       138.0172        39.3926        52.4882         0.5362         0.6682         0.6153        13.6192         0.4919         0.7792         0.4551        47.8520         2.1031         0.6299        43.2756     
 4830.5000        14.0375         0.0510       138.8959        40.5152        51.8774         0.5286         0.6349         0.5778        13.6044         0.4531         0.7054         0.4152        46.1618         2.0978         0.6261        43.3492     
 4831.0000        13.8519         0.0499       139.6046        42.1590        52.0117         0.5253         0.6022         0.5544        13.5786         0.4304         0.7124         0.4201        44.1879         2.0951         0.6092        43.4248     
 4831.5000        13.9519         0.0528       139.8321        43.2257        52.7111         0.5262         0.5944         0.5529        13.5496         0.4159         0.6795         0.4595        43.9172         2.0970         0.5937        43.4719     
 4832.0000        13.9787         0.0522       139.1488        43.3680        52.6075         0.5298         0.6071         0.5631        13.5579         0.4663         0.8113         0.4773        44.8650         2.0889         0.5940        43.5132     
 4832.5000        13.9672         0.0523       137.9401        43.2141        52.5364         0.5360         0.6417         0.5974        13.5514         0.4865         0.7719         0.4414        45.5728         2.0920         0.6012        43.5469     
 4833.0000        14.0267         0.0547       137.9431        42.8752        53.3684         0.5431         0.6583         0.6164        13.5425         0.4537         0.7332         0.4437        45.7386         2.0973         0.6060        43.5749     
 4833.5000        14.1508         0.0528       139.2800        42.1118        53.7306         0.5518         0.6476         0.6008        13.4853         0.4831         0.7130         0.4663        45.8294         2.0989         0.6101        43.6170     
 4834.0000        14.1387         0.0411       139.5288        40.9136        53.4773         0.5619         0.6473         0.5982        13.4938         0.4896         0.7050         0.4762        45.1866         2.0905         0.6145        43.6608     
 4834.5000        13.9881         0.0382       138.4332        39.7094        53.0535         0.5727         0.6618         0.6232        13.4905         0.4783         0.8499         0.4906        45.2071         2.0773         0.6210        43.7099     
 4835.0000        13.8490         0.0448       136.1777        38.7036        53.0984         0.5832         0.6782         0.6523        13.4312         0.5605         0.8285         0.5053        46.2421         2.0805         0.6293        43.8089     
 4835.5000        13.7541         0.0561       134.8459        38.0115        52.9160         0.5911         0.6880         0.6635        13.4389         0.5699         0.8323         0.5138        46.6482         2.0994         0.6356        43.9253     
 4836.0000        13.6509         0.0463       136.1232        37.7613        50.9448         0.5957         0.6880         0.6577        13.5034         0.5672         0.9299         0.4907        46.7344         2.1210         0.6398        44.0405     
 4836.5000        13.5693         0.0437       138.5614        37.7355        48.6064         0.5984         0.6797         0.6441        13.5342         0.5425         0.8748         0.4673        46.3109         2.1139         0.6379        44.0701     
 4837.0000        13.6271         0.0628       139.3417        37.7691        46.8032         0.5980         0.6698         0.6218        13.6033         0.5686         0.7299         0.4623        47.3060         2.1251         0.6275        44.0765     
 4837.5000        13.8647         0.0673       136.8287        37.9136        46.4657         0.5947         0.6691         0.6082        13.6162         0.4051         0.8316         0.4591        48.1507         2.1326         0.6258        44.1363     
 4838.0000        13.6643         0.0667       133.3480        38.2174        46.1846         0.5850         0.6835         0.6295        13.5947         0.5795         0.9969         0.4761        47.9507         2.1268         0.6392        44.2301     
