~Version Information Section
VERS.          2.0                                     : CWLS LOG ASCII Standard
WRAP.          NO                                      : One line per depth step
CREA.          03/10/17                                : LAS Creation Date
~Well Information Section
STRT.ft        550.5000                                : Start Depth
STOP.ft        8567.0000                               : Stop Depth
STEP.ft        0.5000                                  : Step
NULL.          -999.2500                               : Null Value
COMP.          CONOCO GULF NCB                         : Company
WELL.          15/19-2                                 : Well
FLD .          WILDCAT                                 : Field
LOC .          NORTH SEA                               : Location
LOC1.          -                                       : Location (UTM)
CTRY.          UK                                      : Country
PROV.          UKCS                                    : Province
UWI .          908                                     : UWI Number
API .          -                                       : API Number
SECT.          -                                       : Section
TOWN.          -                                       : Township
RNGE.          -                                       : Range
PDAT.          MSL                                     : Perm Datum
EPD .ft        0.0                                     : Elevation
LMF .          RKB                                     : Log Measured From
DMF .          RKB                                     : Drill Measured From
APD .ft        71.0                                    : Above Perm Datum
EKB .ft        71.0                                    : Elev-Kelly Bushing
EDF .          -                                       : Elev-Drill Floor
EGL .ft        -495.0                                  : Elev-Ground Level (Water Depth)
TDD .ft        8575.0                                  : Total Depth (Driller)
TDL .ft        8567.0                                  : Total Depth (Logger)
SRVC.          SCHLUMBERGER                            : Service Company
LATI.          58 29 27.8" N                           : Latitude
LONG.          00 39 43.6" E                           : Longitude
DATE.          10-APR-1974 - 11-JUN-1974               : Logging Date
PROJ.          UKCS                                    : Project
SET .          COMP_WIRE                               : Set
~Curve Information Section
DEPTH.ft                                               : Depth Curve
CALD.in                                                : Caliper (from FDC/CNL/GR)
DRHO.g/cc                                              : Delta Rho
DT.us/ft                                               : Delta-T
GR.gAPI                                                : Gamma Ray (from ISF/BHC/GR)
GRD.gAPI                                               : Gamma Ray (from FDC/CNL/GR)
ILD.Ohmm                                               : Deep Induction Standard Processed Resistivity
LLD.Ohmm                                               : Latero-Log Deep (Resistivity)
LLS.Ohmm                                               : Latero-Log Shallow (Resistivity)
MCAL.in                                                : Caliper (from MLL/ML)
MINV.Ohmm                                              : Micro-Inverse Resistivity
MLL.Ohmm                                               : Mll Resistivity
MNOR.Ohmm                                              : Micro-Normal Resistivity
NPHI.pu                                                : Neutron Porosity
RHOB.g/cc                                              : Bulk Density
SFLU.Ohmm                                              : SFL Resistivity (Unaveraged)
SP.mV                                                  : Spontaneous Potential 
~ASCII Log Data Section
# ...
 7110.5000        17.4894         0.0526       103.1950        79.4750        77.3398         3.0829         3.4971         2.5651        17.2850         0.5980         0.5454         0.5103        45.9947         1.9766         1.1458        73.0222     
 7111.0000        17.4886         0.0342       105.2289        77.4001        73.5794         3.0016         3.1965         2.4789        17.9686         0.2509         0.6770         0.2674        49.8240         1.8674         1.0978        73.0662     
 7111.5000        17.4877         0.0195       104.1893        77.6331        74.4780         2.9874         3.0911         2.4743        18.2130         0.3702         0.9905         0.2748        50.5568         1.8710         1.0657        72.9340     
 7112.0000        17.4868         0.0295        96.1227        78.9828        78.6826         3.0089         3.2789         2.5735        18.4247         0.4701         0.6470         0.3672        49.3262         1.9163         1.0462        72.3912     
 7112.5000        17.4841         0.0400        94.2336        82.3168        83.0762         3.1528         3.5851         2.6078        18.5741         0.2908         0.6760         0.2735        47.5789         1.9450         1.0313        71.6332     
 7113.0000        17.4792         0.0304        93.0368        86.5923        84.7059         3.2963         3.7790         2.7255        18.7869         0.3686         0.4789         0.3390        47.1087         1.8249         1.0232        71.3680     
 7113.5000        17.4748         0.0227        91.9139        88.7779        85.5045         3.3908         4.0280         2.8500        19.0788         0.3696         0.4064         0.3783        45.8684         1.7940         1.0370        71.4168     
 7114.0000        17.4743         0.0188        94.1552        87.1936        85.8475         3.4382         4.2715         2.8159        18.8894         0.3733         0.5418         0.3661        44.8634         1.8242         1.0600        71.8780     
 7114.5000        17.4777         0.0172        95.9810        84.5866        85.4616         3.4628         4.2565         2.7375        18.8295         0.5936         1.5938         0.5931        44.4106         1.9228         1.0604        71.7607     
 7115.0000        17.4787         0.0369        91.1945        81.8022        83.4892         3.4635         3.9583         2.5503        19.2206         0.7195         2.0895         0.6659        44.2237         2.0110         1.0535        71.6219     
 7115.5000        17.4773         0.0343        96.2491        79.6487        80.0381         3.5628         3.6165         2.3999        19.2848         0.4692         0.9203         0.4128        45.1645         2.0049         1.0362        71.4800     
 7116.0000        17.4747         0.0517       103.7798        77.6203        76.5997         3.6779         3.3760         2.3221        19.2312         0.6135         0.4567         0.6217        47.2006         1.9669         1.0125        71.3630     
 7116.5000        17.4726         0.0728       104.9537        74.8724        76.2134         3.7316         3.3350         2.2965        19.0962         0.2632         0.5566         0.2998        50.2773         1.9201         0.9868        71.3898     
 7117.0000        17.4721         0.0684       105.7046        74.3658        78.3723         3.4571         3.6027         2.3488        18.5316         0.2391         0.5945         0.2440        51.4379         1.8203         0.9744        71.5374     
 7117.5000        17.4726         0.0565       101.7611        76.0991        80.1182         3.2197         4.1081         2.5058        18.2849         0.3291         0.9124         0.3148        51.6246         1.8374         0.9707        71.6445     
 7118.0000        17.4740         0.0441        97.7890        77.9618        80.4351         3.1096         4.5112         2.6497        18.8202         0.5263         0.4785         0.5246        48.1791         1.9813         0.9697        71.7448     
 7118.5000        17.4762         0.0600        98.6235        77.4382        79.3708         3.2475         4.5387         2.6578        19.0489         0.6815         0.7229         0.4067        44.7999         2.0329         0.9748        71.8219     
 7119.0000        17.4783         0.0388        98.6910        76.0264        77.8596         3.5910         4.4152         2.5945        18.6268         0.8566         0.6379         0.4085        48.9831         1.9785         0.9798        71.8991     
 7119.5000        17.4805         0.0277        99.1955        76.6557        78.9710         4.0584         4.2079         2.4914        18.7592         0.4091         0.9287         0.3716        52.7396         1.8371         0.9846        72.0028     
 7120.0000        17.4826         0.0261        96.1221        78.3440        83.8577         4.5406         4.0420         2.3926        18.9549         0.8414         0.6814         0.3623        51.8824         1.7425         0.9893        72.1437     
 7120.5000        17.4855         0.0297        91.3490        81.2515        92.0681         5.0213         4.0854         2.3912        19.2112         0.3415         0.4015         0.2964        49.6618         1.7795         0.9937        72.2846     
 7121.0000        17.4908         0.0307        85.9822        83.7054        98.6811         5.4888         4.4105         2.5553        19.0681         0.2717         0.5333         0.2894        47.0759         1.9004         1.0085        72.5015     
 7121.5000        17.4991         0.0151        80.2972        89.3991       103.0873         5.5411         5.0334         2.8039        18.8695         0.2722         1.5598         0.2820        44.8264         1.9979         1.0448        72.8119     
 7122.0000        17.5074         0.0420        73.1368        95.8458       104.2897         4.8915         5.8329         3.0177        19.2527         0.4421         2.0202         0.3742        41.2673         2.1776         1.0894        73.1224     
 7122.5000        17.5140         0.0831        74.7398        97.5399       102.9102         4.7406         6.1558         3.0914        19.1106         0.6045         0.6736         0.5566        39.8800         2.1889         1.1142        73.4238     
 7123.0000        17.5180         0.0711        77.4952        93.4479       100.9846         4.8005         5.8028         3.0187        18.3662         0.3492         0.8505         0.4023        40.5972         2.0471         1.1146        73.6734     
 7123.5000        17.5208         0.0289        81.6243        90.3322        98.9413         4.9606         5.3636         2.8734        18.1307         0.3246         0.6583         0.3229        40.1638         2.0316         1.1125        73.9231     
 7124.0000        17.5210         0.0506        80.3183        88.8736        94.0189         4.8946         4.9874         2.7286        19.0611         0.5699         0.4830         0.5812        42.1915         2.0228         1.1070        73.8054     
 7124.5000        17.5187         0.0651        82.9575        87.4864        89.5251         4.6181         4.5874         2.6228        19.3703         0.3874         0.4741         0.4128        44.9387         1.9105         1.0917        73.5054     
 7125.0000        17.5145         0.0370        84.3601        85.0011        87.3516         4.2062         4.2899         2.5459        19.2949         0.4432         0.5698         0.3874        46.1596         1.7527         1.0699        73.6551     
 7125.5000        17.5114         0.0290        83.9317        82.6187        86.8036         3.7058         4.2677         2.5010        18.9076         0.4825         0.7994         0.4054        46.0242         1.7026         1.0399        73.8621     
 7126.0000        17.5096         0.0261        83.3201        81.4415        85.7153         3.4109         4.4665         2.5030        18.2021         0.2979         0.7436         0.3092        44.9428         1.7231         1.0055        73.9209     
