~Version Information Section
VERS.          2.0                                     : CWLS LOG ASCII Standard
WRAP.          NO                                      : One line per depth step
CREA.          03/10/17                                : LAS Creation Date
~Well Information Section
STRT.ft        550.5000                                : Start Depth
STOP.ft        8567.0000                               : Stop Depth
STEP.ft        0.5000                                  : Step
NULL.          -999.2500                               : Null Value
COMP.          CONOCO GULF NCB                         : Company
WELL.          15/19-2                                 : Well
FLD .          WILDCAT                                 : Field
LOC .          NORTH SEA                               : Location
LOC1.          -                                       : Location (UTM)
CTRY.          UK                                      : Country
PROV.          UKCS                                    : Province
UWI .          908                                     : UWI Number
API .          -                                       : API Number
SECT.          -                                       : Section
TOWN.          -                                       : Township
RNGE.          -                                       : Range
PDAT.          MSL                                     : Perm Datum
EPD .ft        0.0                                     : Elevation
LMF .          RKB                                     : Log Measured From
DMF .          RKB                                     : Drill Measured From
APD .ft        71.0                                    : Above Perm Datum
EKB .ft        71.0                                    : Elev-Kelly Bushing
EDF .          -                                       : Elev-Drill Floor
EGL .ft        -495.0                                  : Elev-Ground Level (Water Depth)
TDD .ft        8575.0                                  : Total Depth (Driller)
TDL .ft        8567.0                                  : Total Depth (Logger)
SRVC.          SCHLUMBERGER                            : Service Company
LATI.          58 29 27.8" N                           : Latitude
LONG.          00 39 43.6" E                           : Longitude
DATE.          10-APR-1974 - 11-JUN-1974               : Logging Date
PROJ.          UKCS                                    : Project
SET .          COMP_WIRE                               : Set
~Curve Information Section
DEPTH.ft                                               : Depth Curve
CALD.in                                                : Caliper (from FDC/CNL/GR)
DRHO.g/cc                                              : Delta Rho
DT.us/ft                                               : Delta-T
GR.gAPI                                                : Gamma Ray (from ISF/BHC/GR)
GRD.gAPI                                               : Gamma Ray (from FDC/CNL/GR)
ILD.Ohmm                                               : Deep Induction Standard Processed Resistivity
LLD.Ohmm                                               : Latero-Log Deep (Resistivity)
LLS.Ohmm                                               : Latero-Log Shallow (Resistivity)
MCAL.in                                                : Caliper (from MLL/ML)
MINV.Ohmm                                              : Micro-Inverse Resistivity
MLL.Ohmm                                               : Mll Resistivity
MNOR.Ohmm                                              : Micro-Normal Resistivity
NPHI.pu                                                : Neutron Porosity
RHOB.g/cc                                              : Bulk Density
SFLU.Ohmm                                              : SFL Resistivity (Unaveraged)
SP.mV                                                  : Spontaneous Potential 
~ASCII Log Data Section
# ...
 6262.5000        13.4716         0.0252        97.3036        38.3680        49.9302         0.8399         0.9746         1.1519        12.1341         0.5608         2.2563         0.6404        30.8163         2.3043         1.0364        56.9079     
 6263.0000        13.5875         0.0263        97.7102        37.7458        49.3264         0.8012         0.8778         1.0494        12.0914         0.5948         2.1326         0.5165        31.9204         2.2722         1.0290        56.5700     
 6263.5000        13.3691         0.0306        97.8242        35.8467        44.2564         0.7581         0.7588         0.9056        12.0441         0.6129         2.6235         0.5642        30.5631         2.2465         0.9971        55.5239     
 6264.0000        13.1078         0.0267        97.5817        33.5872        38.2298         0.7060         0.6437         0.7919        12.0094         0.6448         2.2788         0.6217        28.5871         2.2222         0.9457        54.4008     
 6264.5000        12.9549         0.0369        97.4860        31.3301        32.1127         0.6554         0.5998         0.7372        12.0507         0.6618         1.6188         0.6670        27.4235         2.2081         0.8875        53.3351     
 6265.0000        12.8513         0.0448        98.0990        29.2382        29.3858         0.6125         0.6168         0.7397        12.0979         0.6554         1.5191         0.6449        27.7343         2.2151         0.8449        52.2956     
 6265.5000        12.8187         0.0427        98.4046        27.3081        28.9161         0.5787         0.6362         0.7700        12.1306         0.6750         1.4793         0.6480        28.5408         2.2112         0.8228        51.5782     
 6266.0000        12.8533         0.0423        98.0094        25.3736        28.2875         0.5551         0.6515         0.7938        12.1618         0.6972         1.3838         0.6710        28.8959         2.2228         0.8128        51.1273     
 6266.5000        12.9307         0.0404        97.4212        23.8519        27.4120         0.5414         0.6652         0.8017        12.1857         0.7194         1.5427         0.6940        28.7040         2.2340         0.8121        50.8325     
 6267.0000        12.8863         0.0367        96.4649        22.5581        26.5626         0.5403         0.6780         0.8039        12.1954         0.7357         1.6488         0.7328        28.6391         2.2406         0.8162        50.6582     
 6267.5000        12.7612         0.0353        95.9696        21.7728        26.3236         0.5583         0.6938         0.8145        12.1992         0.7263         1.6849         0.8052        28.2138         2.2505         0.8214        50.5808     
 6268.0000        12.6784         0.0340        95.6664        21.5278        26.3808         0.5955         0.7283         0.8699        12.1488         0.6926         1.7090         0.7916        27.5045         2.2651         0.8307        50.5416     
 6268.5000        12.6899         0.0385        95.2134        21.9017        27.0826         0.6497         0.7963         0.9842        12.0960         0.6520         1.7430         0.7729        26.4545         2.2803         0.8546        50.5207     
 6269.0000        12.8776         0.0514        94.4373        22.2758        27.8984         0.7193         0.8918         1.1253        12.0494         0.6200         2.0051         0.7542        25.2873         2.3254         0.9135        50.5336     
 6269.5000        13.1230         0.0477        93.3901        22.3364        28.0594         0.7993         1.0367         1.2816        12.0054         0.6621         2.6202         0.8294        24.6515         2.3432         1.0118        50.6263     
 6270.0000        13.2773         0.0362        90.3655        21.9590        28.0555         0.9063         1.2359         1.4550        11.9768         0.6573         2.9925         0.8353        24.5439         2.3416         1.1397        50.8497     
 6270.5000        13.4142         0.0255        86.9822        21.2172        28.1831         1.0421         1.4585         1.6487        11.9492         0.6160         2.9333         0.8123        24.5134         2.3363         1.2991        51.2049     
 6271.0000        13.4508         0.0239        85.4779        21.5648        28.8361         1.1877         1.6852         1.8750        11.9477         0.5820         3.1311         0.7892        23.7148         2.3446         1.4818        51.8608     
 6271.5000        13.3627         0.0257        85.2886        21.2020        29.1322         1.3417         1.8956         2.0960        11.9484         0.5832         3.2798         0.7662        21.8365         2.3576         1.6167        52.2811     
 6272.0000        13.1653         0.0348        84.3039        20.4830        28.6377         1.4773         2.0405         2.2403        11.9716         0.6401         3.6053         0.7712        20.1640         2.3799         1.6918        51.7172     
 6272.5000        12.9418         0.0506        82.7576        20.9938        27.2943         1.5632         2.0533         2.2603        12.0211         0.6597         4.0290         0.8305        19.4543         2.3988         1.7594        51.0220     
 6273.0000        12.8323         0.0567        81.1278        21.6556        26.0698         1.5725         1.8639         2.1082        12.0920         0.6805         4.4985         0.8348        20.0079         2.4020         1.7975        50.8181     
 6273.5000        12.7479         0.0535        79.7877        21.5160        26.0942         1.5264         1.6060         1.8909        12.1676         0.7065         4.8074         0.8253        21.2940         2.3944         1.7829        50.8567     
 6274.0000        12.7788         0.0453        79.0731        21.3344        27.2690         1.4595         1.3743         1.6325        12.2432         0.6930         4.2985         0.8387        23.4366         2.3805         1.7159        51.1357     
 6274.5000        12.9279         0.0396        79.8136        21.1411        27.8272         1.3622         1.1583         1.3605        12.3068         0.6848         3.7244         0.8490        24.9650         2.3700         1.5921        51.7217     
 6275.0000        13.0368         0.0265        81.3336        21.9047        27.3851         1.2335         1.0497         1.2288        12.3686         0.7278         3.1366         0.8490        24.8741         2.3626         1.4207        52.5813     
 6275.5000        13.0334         0.0130        82.4233        23.2301        26.6918         1.1124         1.0904         1.2285        12.3419         0.7383         2.4700         0.8276        24.3459         2.3585         1.2821        52.6617     
 6276.0000        12.9445         0.0100        82.4161        23.3733        26.9947         1.0014         1.1699         1.3117        12.2644         0.7381         2.5845         0.8513        23.8950         2.3597         1.2056        51.6846     
 6276.5000        12.8086         0.0151        81.3743        23.1798        28.1599         0.8996         1.0500         1.2489        12.2198         0.7484         3.2993         0.9002        23.7416         2.3428         1.1595        50.9075     
 6277.0000        12.7747         0.0213        81.2828        23.0495        28.3776         0.8117         0.7914         1.0056        12.1336         0.7497         3.7482         0.9238        24.1158         2.2981         1.1164        50.5421     
 6277.5000        12.9159         0.0192        83.6364        23.1096        28.4305         0.7370         0.6678         0.8161        12.0220         0.7098         3.1950         0.8505        25.5713         2.2549         1.0491        50.5530     
 6278.0000        13.1006         0.0137        88.6136        24.9027        29.0074         0.6746         0.5938         0.7075        11.9826         0.6168         1.3675         0.7460        27.5964         2.2221         0.9466        50.9025     
