~Version Information Section
VERS.          2.0                                     : CWLS LOG ASCII Standard
WRAP.          NO                                      : One line per depth step
CREA.          03/10/17                                : LAS Creation Date
~Well Information Section
STRT.ft        550.5000                                : Start Depth
STOP.ft        8567.0000                               : Stop Depth
STEP.ft        0.5000                                  : Step
NULL.          -999.2500                               : Null Value
COMP.          CONOCO GULF NCB                         : Company
WELL.          15/19-2                                 : Well
FLD .          WILDCAT                                 : Field
LOC .          NORTH SEA                               : Location
LOC1.          -                                       : Location (UTM)
CTRY.          UK                                      : Country
PROV.          UKCS                                    : Province
UWI .          908                                     : UWI Number
API .          -                                       : API Number
SECT.          -                                       : Section
TOWN.          -                                       : Township
RNGE.          -                                       : Range
PDAT.          MSL                                     : Perm Datum
EPD .ft        0.0                                     : Elevation
LMF .          RKB                                     : Log Measured From
DMF .          RKB                                     : Drill Measured From
APD .ft        71.0                                    : Above Perm Datum
EKB .ft        71.0                                    : Elev-Kelly Bushing
EDF .          -                                       : Elev-Drill Floor
EGL .ft        -495.0                                  : Elev-Ground Level (Water Depth)
TDD .ft        8575.0                                  : Total Depth (Driller)
TDL .ft        8567.0                                  : Total Depth (Logger)
SRVC.          SCHLUMBERGER                            : Service Company
LATI.          58 29 27.8" N                           : Latitude
LONG.          00 39 43.6" E                           : Longitude
DATE.          10-APR-1974 - 11-JUN-1974               : Logging Date
PROJ.          UKCS                                    : Project
SET .          COMP_WIRE                               : Set
~Curve Information Section
DEPTH.ft                                               : Depth Curve
CALD.in                                                : Caliper (from FDC/CNL/GR)
DRHO.g/cc                                              : Delta Rho
DT.us/ft                                               : Delta-T
GR.gAPI                                                : Gamma Ray (from ISF/BHC/GR)
GRD.gAPI                                               : Gamma Ray (from FDC/CNL/GR)
ILD.Ohmm                                               : Deep Induction Standard Processed Resistivity
LLD.Ohmm                                               : Latero-Log Deep (Resistivity)
LLS.Ohmm                                               : Latero-Log Shallow (Resistivity)
MCAL.in                                                : Caliper (from MLL/ML)
MINV.Ohmm                                              : Micro-Inverse Resistivity
MLL.Ohmm                                               : Mll Resistivity
MNOR.Ohmm                                              : Micro-Normal Resistivity
NPHI.pu                                                : Neutron Porosity
RHOB.g/cc                                              : Bulk Density
SFLU.Ohmm                                              : SFL Resistivity (Unaveraged)
SP.mV                                                  : Spontaneous Potential 
~ASCII Log Data Section
# ...
 6822.5000        17.1947         0.0310        73.5958        63.3198        64.5188         4.1879         4.0085         3.8622        14.9451         0.6592         4.9394         0.8018        44.9504         1.9811         1.8549        61.3700     
 6823.0000        16.0339         0.0314        66.9896        56.7476        52.9400         4.3822         4.7659         4.4495        14.6759         0.7884        11.4205         0.9578        34.5762         2.2165         1.9456        61.1661     
 6823.5000        15.5198         0.0150        64.0328        52.3123        46.8316         5.0755         5.6070         4.9881        14.6670         0.8935        13.5721         1.0832        15.1400         2.4177         2.0310        60.9561     
 6824.0000        15.1319         0.0081        64.1775        52.8769        47.0575         6.0040         5.9594         5.1045        14.7547         0.9270        34.7369         1.0910         9.6504         2.4550         2.1032        60.5505     
 6824.5000        14.8534         0.0063        65.5228        55.2181        52.0648         6.8637         5.9555         5.2320        14.9533         0.9848        16.4662         1.0998         9.3129         2.4394         2.1553        60.1673     
 6825.0000        14.8739         0.0080        68.3792        64.6183        57.4396         7.4502         5.6992         5.0134        15.1581         1.1086         8.0336         1.1654        10.5972         2.4279         2.2077        60.2338     
 6825.5000        15.0247         0.0170        71.0578        69.5058        61.0573         7.3354         5.6422         5.0116        15.2435         1.1413        11.0040         1.2210        12.3864         2.4321         2.2465        60.0811     
 6826.0000        15.1736         0.0313        72.1374        69.9857        63.9049         6.8151         6.0016         5.1919        15.2953         0.9773         9.9567         1.0575        13.5038         2.4189         2.2782        59.9328     
 6826.5000        15.3178         0.0291        70.9930        66.0327        60.3336         6.3616         6.5365         5.3854        15.3669         0.9824         8.7646         1.0546        13.0754         2.4155         2.3075        60.0351     
 6827.0000        15.4319         0.0189        68.2750        60.4587        54.0649         5.9379         7.1354         5.6471        15.4678         0.9898         9.0913         1.0961        10.2931         2.4508         2.3076        60.2222     
 6827.5000        15.5049         0.0243        66.2579        57.5090        52.2853         5.7026         7.5126         5.8408        15.6562         1.0157         8.8346         1.0942         7.5052         2.4748         2.2810        60.4133     
 6828.0000        15.5648         0.0321        66.3530        57.3190        51.6513         5.6073         7.5564         5.8899        15.7815         1.0473        11.0926         1.0373         6.9597         2.4854         2.2386        60.7247     
 6828.5000        15.6372         0.0382        67.0929        57.5393        51.6274         5.6579         7.3843         5.8041        15.7946         0.8556         9.1903         1.0119         7.3140         2.4926         2.1920        61.0693     
 6829.0000        15.7440         0.0335        68.6544        56.8475        52.7912         5.7039         7.1498         5.6241        15.7787         0.8272         8.4696         1.0132         8.0768         2.4662         2.1387        61.4822     
 6829.5000        15.8509         0.0287        69.4173        55.6186        55.3085         5.7042         6.7662         5.3435        15.6187         0.8339         9.3700         0.9855         8.8694         2.4503         2.0911        61.9404     
 6830.0000        15.9351         0.0469        68.8222        54.6152        57.8526         5.6145         6.6482         5.0462        15.2600         0.8137        11.5191         0.9628         9.5730         2.4635         2.0613        62.4043     
 6830.5000        16.0338         0.0747        67.3553        54.1663        60.5653         5.5255         6.7535         5.0569        16.9306         0.7898        20.1762         0.9941        10.2327         2.4907         2.0253        62.8564     
 6831.0000        16.2083         0.0890        65.9278        56.0164        63.6014         5.4491         7.4262         5.2838        17.3420         0.6967        20.7717         0.7518        12.4349         2.5119         1.9770        63.2269     
 6831.5000        16.4748         0.0511        65.4040        60.5646        66.0422         5.4246         7.7460         5.4727        17.7281         0.7321        13.7084         0.7431        14.5303         2.5101         1.9380        63.5253     
 6832.0000        16.9236         0.0200        66.5227        63.3522        67.0161         5.5079         7.7204         5.4684        18.0193         1.1006        15.5239         1.0696        15.1992         2.4993         1.9064        63.8195     
 6832.5000        17.3145         0.0092        67.3793        63.6863        66.3792         5.5736         7.6554         5.1870        18.0859         1.6348        16.1230         1.2179        15.5875         2.5008         1.8719        64.2401     
 6833.0000        17.4885         0.0067        67.5935        63.5640        65.4366         5.6218         7.6711         5.0205        18.1015         2.2392        15.7926         1.1635        15.4946         2.5006         1.8332        64.4646     
 6833.5000        17.5295         0.0142        67.7962        63.5466        65.2633         5.7042         7.7856         5.0160        18.3177         2.2683        16.9926         1.1084        15.2435         2.4954         1.8005        64.3402     
 6834.0000        17.5305         0.0229        68.0169        63.6639        65.5133         5.8451         7.9630         5.0477        18.5521         1.9252        13.6433         1.0541        15.3192         2.4877         1.7741        64.1570     
 6834.5000        17.5247         0.0217        68.2174        64.1580        67.3391         5.9863         8.1242         5.0006        18.7716         1.6316        13.6850         1.0194        15.3800         2.4720         1.7468        63.8247     
 6835.0000        17.5199         0.0176        68.3291        65.2955        69.4081         6.1273         8.0152         4.8998        18.9480         1.4038        14.5296         0.9915        15.3813         2.4630         1.7150        63.5425     
 6835.5000        17.5215         0.0180        68.5112        67.4557        70.7625         6.2698         7.7929         4.8184        19.0376         1.1982        13.9511         0.9815        15.5948         2.4626         1.6794        63.4304     
 6836.0000        17.5285         0.0188        68.8135        69.0949        73.1622         6.4283         7.5289         4.7577        19.0862         1.0505        13.4908         0.9774        15.7274         2.4612         1.6501        63.3229     
 6836.5000        17.5349         0.0158        69.0578        73.2619        76.6298         6.4915         7.3055         4.6806        19.1163         0.9215        13.6241         0.9636        15.9206         2.4550         1.6297        63.2208     
 6837.0000        17.5395         0.0132        69.1908        77.4275        81.2600         6.4916         7.0480         4.5567        19.1402         0.8446        13.3285         0.9470        16.5195         2.4406         1.6183        63.1618     
 6837.5000        17.5436         0.0131        69.0737        81.5186        85.9681         6.4917         6.8767         4.4292        19.1763         0.8071        15.3709         0.9324        17.2116         2.4430         1.5932        63.1774     
 6838.0000        17.5480         0.0165        68.8611        86.3003        90.1723         6.4628         6.8682         4.3560        19.1920         0.7845        15.5081         0.8960        17.4942         2.4534         1.5869        63.3282     
