~Version Information Section
VERS.          2.0                                     : CWLS LOG ASCII Standard
WRAP.          NO                                      : One line per depth step
CREA.          03/10/17                                : LAS Creation Date
~Well Information Section
STRT.ft        550.5000                                : Start Depth
STOP.ft        8567.0000                               : Stop Depth
STEP.ft        0.5000                                  : Step
NULL.          -999.2500                               : Null Value
COMP.          CONOCO GULF NCB                         : Company
WELL.          15/19-2                                 : Well
FLD .          WILDCAT                                 : Field
LOC .          NORTH SEA                               : Location
LOC1.          -                                       : Location (UTM)
CTRY.          UK                                      : Country
PROV.          UKCS                                    : Province
UWI .          908                                     : UWI Number
API .          -                                       : API Number
SECT.          -                                       : Section
TOWN.          -                                       : Township
RNGE.          -                                       : Range
PDAT.          MSL                                     : Perm Datum
EPD .ft        0.0                                     : Elevation
LMF .          RKB                                     : Log Measured From
DMF .          RKB                                     : Drill Measured From
APD .ft        71.0                                    : Above Perm Datum
EKB .ft        71.0                                    : Elev-Kelly Bushing
EDF .          -                                       : Elev-Drill Floor
EGL .ft        -495.0                                  : Elev-Ground Level (Water Depth)
TDD .ft        8575.0                                  : Total Depth (Driller)
TDL .ft        8567.0                                  : Total Depth (Logger)
SRVC.          SCHLUMBERGER                            : Service Company
LATI.          58 29 27.8" N                           : Latitude
LONG.          00 39 43.6" E                           : Longitude
DATE.          10-APR-1974 - 11-JUN-1974               : Logging Date
PROJ.          UKCS                                    : Project
SET .          COMP_WIRE                               : Set
~Curve Information Section
DEPTH.ft                                               : Depth Curve
CALD.in                                                : Caliper (from FDC/CNL/GR)
DRHO.g/cc                                              : Delta Rho
DT.us/ft                                               : Delta-T
GR.gAPI                                                : Gamma Ray (from ISF/BHC/GR)
GRD.gAPI                                               : Gamma Ray (from FDC/CNL/GR)
ILD.Ohmm                                               : Deep Induction Standard Processed Resistivity
LLD.Ohmm                                               : Latero-Log Deep (Resistivity)
LLS.Ohmm                                               : Latero-Log Shallow (Resistivity)
MCAL.in                                                : Caliper (from MLL/ML)
MINV.Ohmm                                              : Micro-Inverse Resistivity
MLL.Ohmm                                               : Mll Resistivity
MNOR.Ohmm                                              : Micro-Normal Resistivity
NPHI.pu                                                : Neutron Porosity
RHOB.g/cc                                              : Bulk Density
SFLU.Ohmm                                              : SFL Resistivity (Unaveraged)
SP.mV                                                  : Spontaneous Potential 
~ASCII Log Data Section
# ...
 5974.5000        13.2512         0.0479        97.2765        27.7048        31.3371         0.5151         0.6401         0.7247        11.9122         0.4760         1.7177         0.4869        28.7958         2.2660         0.7443        40.0526     
 5975.0000        13.4367         0.0649        96.9727        27.2810        34.2287         0.5222         0.6202         0.7076        11.7337         0.3886         1.7781         0.4736        28.5681         2.2761         0.7409        40.1774     
 5975.5000        13.4908         0.0675        96.6375        27.5224        34.6388         0.5304         0.6202         0.7032        11.6192         0.3975         2.1095         0.4734        29.1951         2.2880         0.7398        40.2571     
 5976.0000        13.5462         0.0540        96.1968        28.3932        34.4313         0.5412         0.6616         0.7330        11.5867         0.4980         2.3854         0.4732        29.9640         2.2940         0.7480        40.2383     
 5976.5000        13.6618         0.0308        95.8978        30.5383        34.7515         0.5528         0.7106         0.7778        11.6016         0.5836         2.0301         0.4730        30.7911         2.2982         0.7640        40.0926     
 5977.0000        13.5978         0.0228        95.8457        32.5059        36.9658         0.5607         0.7382         0.8017        11.6523         0.4914         1.7968         0.4728        31.5619         2.3040         0.7816        39.9432     
 5977.5000        13.2839         0.0272        96.0587        32.8815        39.0080         0.5608         0.7362         0.7844        11.7021         0.4158         1.6968         0.4762        31.3415         2.3042         0.7924        40.0586     
 5978.0000        12.9587         0.0229        96.5033        32.3720        40.5069         0.5559         0.7044         0.7547        11.7282         0.4716         1.9008         0.4862        30.0385         2.2960         0.7903        40.4902     
 5978.5000        12.8576         0.0125        96.8786        31.4666        40.4134         0.5490         0.6600         0.7321        11.7448         0.5407         1.8589         0.4957        28.5840         2.2701         0.7877        41.0650     
 5979.0000        12.9519         0.0092        96.7630        30.3981        37.0049         0.5401         0.6519         0.7310        11.7645         0.5559         1.9065         0.4967        26.6372         2.2556         0.7927        41.2072     
 5979.5000        13.0318         0.0082        96.0839        28.9138        34.1374         0.5290         0.6762         0.7453        11.7890         0.5463         1.7911         0.4720        25.1032         2.2495         0.7978        40.2632     
 5980.0000        12.8844         0.0072        95.4957        27.9022        32.1622         0.5175         0.6892         0.7619        11.7646         0.5523         1.9162         0.4794        24.2837         2.2450         0.7937        39.0686     
 5980.5000        12.6763         0.0091        95.4283        27.1993        30.7115         0.5058         0.6879         0.7618        11.7238         0.5696         1.7401         0.5085        23.9459         2.2422         0.7793        38.6854     
 5981.0000        12.5564         0.0134        95.9404        26.4841        29.9557         0.4939         0.6757         0.7497        11.6792         0.5613         1.7156         0.5230        23.8378         2.2455         0.7588        38.7167     
 5981.5000        12.5553         0.0220        96.6938        25.5769        29.4846         0.4836         0.6592         0.7310        11.6649         0.4887         1.8004         0.5264        24.3878         2.2529         0.7383        38.9844     
 5982.0000        12.6408         0.0177        97.6766        24.8248        29.1975         0.4745         0.6433         0.7128        11.7141         0.4621         1.7084         0.5087        25.6427         2.2510         0.7218        39.3612     
 5982.5000        12.7528         0.0165        98.5628        24.3316        27.8666         0.4669         0.6305         0.6988        11.8989         0.4741         1.4874         0.4979        27.3712         2.2409         0.7104        39.7702     
 5983.0000        12.8684         0.0198        99.1981        24.0162        26.9836         0.4627         0.6202         0.6940        12.0256         0.5582         1.5250         0.5512        29.1786         2.2321         0.7033        39.9446     
 5983.5000        12.8377         0.0170        99.5632        24.0872        27.0512         0.4606         0.6095         0.6911        11.9802         0.6291         1.5534         0.5985        30.5049         2.2266         0.6983        39.9276     
 5984.0000        12.6947         0.0109        99.5665        24.5235        27.7071         0.4599         0.5973         0.6825        11.9898         0.5850         1.5469         0.5831        31.3926         2.2252         0.6965        39.9106     
 5984.5000        12.5667         0.0118        99.6688        24.8236        29.3878         0.4637         0.5842         0.6673        12.0476         0.5363         1.5469         0.5675        31.3668         2.2190         0.6970        40.0458     
 5985.0000        12.5203         0.0219        99.8376        25.0123        33.0626         0.4793         0.5733         0.6454        11.9504         0.5164         1.7485         0.5520        29.7430         2.2180         0.6985        40.3529     
 5985.5000        12.6078         0.0345       100.1658        25.7541        34.7409         0.5047         0.5853         0.6383        11.7798         0.5185         1.9036         0.5365        27.7718         2.2319         0.7074        40.6914     
 5986.0000        12.7994         0.0525       100.2063        27.2112        35.3084         0.5475         0.6319         0.6637        11.7079         0.5575         2.7255         0.5794        27.0823         2.2508         0.7326        41.0301     
 5986.5000        12.8285         0.0735        99.9396        29.7861        36.3185         0.6188         0.7104         0.7451        11.6705         0.6077         2.7438         0.6652        27.5946         2.2891         0.7893        41.3685     
 5987.0000        12.8699         0.0711        99.0866        33.5048        38.5162         0.6745         0.8295         0.9016        11.6445         0.6488         2.8046         0.7495        28.3989         2.3228         0.8735        41.9364     
 5987.5000        12.9647         0.0581        98.0576        36.0037        41.3803         0.6914         0.9704         1.0637        11.6753         0.6862         3.5694         0.8045        29.5169         2.3407         0.9409        42.7973     
 5988.0000        13.0274         0.0590        97.3494        36.9778        44.5272         0.6950         0.9893         1.0815        11.7062         0.6654         2.3675         0.6369        30.7750         2.3428         0.9575        43.6397     
 5988.5000        12.8657         0.0584        97.5034        36.4011        46.2369         0.6869         0.8879         0.9917        11.7325         0.6090         2.0512         0.5073        31.5537         2.3477         0.9392        43.6617     
 5989.0000        12.8126         0.0372        98.3814        34.3152        46.6741         0.6650         0.7708         0.8736        11.7550         0.5745         1.7198         0.4759        31.9801         2.3218         0.8917        42.5238     
 5989.5000        12.7838         0.0162        99.9059        31.8760        44.7768         0.6297         0.6794         0.7818        11.7776         0.5539         1.7093         0.4744        31.8138         2.2519         0.8281        41.2826     
 5990.0000        12.6821         0.0088       101.8206        29.2489        40.7055         0.5901         0.6222         0.7230        11.8108         0.5571         1.7091         0.4822        31.3260         2.2294         0.7854        40.4047     
