~Version Information Section
VERS.          2.0                                     : CWLS LOG ASCII Standard
WRAP.          NO                                      : One line per depth step
CREA.          03/10/17                                : LAS Creation Date
~Well Information Section
STRT.ft        550.5000                                : Start Depth
STOP.ft        8567.0000                               : Stop Depth
STEP.ft        0.5000                                  : Step
NULL.          -999.2500                               : Null Value
COMP.          CONOCO GULF NCB                         : Company
WELL.          15/19-2                                 : Well
FLD .          WILDCAT                                 : Field
LOC .          NORTH SEA                               : Location
LOC1.          -                                       : Location (UTM)
CTRY.          UK                                      : Country
PROV.          UKCS                                    : Province
UWI .          908                                     : UWI Number
API .          -                                       : API Number
SECT.          -                                       : Section
TOWN.          -                                       : Township
RNGE.          -                                       : Range
PDAT.          MSL                                     : Perm Datum
EPD .ft        0.0                                     : Elevation
LMF .          RKB                                     : Log Measured From
DMF .          RKB                                     : Drill Measured From
APD .ft        71.0                                    : Above Perm Datum
EKB .ft        71.0                                    : Elev-Kelly Bushing
EDF .          -                                       : Elev-Drill Floor
EGL .ft        -495.0                                  : Elev-Ground Level (Water Depth)
TDD .ft        8575.0                                  : Total Depth (Driller)
TDL .ft        8567.0                                  : Total Depth (Logger)
SRVC.          SCHLUMBERGER                            : Service Company
LATI.          58 29 27.8" N                           : Latitude
LONG.          00 39 43.6" E                           : Longitude
DATE.          10-APR-1974 - 11-JUN-1974               : Logging Date
PROJ.          UKCS                                    : Project
SET .          COMP_WIRE                               : Set
~Curve Information Section
DEPTH.ft                                               : Depth Curve
CALD.in                                                : Caliper (from FDC/CNL/GR)
DRHO.g/cc                                              : Delta Rho
DT.us/ft                                               : Delta-T
GR.gAPI                                                : Gamma Ray (from ISF/BHC/GR)
GRD.gAPI                                               : Gamma Ray (from FDC/CNL/GR)
ILD.Ohmm                                               : Deep Induction Standard Processed Resistivity
LLD.Ohmm                                               : Latero-Log Deep (Resistivity)
LLS.Ohmm                                               : Latero-Log Shallow (Resistivity)
MCAL.in                                                : Caliper (from MLL/ML)
MINV.Ohmm                                              : Micro-Inverse Resistivity
MLL.Ohmm                                               : Mll Resistivity
MNOR.Ohmm                                              : Micro-Normal Resistivity
NPHI.pu                                                : Neutron Porosity
RHOB.g/cc                                              : Bulk Density
SFLU.Ohmm                                              : SFL Resistivity (Unaveraged)
SP.mV                                                  : Spontaneous Potential 
~ASCII Log Data Section
# ...
 8262.5000        17.4914         0.0431        76.5750        46.7336        40.8877         3.2860         4.0604         2.0953        19.3043         0.3495         4.1077         0.4133        17.8840         2.2783         0.9040        87.1933     
 8263.0000        17.4908         0.0450        76.4254        48.5331        40.9697         3.3426         4.0798         2.0753        19.3004         0.3488         4.4194         0.4023        18.2154         2.2583         0.8999        87.3252     
 8263.5000        17.4902         0.0456        76.5159        49.3977        40.7844         3.4070         4.1247         2.0801        19.2965         0.3428         3.7752         0.3984        18.2608         2.2480         0.8997        87.6983     
 8264.0000        17.4895         0.0540        76.9205        49.7009        41.4191         3.4835         4.2737         2.0950        19.2930         0.3326         2.4075         0.3978        18.2983         2.2462         0.8995        88.1003     
 8264.5000        17.4889         0.0744        77.2062        50.3188        42.7735         3.5779         4.4672         2.1225        19.2894         0.3187         1.9139         0.3971        18.6314         2.2452         0.8992        88.0092     
 8265.0000        17.4883         0.0795        76.9706        51.3941        44.4603         3.6784         4.6285         2.1571        19.2859         0.3084         3.0803         0.3964        18.9535         2.2235         0.9027        87.7658     
 8265.5000        17.4876         0.0744        76.3639        52.1061        46.2514         3.8265         4.8587         2.2069        19.2829         0.3052         3.4537         0.3914        19.0456         2.2237         0.9085        87.3856     
 8266.0000        17.4870         0.0823        75.2767        51.4302        47.7072         3.9892         5.1682         2.2608        19.2813         0.3045         3.1183         0.3712        19.1374         2.2306         0.9143        87.1544     
 8266.5000        17.4864         0.0875        74.2822        49.8487        48.1591         4.1522         5.4843         2.3249        19.2799         0.3038         3.0173         0.3641        19.1690         2.2322         0.9223        87.2717     
 8267.0000        17.5043         0.0900        73.3501        48.2616        47.8547         4.3269         5.7365         2.3986        19.2785         0.3031         3.4525         0.3611        18.7954         2.2345         0.9309        87.3900     
 8267.5000        17.5066         0.0846        72.4181        45.8402        47.7850         4.5078         5.9983         2.4807        19.2770         0.3013         3.5604         0.3539        18.0585         2.2163         0.9394        87.5052     
 8268.0000        17.5071         0.0804        71.4021        44.1428        47.8082         4.6874         6.2341         2.5539        19.2756         0.2958         3.5047         0.3464        17.2899         2.2059         0.9480        87.2322     
 8268.5000        17.5075         0.0793        71.0849        44.9293        46.4426         4.8564         6.4286         2.5998        19.2742         0.2900         3.4921         0.3381        16.5465         2.2078         0.9566        86.8073     
 8269.0000        17.5079         0.0737        71.7445        45.9288        44.7348         4.9786         6.5417         2.6341        19.2742         0.2842         3.0285         0.3330        15.7482         2.2017         0.9761        86.2475     
 8269.5000        17.5083         0.0658        72.6731        45.1699        43.6240         5.0389         6.5377         2.6336        19.2815         0.2844         2.5065         0.3388        15.0732         2.1915         0.9971        85.6180     
 8270.0000        17.5087         0.0644        72.4588        44.3998        42.4243         5.0595         6.7349         2.6069        19.2905         0.2992         3.7866         0.3446        14.8486         2.1853         1.0021        84.9609     
 8270.5000        17.5091         0.0703        71.4156        44.2863        40.7564         5.0585         7.2404         2.6529        19.2965         0.3123         3.9322         0.3518        14.5879         2.1743         1.0019        84.3408     
 8271.0000        17.5095         0.0763        69.4120        45.4491        39.4604         5.0574         7.9226         2.7839        19.2982         0.3174         4.2293         0.3631        13.3439         2.1803         0.9941        83.8258     
 8271.5000        17.5099         0.0811        68.9139        46.7742        39.5079         5.0564         8.4249         2.9067        19.2995         0.3170         4.3810         0.3610        12.6216         2.1875         0.9859        83.2722     
 8272.0000        17.5103         0.0852        69.7316        48.0992        40.4212         5.0553         8.2140         2.9210        19.3009         0.3187         3.5218         0.3600        12.8161         2.1974         0.9767        82.6203     
 8272.5000        17.5107         0.0909        71.9130        49.3557        41.8246         5.0132         7.6065         2.8077        19.3022         0.3230         3.2816         0.3636        14.1644         2.2091         0.9670        81.9680     
 8273.0000        17.5111         0.0862        73.3438        49.5303        43.3614         4.9687         6.9658         2.7147        19.2996         0.3274         4.5970         0.3594        15.1616         2.1940         0.9573        81.2715     
 8273.5000        17.5115         0.0696        73.8699        49.6700        44.5276         4.9406         6.6379         2.6656        19.2925         0.3319         4.7272         0.3556        15.5231         2.1649         0.9476        80.5321     
 8274.0000        17.5119         0.0616        73.7836        50.9323        45.1303         4.9164         6.6134         2.6665        19.2851         0.3396         4.1253         0.3773        15.3905         2.1450         0.9390        79.7943     
 8274.5000        17.5123         0.0672        73.5919        53.0526        46.3724         4.9476         6.7361         2.6946        19.2777         0.3503         3.8390         0.4017        15.0993         2.1563         0.9305        79.0903     
 8275.0000        17.5127         0.0832        73.2326        56.1221        48.7453         4.9895         6.9223         2.7286        19.2702         0.3591         3.1969         0.4095        15.0203         2.1716         0.9219        78.3855     
 8275.5000        17.5131         0.0905        72.4129        58.4419        51.8520         5.1746         7.2465         2.7743        19.2623         0.3539         3.1839         0.3997        15.3004         2.1629         0.9173        77.6817     
 8276.0000        17.5135         0.0871        71.2775        58.2590        53.4575         5.4161         7.7553         2.8354        19.2550         0.3421         3.1024         0.3864        15.6266         2.1588         0.9140        76.9780     
 8276.5000        17.5138         0.0871        69.7838        57.1848        52.3076         5.6453         8.3302         2.9307        19.2597         0.3356         3.2339         0.3883        15.3362         2.1620         0.9108        76.3340     
 8277.0000        17.5133         0.0892        68.3777        53.1408        49.6280         5.7654         8.8683         3.0579        19.2702         0.3576         3.4677         0.4003        14.7979         2.1658         0.9236        75.7649     
 8277.5000        17.5127         0.0805        67.4020        49.3598        46.3839         5.8621         9.5021         3.1394        19.2681         0.3691         3.3579         0.4041        14.2437         2.1449         0.9373        75.1950     
 8278.0000        17.5120         0.0636        66.7766        49.1475        43.4636         5.9510         9.8265         3.1726        19.2606         0.3666         2.8697         0.3946        13.6089         2.1212         0.9464        74.6260     
