~Version Information Section
VERS.          2.0                                     : CWLS LOG ASCII Standard
WRAP.          NO                                      : One line per depth step
CREA.          03/10/17                                : LAS Creation Date
~Well Information Section
STRT.ft        550.5000                                : Start Depth
STOP.ft        8567.0000                               : Stop Depth
STEP.ft        0.5000                                  : Step
NULL.          -999.2500                               : Null Value
COMP.          CONOCO GULF NCB                         : Company
WELL.          15/19-2                                 : Well
FLD .          WILDCAT                                 : Field
LOC .          NORTH SEA                               : Location
LOC1.          -                                       : Location (UTM)
CTRY.          UK                                      : Country
PROV.          UKCS                                    : Province
UWI .          908                                     : UWI Number
API .          -                                       : API Number
SECT.          -                                       : Section
TOWN.          -                                       : Township
RNGE.          -                                       : Range
PDAT.          MSL                                     : Perm Datum
EPD .ft        0.0                                     : Elevation
LMF .          RKB                                     : Log Measured From
DMF .          RKB                                     : Drill Measured From
APD .ft        71.0                                    : Above Perm Datum
EKB .ft        71.0                                    : Elev-Kelly Bushing
EDF .          -                                       : Elev-Drill Floor
EGL .ft        -495.0                                  : Elev-Ground Level (Water Depth)
TDD .ft        8575.0                                  : Total Depth (Driller)
TDL .ft        8567.0                                  : Total Depth (Logger)
SRVC.          SCHLUMBERGER                            : Service Company
LATI.          58 29 27.8" N                           : Latitude
LONG.          00 39 43.6" E                           : Longitude
DATE.          10-APR-1974 - 11-JUN-1974               : Logging Date
PROJ.          UKCS                                    : Project
SET .          COMP_WIRE                               : Set
~Curve Information Section
DEPTH.ft                                               : Depth Curve
CALD.in                                                : Caliper (from FDC/CNL/GR)
DRHO.g/cc                                              : Delta Rho
DT.us/ft                                               : Delta-T
GR.gAPI                                                : Gamma Ray (from ISF/BHC/GR)
GRD.gAPI                                               : Gamma Ray (from FDC/CNL/GR)
ILD.Ohmm                                               : Deep Induction Standard Processed Resistivity
LLD.Ohmm                                               : Latero-Log Deep (Resistivity)
LLS.Ohmm                                               : Latero-Log Shallow (Resistivity)
MCAL.in                                                : Caliper (from MLL/ML)
MINV.Ohmm                                              : Micro-Inverse Resistivity
MLL.Ohmm                                               : Mll Resistivity
MNOR.Ohmm                                              : Micro-Normal Resistivity
NPHI.pu                                                : Neutron Porosity
RHOB.g/cc                                              : Bulk Density
SFLU.Ohmm                                              : SFL Resistivity (Unaveraged)
SP.mV                                                  : Spontaneous Potential 
~ASCII Log Data Section
# ...
 8550.5000        12.5902         0.0023      -999.2500       128.0517       142.1190         6.1358         6.0651         5.7053      -999.2500         1.0825         3.1800         0.8144        17.2614         2.5197         3.7851        99.9019     
 8551.0000        12.5682        -0.0009      -999.2500       131.6724       145.2362         6.0552         5.8566         5.4225      -999.2500         1.0229         2.8413         0.8383        17.1245         2.5053         3.7769        99.4324     
 8551.5000        12.5507        -0.0071      -999.2500       137.2248       148.3553         5.9746         5.9266         5.2794      -999.2500         0.7855         4.8897         0.7621        16.8794         2.4706         3.7775        98.9610     
 8552.0000        12.5519        -0.0124      -999.2500       141.7604       149.5322         5.8457         6.2985         5.2299      -999.2500         0.6163         3.0443         0.6076        16.6868         2.4540         3.7891        98.4515     
 8552.5000        12.5560        -0.0025      -999.2500       142.1440       150.0240         5.6715         6.4753         5.4514      -999.2500         0.5093         3.5156         0.5263        16.4811         2.4741         3.8275        97.9483     
 8553.0000        12.5572         0.0164      -999.2500       140.4874       150.7754         5.4808         6.4283         5.6896      -999.2500         0.4603         5.4388         0.4663        16.1712         2.5059         3.8617        97.5699     
 8553.5000        12.5517         0.0304      -999.2500       138.2554       150.8976         5.2630         6.2718         5.7213      -999.2500         0.4937         2.3926         0.4657        15.8215         2.5135         3.8608        97.1929     
 8554.0000        12.5318         0.0289      -999.2500       136.2383       149.1975         5.0452         6.2655         5.6819      -999.2500         0.5823         1.8322         0.5425        15.6286         2.4961         3.8520        96.9101     
 8554.5000        12.4990         0.0315      -999.2500       136.4479       148.1645         4.8938         6.2599         5.5637      -999.2500         0.6655         2.5073         0.6022        15.6551         2.4905         3.7856        96.8068     
 8555.0000        12.4592         0.0324      -999.2500       135.4242       148.3128         4.7500      -999.2500         5.5079      -999.2500         0.5941         2.3216         0.5467        15.7977         2.4874         3.5412        96.9394     
 8555.5000        12.4214         0.0347      -999.2500       133.8037       148.8150         4.6105      -999.2500      -999.2500      -999.2500         0.5137         1.9558         0.5004        16.0294         2.4782         3.2787        96.6048     
 8556.0000        12.3990         0.0378      -999.2500       132.9503       149.4740         4.5089      -999.2500      -999.2500      -999.2500         0.4603         1.4785         0.4770        16.3214         2.4809         3.1099        96.2489     
 8556.5000        12.3704         0.0351      -999.2500       132.5399       150.2420         4.4076      -999.2500      -999.2500      -999.2500         0.4582         1.4999         0.4644        16.6173         2.4845         2.9638        95.9217     
 8557.0000        12.3245         0.0459      -999.2500       133.9095       150.4556         4.3287      -999.2500      -999.2500      -999.2500         0.4700         1.6349         0.4725        16.7564         2.4886         2.8590        95.5940     
 8557.5000        12.2666         0.0636      -999.2500       135.8229       147.7562         4.2639      -999.2500      -999.2500      -999.2500         0.4781         1.4667         0.4771        16.6539         2.4806         2.7861        95.4554     
 8558.0000        12.1761         0.0674      -999.2500       137.9081       144.7003         4.2086      -999.2500      -999.2500      -999.2500         0.4654         1.4206         0.4720        16.6394         2.4616         2.7651        95.3595     
 8558.5000        12.0445         0.0651      -999.2500       139.3025       143.0722         4.2078      -999.2500      -999.2500      -999.2500         0.4552         1.3722         0.4588        16.7870         2.4581         2.7812        95.5139     
 8559.0000        11.8270         0.0742      -999.2500       138.9483       142.2314         4.2391      -999.2500      -999.2500      -999.2500         0.4254         1.2964         0.4381        16.9487         2.4634         2.8230        95.7916     
 8559.5000        11.4785         0.0830      -999.2500       137.5051       143.2121         4.4284      -999.2500      -999.2500      -999.2500         0.3646         1.1334         0.4188        16.9297         2.4623         2.8988        96.2122     
 8560.0000        11.0517         0.0912      -999.2500       137.0080       143.4637         4.6167      -999.2500      -999.2500      -999.2500         0.3372         1.0609         0.4076        16.9178         2.4554         2.9900        96.7616     
 8560.5000        11.0609         0.0964      -999.2500       137.5360      -999.2500         4.7605      -999.2500      -999.2500      -999.2500         0.3219         0.9083         0.4002        16.8809         2.4496         3.1257        96.9870     
 8561.0000        11.2056         0.0928      -999.2500       137.3888      -999.2500      -999.2500      -999.2500      -999.2500      -999.2500         0.3141         0.9085         0.4021        16.6232         2.4430         3.1808        97.0780     
 8561.5000        11.0940         0.0701      -999.2500       135.5636      -999.2500      -999.2500      -999.2500      -999.2500      -999.2500         0.3107         0.9399         0.4123        16.3257         2.4250         3.2458        97.0677     
 8562.0000        11.2669         0.0449      -999.2500       133.4926      -999.2500      -999.2500      -999.2500      -999.2500      -999.2500         0.3193         1.4180         0.4293        16.5076         2.3944         3.2638        96.9784     
 8562.5000        11.4076         0.0316      -999.2500       131.9929      -999.2500      -999.2500      -999.2500      -999.2500      -999.2500         0.3538         1.5616         0.4528        16.9420         2.3706         3.2744        96.8668     
 8563.0000        11.3824         0.0448      -999.2500       130.9772      -999.2500      -999.2500      -999.2500      -999.2500      -999.2500         0.3687         1.2574         0.5763        17.1512         2.3733         3.2740        96.6909     
 8563.5000        11.0807         0.0562      -999.2500       130.4384      -999.2500      -999.2500      -999.2500      -999.2500      -999.2500         0.3421         1.0828         0.5352        17.1366         2.3933         3.2735        96.5144     
 8564.0000        10.9995         0.0668      -999.2500       130.2033      -999.2500      -999.2500      -999.2500      -999.2500      -999.2500         0.3242         0.8650         0.4453        17.0312         2.4113      -999.2500        96.2318     
 8564.5000        10.9900         0.0825      -999.2500       131.0537      -999.2500      -999.2500      -999.2500      -999.2500      -999.2500         0.3188         0.7257         0.3991        17.0818         2.4363      -999.2500        95.9431     
 8565.0000      -999.2500      -999.2500      -999.2500       131.3248      -999.2500      -999.2500      -999.2500      -999.2500      -999.2500         0.3132         0.6884         0.3614      -999.2500         2.4619      -999.2500        95.6607     
 8565.5000      -999.2500      -999.2500      -999.2500       131.2403      -999.2500      -999.2500      -999.2500      -999.2500      -999.2500      -999.2500         0.6671         0.3407      -999.2500      -999.2500      -999.2500        95.4147     
 8566.0000      -999.2500      -999.2500      -999.2500       130.8405      -999.2500      -999.2500      -999.2500      -999.2500      -999.2500      -999.2500         0.6725      -999.2500      -999.2500      -999.2500      -999.2500        95.1685     
