~Version Information Section
VERS.          2.0                                     : CWLS LOG ASCII Standard
WRAP.          NO                                      : One line per depth step
CREA.          03/10/17                                : LAS Creation Date
~Well Information Section
STRT.ft        550.5000                                : Start Depth
STOP.ft        8567.0000                               : Stop Depth
STEP.ft        0.5000                                  : Step
NULL.          -999.2500                               : Null Value
COMP.          CONOCO GULF NCB                         : Company
WELL.          15/19-2                                 : Well
FLD .          WILDCAT                                 : Field
LOC .          NORTH SEA                               : Location
LOC1.          -                                       : Location (UTM)
CTRY.          UK                                      : Country
PROV.          UKCS                                    : Province
UWI .          908                                     : UWI Number
API .          -                                       : API Number
SECT.          -                                       : Section
TOWN.          -                                       : Township
RNGE.          -                                       : Range
PDAT.          MSL                                     : Perm Datum
EPD .ft        0.0                                     : Elevation
LMF .          RKB                                     : Log Measured From
DMF .          RKB                                     : Drill Measured From
APD .ft        71.0                                    : Above Perm Datum
EKB .ft        71.0                                    : Elev-Kelly Bushing
EDF .          -                                       : Elev-Drill Floor
EGL .ft        -495.0                                  : Elev-Ground Level (Water Depth)
TDD .ft        8575.0                                  : Total Depth (Driller)
TDL .ft        8567.0                                  : Total Depth (Logger)
SRVC.          SCHLUMBERGER                            : Service Company
LATI.          58 29 27.8" N                           : Latitude
LONG.          00 39 43.6" E                           : Longitude
DATE.          10-APR-1974 - 11-JUN-1974               : Logging Date
PROJ.          UKCS                                    : Project
SET .          COMP_WIRE                               : Set
~Curve Information Section
DEPTH.ft                                               : Depth Curve
CALD.in                                                : Caliper (from FDC/CNL/GR)
DRHO.g/cc                                              : Delta Rho
DT.us/ft                                               : Delta-T
GR.gAPI                                                : Gamma Ray (from ISF/BHC/GR)
GRD.gAPI                                               : Gamma Ray (from FDC/CNL/GR)
ILD.Ohmm                                               : Deep Induction Standard Processed Resistivity
LLD.Ohmm                                               : Latero-Log Deep (Resistivity)
LLS.Ohmm                                               : Latero-Log Shallow (Resistivity)
MCAL.in                                                : Caliper (from MLL/ML)
MINV.Ohmm                                              : Micro-Inverse Resistivity
MLL.Ohmm                                               : Mll Resistivity
MNOR.Ohmm                                              : Micro-Normal Resistivity
NPHI.pu                                                : Neutron Porosity
RHOB.g/cc                                              : Bulk Density
SFLU.Ohmm                                              : SFL Resistivity (Unaveraged)
SP.mV                                                  : Spontaneous Potential 
~ASCII Log Data Section
# ...
 5398.5000        13.6980         0.0391       134.8134        58.1319        76.7993         0.7776         0.7104         0.7407        13.3050         0.5407         0.7962         0.4814        43.1297         2.1846         0.6987        48.9422     
 5399.0000        13.7968         0.0403       135.7700        58.8890        78.4354         0.7996         0.7024         0.7382        13.4160         0.5359         0.7766         0.4859        41.8903         2.1947         0.7039        48.3475     
 5399.5000        14.1163         0.0503       132.9277        58.9324        80.5662         0.8218         0.7219         0.7508        13.5786         0.5432         0.8114         0.4904        41.3046         2.2190         0.7092        48.0106     
 5400.0000        13.9612         0.0601       129.2039        58.2446        79.9250         0.8323         0.7580         0.7862        13.7559         0.5560         0.8962         0.5002        41.8061         2.2616         0.7182        47.9084     
 5400.5000        13.7570         0.0664       123.8461        56.9908        76.5016         0.8288         0.8143         0.8386        13.7619         0.5687         1.0025         0.5153        42.4242         2.3274         0.7332        48.0073     
 5401.0000        13.6788         0.0554       114.6115        53.8791        72.1679         0.8018         0.9293         0.9344        13.7475         0.5914         0.8949         0.5410        42.0943         2.3785         0.7504        48.2420     
 5401.5000        13.5848         0.0372       108.7483        50.4974        67.4423         0.7451         0.9809         0.9962        13.8733         0.6393         0.8602         0.6252        40.2178         2.4378         0.7603        48.5422     
 5402.0000        13.4353         0.0606       110.7527        49.0455        62.3408         0.7027         0.8584         0.9089        14.0052         1.3901         0.8119         0.9562        37.9239         2.4794         0.7531        49.3765     
 5402.5000        13.4231         0.0936       114.6358        49.0729        59.4299         0.7002         0.7126         0.7412        13.8711         1.7817         0.6143         0.8739        37.9827         2.4542         0.7067        49.8025     
 5403.0000        13.8134         0.0848       121.4582        51.2482        59.3824         0.6778         0.5880         0.6058        13.6861         0.6753         0.5882         0.6064        40.9899         2.3466         0.6435        48.7938     
 5403.5000        14.1633         0.0658       129.9533        54.4985        60.8995         0.5985         0.5052         0.5510        13.8249         0.5548         0.7252         0.4357        42.1408         2.2597         0.6124        47.5140     
 5404.0000        14.2016         0.0618       129.0749        55.3811        63.5116         0.5022         0.5499         0.5837        13.9182         0.5551         0.7085         0.4611        41.4950         2.2184         0.6128        46.5749     
 5404.5000        14.2349         0.0804       128.2331        56.2566        67.0433         0.4265         0.6560         0.6800        13.7898         0.5205         0.7047         0.4744        41.2589         2.2253         0.6237        46.0996     
 5405.0000        14.2837         0.0887       129.1642        55.9644        70.4909         0.3617         0.7125         0.7620        13.5130         0.5030         0.6955         0.4751        41.4189         2.2290         0.6235        45.9501     
 5405.5000        14.1527         0.0882       129.3434        55.3540        71.4560         0.3065         0.6914         0.7558        13.2742         0.4962         0.7713         0.4860        41.6977         2.2253         0.5998        45.9901     
 5406.0000        13.6996         0.0886       129.1617        54.7479        71.7870         0.2529         0.6160         0.6912        13.5871         0.5211         0.8476         0.5541        43.1459         2.2147         0.5658        46.2391     
 5406.5000        13.8413         0.0911       128.4532        54.1372        72.7793         0.2106         0.5160         0.5873        13.9751         0.5033         0.6215         0.5689        43.5355         2.2039         0.5288        46.5569     
 5407.0000        13.8435         0.0873       127.7556        53.3186        73.2281         0.1911         0.3907         0.4358        14.1888         0.5000         0.5628         0.4863        43.6671         2.2113         0.4933        46.7293     
 5407.5000        13.7394         0.0659       127.6821        51.9808        74.2057         0.1883         0.2996         0.3190        14.6197         0.4999         0.4802         0.5311        44.7556         2.2077         0.4607        46.6343     
 5408.0000        13.6616         0.0402       127.0785        51.1479        74.6980         0.1957         0.2820         0.2904        14.5943         0.4524         0.5480         0.4901        45.7674         2.2114         0.4436        46.3565     
 5408.5000        13.7004         0.0328       125.0965        49.7311        74.2164         0.2120         0.3264         0.3251        14.5822         0.4130         0.8894         0.5509        46.4622         2.2140         0.4675        46.1849     
 5409.0000        13.7318         0.0307       125.5656        47.2864        72.8068         0.2500         0.4427         0.4502        14.4261         0.8622         0.8748         0.6129        46.1529         2.2137         0.5303        46.8560     
 5409.5000        13.6644         0.0309       127.2630        45.1246        70.2018         0.3429         0.6559         0.6259        14.0483         0.8579         0.6596         0.5586        45.6682         2.2028         0.6149        47.5554     
 5410.0000        13.5502         0.0379       132.5496        43.9919        68.0035         0.4861         0.7863         0.7571        14.3869         0.4922         0.7436         0.4838        44.9002         2.1914         0.6762        47.2368     
 5410.5000        13.5078         0.0595       133.0871        43.3227        66.7085         0.6984         0.7371         0.7748        14.4941         0.4986         0.6787         0.5434        44.5382         2.1815         0.6959        46.9032     
 5411.0000        13.9138         0.0581       125.0429        43.7798        65.0911         0.9039         0.7060         0.7471        14.1381         0.4985         0.6141         0.4436        44.5401         2.1531         0.6979        46.9981     
 5411.5000        14.7450         0.0500       114.1289        44.1177        62.8155         1.0221         0.7328         0.7920        14.1254         0.4621         0.6020         0.4831        44.6793         2.0947         0.6975        47.3570     
 5412.0000        15.1072         0.0459       112.2100        44.1664        59.7740         1.0559         0.7734         0.8475        13.8860         1.0888         0.5700         0.8121        43.9463         2.0541         0.6915        47.6684     
 5412.5000        15.3632         0.0514       112.9052        44.0893        58.3435         1.0119         0.7802         0.8385        13.8222         3.3635         0.6999         0.8882        44.3152         2.0487         0.6749        47.8401     
 5413.0000        15.2425         0.0711       116.8440        44.2428        59.4615         0.9533         0.7550         0.7946        13.7792         0.7608         0.6720         0.6063        45.0181         2.0646         0.6507        48.0266     
 5413.5000        15.0011         0.0706       125.0959        44.7741        60.7677         0.9012         0.7207         0.7356        13.7771         0.4043         0.4950         0.4067        46.1081         2.0821         0.6305        48.4543     
 5414.0000        14.8317         0.0634       141.6531        45.9285        60.2076         0.8636         0.6987         0.6760        13.7244         0.4235         0.4831         0.4225        47.1419         2.1219         0.6236        49.5004     
