~Version Information Section
VERS.          2.0                                     : CWLS LOG ASCII Standard
WRAP.          NO                                      : One line per depth step
CREA.          03/10/17                                : LAS Creation Date
~Well Information Section
STRT.ft        550.5000                                : Start Depth
STOP.ft        8567.0000                               : Stop Depth
STEP.ft        0.5000                                  : Step
NULL.          -999.2500                               : Null Value
COMP.          CONOCO GULF NCB                         : Company
WELL.          15/19-2                                 : Well
FLD .          WILDCAT                                 : Field
LOC .          NORTH SEA                               : Location
LOC1.          -                                       : Location (UTM)
CTRY.          UK                                      : Country
PROV.          UKCS                                    : Province
UWI .          908                                     : UWI Number
API .          -                                       : API Number
SECT.          -                                       : Section
TOWN.          -                                       : Township
RNGE.          -                                       : Range
PDAT.          MSL                                     : Perm Datum
EPD .ft        0.0                                     : Elevation
LMF .          RKB                                     : Log Measured From
DMF .          RKB                                     : Drill Measured From
APD .ft        71.0                                    : Above Perm Datum
EKB .ft        71.0                                    : Elev-Kelly Bushing
EDF .          -                                       : Elev-Drill Floor
EGL .ft        -495.0                                  : Elev-Ground Level (Water Depth)
TDD .ft        8575.0                                  : Total Depth (Driller)
TDL .ft        8567.0                                  : Total Depth (Logger)
SRVC.          SCHLUMBERGER                            : Service Company
LATI.          58 29 27.8" N                           : Latitude
LONG.          00 39 43.6" E                           : Longitude
DATE.          10-APR-1974 - 11-JUN-1974               : Logging Date
PROJ.          UKCS                                    : Project
SET .          COMP_WIRE                               : Set
~Curve Information Section
DEPTH.ft                                               : Depth Curve
CALD.in                                                : Caliper (from FDC/CNL/GR)
DRHO.g/cc                                              : Delta Rho
DT.us/ft                                               : Delta-T
GR.gAPI                                                : Gamma Ray (from ISF/BHC/GR)
GRD.gAPI                                               : Gamma Ray (from FDC/CNL/GR)
ILD.Ohmm                                               : Deep Induction Standard Processed Resistivity
LLD.Ohmm                                               : Latero-Log Deep (Resistivity)
LLS.Ohmm                                               : Latero-Log Shallow (Resistivity)
MCAL.in                                                : Caliper (from MLL/ML)
MINV.Ohmm                                              : Micro-Inverse Resistivity
MLL.Ohmm                                               : Mll Resistivity
MNOR.Ohmm                                              : Micro-Normal Resistivity
NPHI.pu                                                : Neutron Porosity
RHOB.g/cc                                              : Bulk Density
SFLU.Ohmm                                              : SFL Resistivity (Unaveraged)
SP.mV                                                  : Spontaneous Potential 
~ASCII Log Data Section
# ...
 7686.5000        17.5565         0.0026        69.2076        72.0050        60.0550         7.3251        11.1491         4.7804        18.3083         0.9440         6.2731         0.9764        15.7256         2.5090         1.3434        56.2104     
 7687.0000        17.5601        -0.0026        68.4904        65.9972        55.6112         7.4074        10.2924         4.6338        18.3152         0.9489         3.5633         0.9634        14.8648         2.5050         1.3367        56.5541     
 7687.5000        17.5626        -0.0135        66.9966        61.3701        52.8481         7.4967        10.1665         4.5599        18.3211         0.8941         3.5173         0.9314        14.1156         2.5025         1.3471        56.9575     
 7688.0000        17.5687        -0.0196        64.6999        57.6871        51.0277         7.6859        11.2418         4.8228        18.3205         1.0363         2.1584         1.0432        13.3794         2.5189         1.3628        57.2342     
 7688.5000        17.5777        -0.0090        63.0482        56.4509        50.2857         7.8504        13.0397         5.1601        18.3115         1.1674         1.7172         1.1783        12.6420         2.5514         1.3800        57.3927     
 7689.0000        17.5867        -0.0035        63.5613        57.3719        50.6983         7.9804        15.5314         5.4568        18.2972         1.1795         3.4543         1.1952        12.4873         2.5604         1.3823        57.4173     
 7689.5000        17.5936        -0.0086        65.2709        59.2111        53.2711         7.9796        16.9661         5.5186        18.2714         0.9753         5.0389         1.0214        15.5091         2.5401         1.3718        57.3613     
 7690.0000        17.5908        -0.0100        67.1514        62.3700        57.6363         7.8896        16.5906         5.4307        18.2271         0.9443         1.6788         1.0276        17.3414         2.5233         1.3556        57.1884     
 7690.5000        17.5844        -0.0055        68.7507        65.0703        59.3599         7.6539        15.5683         5.2471        18.0563         1.2692         0.8731         1.2442        18.1763         2.5166         1.3369        56.9753     
 7691.0000        17.5866         0.0032        69.7588        64.8770        57.1163         7.3227        14.3478         5.0607        17.7157         1.0904         0.6743         1.1516        18.4420         2.5111         1.3151        56.8516     
 7691.5000        17.5836         0.0112        70.5248        63.3707        53.7588         6.9907        13.0331         4.8573        18.0170         0.7537         1.3290         0.9051        18.5163         2.5039         1.2980        56.9905     
 7692.0000        17.5673         0.0123        71.0845        60.8587        51.2063         6.6963        11.7706         4.6558        18.1342         0.6351         1.5040         0.7016        17.6077         2.4910         1.2840        57.1777     
 7692.5000        17.5558         0.0069        71.5120        58.8883        51.4481         6.4086        10.5821         4.4548        18.1515         0.6238         1.4108         0.6527        17.6302         2.4772         1.2728        57.4018     
 7693.0000        17.5585         0.0020        71.8923        57.8824        50.8529         6.1817         9.8256         4.2976        18.1622         0.6268         1.6056         0.6977        17.7008         2.4606         1.2690        57.6187     
 7693.5000        17.5630        -0.0004        72.0444        56.8555        50.3328         5.9793         9.1705         4.1490        18.1711         0.6159         1.7957         0.7081        18.3279         2.4521         1.2695        57.6880     
 7694.0000        17.5652        -0.0012        72.0481        55.1382        50.1243         5.8530         8.6113         3.9960        18.1826         0.5990         1.7852         0.7106        19.2175         2.4580         1.2680        57.6103     
 7694.5000        17.5654         0.0015        72.0517        54.8393        50.0460         5.7659         8.2049         3.8890        18.1913         0.5876         1.6239         0.7080        19.7141         2.4618         1.2639        57.4488     
 7695.0000        17.5657         0.0048        71.9887        54.7329        50.4677         5.7914         7.8591         3.8271        18.1883         0.5806         1.7278         0.7022        20.1700         2.4657         1.2645        57.2122     
 7695.5000        17.5670         0.0076        71.8899        55.5383        51.4439         5.8239         7.7082         3.8081        18.1651         0.5763         1.7469         0.6868        20.3582         2.4760         1.2677        57.0068     
 7696.0000        17.5686         0.0083        71.5252        57.1600        50.2728         5.8994         7.8524         3.8599        18.1406         0.5817         2.0425         0.6846        20.5141         2.4828         1.2731        56.7001     
 7696.5000        17.5703         0.0071        71.0392        58.3132        48.4812         5.9750         8.1352         3.9375        18.1209         0.6033         1.2769         0.6855        20.6572         2.4857         1.2852        55.6952     
 7697.0000        17.5719         0.0054        70.5540        56.9508        46.8329         6.0966         8.4954         4.0348        18.1038         0.6683         0.8296         0.7046        20.5791         2.4826         1.2975        54.5213     
 7697.5000        17.5736         0.0026        70.1016        52.8468        46.0349         6.2187         8.8685         4.1212        18.0884         0.6379         1.3822         0.6538        20.4506         2.4754         1.3047        54.9560     
 7698.0000        17.5768        -0.0008        69.6972        51.6410        46.1950         6.3734         9.1566         4.1967        18.0730         0.6024         2.1537         0.5818        20.3224         2.4658         1.3066        55.6640     
 7698.5000        17.5841        -0.0046        69.7986        53.5098        47.8665         6.5421         9.2560         4.2480        18.0577         0.6201         2.4130         0.6211        19.6709         2.4608         1.3200        55.8828     
 7699.0000        17.5912        -0.0072        70.1807        58.3411        50.5601         6.7072         9.1772         4.2291        18.0434         0.6380         2.4029         0.6762        18.8127         2.4626         1.3348        55.8759     
 7699.5000        17.5916        -0.0084        70.8521        63.0446        53.2283         6.8607         9.0009         4.2014        18.0315         0.6595         2.5817         0.6990        19.4366         2.4607         1.3516        55.7663     
 7700.0000        17.5866        -0.0038        71.3064        65.8919        55.9379         7.0144         8.8682         4.1990        18.0247         0.6931         2.5143         0.7307        19.9840         2.4689         1.3772        55.4887     
 7700.5000        17.5810         0.0020        71.6438        68.4586        57.8518         7.1001         8.9113         4.2328        18.0209         0.7567         2.2036         0.7713        20.2645         2.4649         1.4001        55.0885     
 7701.0000        17.5766         0.0049        71.3264        70.6266        58.6696         7.1660         9.2040         4.2846        18.0143         0.6992         2.6603         0.7230        20.4274         2.4643         1.4140        54.4790     
 7701.5000        17.5731         0.0060        70.8929        71.5188        58.5132         7.2318         9.6151         4.3787        18.0075         0.6839         3.4234         0.6971        20.5836         2.4711         1.4278        53.8629     
 7702.0000        17.5704         0.0026        69.9386        70.6664        58.0672         7.2910        10.1401         4.4988        18.0000         0.7315         3.8232         0.7891        20.5557         2.4926         1.4474        53.2660     
