~Version Information Section
VERS.          2.0                                     : CWLS LOG ASCII Standard
WRAP.          NO                                      : One line per depth step
CREA.          03/10/17                                : LAS Creation Date
~Well Information Section
STRT.ft        550.5000                                : Start Depth
STOP.ft        8567.0000                               : Stop Depth
STEP.ft        0.5000                                  : Step
NULL.          -999.2500                               : Null Value
COMP.          CONOCO GULF NCB                         : Company
WELL.          15/19-2                                 : Well
FLD .          WILDCAT                                 : Field
LOC .          NORTH SEA                               : Location
LOC1.          -                                       : Location (UTM)
CTRY.          UK                                      : Country
PROV.          UKCS                                    : Province
UWI .          908                                     : UWI Number
API .          -                                       : API Number
SECT.          -                                       : Section
TOWN.          -                                       : Township
RNGE.          -                                       : Range
PDAT.          MSL                                     : Perm Datum
EPD .ft        0.0                                     : Elevation
LMF .          RKB                                     : Log Measured From
DMF .          RKB                                     : Drill Measured From
APD .ft        71.0                                    : Above Perm Datum
EKB .ft        71.0                                    : Elev-Kelly Bushing
EDF .          -                                       : Elev-Drill Floor
EGL .ft        -495.0                                  : Elev-Ground Level (Water Depth)
TDD .ft        8575.0                                  : Total Depth (Driller)
TDL .ft        8567.0                                  : Total Depth (Logger)
SRVC.          SCHLUMBERGER                            : Service Company
LATI.          58 29 27.8" N                           : Latitude
LONG.          00 39 43.6" E                           : Longitude
DATE.          10-APR-1974 - 11-JUN-1974               : Logging Date
PROJ.          UKCS                                    : Project
SET .          COMP_WIRE                               : Set
~Curve Information Section
DEPTH.ft                                               : Depth Curve
CALD.in                                                : Caliper (from FDC/CNL/GR)
DRHO.g/cc                                              : Delta Rho
DT.us/ft                                               : Delta-T
GR.gAPI                                                : Gamma Ray (from ISF/BHC/GR)
GRD.gAPI                                               : Gamma Ray (from FDC/CNL/GR)
ILD.Ohmm                                               : Deep Induction Standard Processed Resistivity
LLD.Ohmm                                               : Latero-Log Deep (Resistivity)
LLS.Ohmm                                               : Latero-Log Shallow (Resistivity)
MCAL.in                                                : Caliper (from MLL/ML)
MINV.Ohmm                                              : Micro-Inverse Resistivity
MLL.Ohmm                                               : Mll Resistivity
MNOR.Ohmm                                              : Micro-Normal Resistivity
NPHI.pu                                                : Neutron Porosity
RHOB.g/cc                                              : Bulk Density
SFLU.Ohmm                                              : SFL Resistivity (Unaveraged)
SP.mV                                                  : Spontaneous Potential 
~ASCII Log Data Section
# ...
 7974.5000        17.5061         0.0134        72.5078       116.7102       121.8204        12.9807        22.0575         7.7781        18.3185         4.9719         1.1149         3.8475        36.3265         2.5304         1.8677        57.9873     
 7975.0000        17.5067         0.0067        73.3304       114.9976       118.8887        13.6501        20.4420         7.4997        18.0527         4.9733         0.7625         3.1758        36.2485         2.5149         1.8607        58.6042     
 7975.5000        17.5074         0.0035        73.9938       113.0762       117.7415        14.6547        19.4920         7.2477        18.1530         4.9747         0.5099         3.0212        37.2038         2.4996         1.8558        59.0698     
 7976.0000        17.5080         0.0035        74.4020       111.6314       116.7748        15.7557        18.8551         7.0681        18.2590         4.9587         0.4780         2.7405        39.2049         2.4844         1.8508        59.3980     
 7976.5000        17.5086         0.0065        74.6632       111.5486       115.3965        16.6709        18.4998         6.9909        18.1058         4.9860         1.3141         2.4727        40.4669         2.4765         1.8394        59.7732     
 7977.0000        17.5093         0.0063        74.6754       112.0865       113.8358        16.6627        18.6292         6.9774        18.5251         4.9931       811.7659         2.1383        41.1152         2.4661         1.8235        60.2286     
 7977.5000        17.5099        -0.0015        73.6962       110.5905       111.5230        14.9782        19.3038         6.9936        19.0357         4.8472      1905.6340         1.9890        40.4885         2.4231         1.8020        60.7255     
 7978.0000        17.5105        -0.0142        71.8248       105.1018       107.4913        12.2316        20.0212         6.9091        19.2497         4.4673       993.9850         1.9256        39.7578         2.3783         1.7858        61.1327     
 7978.5000        17.5112        -0.0179        71.3823        99.8651       101.0173         8.7624        18.4924         6.4207        19.2996         4.8785        65.8408         2.1666        39.2755         2.3334         1.7747        61.4228     
 7979.0000        17.5118        -0.0184        73.9676        92.4855        91.0928         7.0106        13.5164         5.5776        19.2881         4.2256        15.1563         1.8106        41.7020         2.2797         1.7466        61.5975     
 7979.5000        17.5123        -0.0086        84.3948        83.2407        80.2345         6.1119         9.9070         4.9073        19.1859         2.4380         5.5179         1.5474        44.7933         2.1488         1.7125        61.3842     
 7980.0000        17.5118         0.0050        98.1178        72.7982        67.9627         5.8484         8.8484         4.6640        18.7436         0.7092         0.8163         0.8830        45.1533         2.0090         1.6534        60.9993     
 7980.5000        17.5113        -0.0105       116.5585        62.0516        58.1329         5.6433         8.3456         4.4729        18.1691         0.2130         0.3384         0.2700        48.4388         1.8431         1.5876        60.8393     
 7981.0000        17.5107        -0.0342       127.6391        53.5799        50.8166         5.4719         8.4456         4.4838        18.9594         0.4145         0.4089         0.3926        54.5800         1.5463         1.5330        60.5591     
 7981.5000        17.5102        -0.0458       128.0423        49.9519        47.8053         5.0640         9.9035         4.7370        19.0898         0.6604         1.1332         0.7075        54.7261         1.4726         1.5265        60.1989     
 7982.0000        17.5096        -0.0475       121.5763        49.5005        47.5472         4.7269        10.7236         4.7520        19.2151         0.8171         2.3105         0.8235        53.7086         1.4495         1.5156        60.5044     
 7982.5000        17.5091        -0.0410       114.3081        50.7762        49.9063         4.5788        11.0369         4.9664        18.9473         1.0565         0.9967         0.9084        52.9875         1.4291         1.5085        60.9812     
 7983.0000        17.5086        -0.0328       106.9747        54.0218        54.1172         5.3670        11.4503         5.2066        18.3071         1.1081         0.6724         0.6562        52.2805         1.4300         1.5029        61.0090     
 7983.5000        17.5080        -0.0259       103.1024        57.8551        58.8042         6.4999        11.0052         5.1686        18.2149         0.2711         0.3753         0.2810        52.3994         1.4441         1.5018        60.6889     
 7984.0000        17.5075        -0.0208       104.5567        61.6904        62.0923         7.2885        10.3374         5.0033        18.7423         0.2481         0.2556         0.2828        53.6133         1.4831         1.5006        60.3221     
 7984.5000        17.5070        -0.0049       108.7389        68.0656        65.8943         7.8206        10.2688         4.9967        19.3963         0.7216         0.2727         0.8701        53.9748         1.5301         1.4953        59.9021     
 7985.0000        17.5064         0.0124       112.4373        75.4856        72.6262         8.0578        10.9997         5.1998        19.5766         0.7950         0.3454         0.9018        52.0173         1.5937         1.4794        59.3175     
 7985.5000        17.5059         0.0317       108.3398        83.0139        87.3747         8.1888        12.2247         5.4959        18.8710         0.6213         0.5916         0.8057        47.3330         1.7044         1.4738        58.7318     
 7986.0000        17.5054         0.0471        99.9843        90.5821        99.2390         8.4419        15.5378         6.3846        18.8505         0.6150         0.5639         0.7298        45.0608         1.8852         1.4842        58.1487     
 7986.5000        17.5049         0.0470        84.6602       101.2982       105.2683         8.9549        21.3667         7.1894        18.6544         0.7926         0.3175         0.8003        40.2573         2.0991         1.5614        57.5730     
 7987.0000        17.5043         0.0377        73.3190       105.6582       105.9921        10.3440        26.0761         7.5604        17.9155         0.9159         0.3736         0.8977        34.0029         2.3553         1.6412        56.9983     
 7987.5000        17.5038         0.0309        68.7670       104.6098       102.2684        12.2637        29.6371         7.8119        17.4774         0.9570         0.4920         0.9533        31.9058         2.5008         1.6821        56.4236     
 7988.0000        17.5033         0.0329        66.4264       101.1300        98.0709        14.1836        34.7188         8.1657        17.6249         0.9797         0.4779         0.9885        29.6603         2.5300         1.7293        55.8488     
 7988.5000        17.5027         0.0310        64.9340        99.7507        95.1445        15.4598        40.6115         8.5663        17.9869         1.0043         0.3603         1.0210        27.4425         2.5482         1.7539        55.2264     
 7989.0000        17.5022         0.0190        63.4641        96.6353        93.3743        16.0925        44.8758         8.8818        18.4276         1.0333         0.3770         1.0619        25.3274         2.5506         1.7712        54.6102     
 7989.5000        17.5017         0.0130        62.4951        94.6648        93.0314        16.2024        45.5347         8.9625        18.7165         1.0690         0.3694         1.0903        23.2210         2.5674         1.7778        54.1416     
 7990.0000        17.5015         0.0096        62.5235        95.0969        93.9359        15.7906        43.3560         8.8913        18.7182         1.0839         0.3797         1.1070        21.9765         2.5754         1.7838        53.4505     
