~Version Information Section
VERS.          2.0                                     : CWLS LOG ASCII Standard
WRAP.          NO                                      : One line per depth step
CREA.          03/10/17                                : LAS Creation Date
~Well Information Section
STRT.ft        550.5000                                : Start Depth
STOP.ft        8567.0000                               : Stop Depth
STEP.ft        0.5000                                  : Step
NULL.          -999.2500                               : Null Value
COMP.          CONOCO GULF NCB                         : Company
WELL.          15/19-2                                 : Well
FLD .          WILDCAT                                 : Field
LOC .          NORTH SEA                               : Location
LOC1.          -                                       : Location (UTM)
CTRY.          UK                                      : Country
PROV.          UKCS                                    : Province
UWI .          908                                     : UWI Number
API .          -                                       : API Number
SECT.          -                                       : Section
TOWN.          -                                       : Township
RNGE.          -                                       : Range
PDAT.          MSL                                     : Perm Datum
EPD .ft        0.0                                     : Elevation
LMF .          RKB                                     : Log Measured From
DMF .          RKB                                     : Drill Measured From
APD .ft        71.0                                    : Above Perm Datum
EKB .ft        71.0                                    : Elev-Kelly Bushing
EDF .          -                                       : Elev-Drill Floor
EGL .ft        -495.0                                  : Elev-Ground Level (Water Depth)
TDD .ft        8575.0                                  : Total Depth (Driller)
TDL .ft        8567.0                                  : Total Depth (Logger)
SRVC.          SCHLUMBERGER                            : Service Company
LATI.          58 29 27.8" N                           : Latitude
LONG.          00 39 43.6" E                           : Longitude
DATE.          10-APR-1974 - 11-JUN-1974               : Logging Date
PROJ.          UKCS                                    : Project
SET .          COMP_WIRE                               : Set
~Curve Information Section
DEPTH.ft                                               : Depth Curve
CALD.in                                                : Caliper (from FDC/CNL/GR)
DRHO.g/cc                                              : Delta Rho
DT.us/ft                                               : Delta-T
GR.gAPI                                                : Gamma Ray (from ISF/BHC/GR)
GRD.gAPI                                               : Gamma Ray (from FDC/CNL/GR)
ILD.Ohmm                                               : Deep Induction Standard Processed Resistivity
LLD.Ohmm                                               : Latero-Log Deep (Resistivity)
LLS.Ohmm                                               : Latero-Log Shallow (Resistivity)
MCAL.in                                                : Caliper (from MLL/ML)
MINV.Ohmm                                              : Micro-Inverse Resistivity
MLL.Ohmm                                               : Mll Resistivity
MNOR.Ohmm                                              : Micro-Normal Resistivity
NPHI.pu                                                : Neutron Porosity
RHOB.g/cc                                              : Bulk Density
SFLU.Ohmm                                              : SFL Resistivity (Unaveraged)
SP.mV                                                  : Spontaneous Potential 
~ASCII Log Data Section
# ...
 5110.5000        14.2160         0.0859       137.9232        59.8276        72.7324         0.7543         0.7307         0.7749        13.8019         0.4340         0.8103         0.4035        42.7889         2.1368         0.7146        47.7862     
 5111.0000        13.9445         0.0845       136.0558        62.5720        73.4959         0.7445         0.7401         0.7841        13.8062         0.4207         0.8315         0.3925        43.7864         2.1343         0.7176        47.7881     
 5111.5000        13.9236         0.0835       134.9804        64.9549        74.2260         0.7425         0.7520         0.7872        13.8225         0.4794         0.7984         0.4166        44.8558         2.1444         0.7216        47.7354     
 5112.0000        13.9666         0.0760       134.9702        66.5912        74.8573         0.7449         0.7532         0.7851        13.8248         0.5097         0.9248         0.4503        45.4538         2.1475         0.7256        47.6527     
 5112.5000        13.9570         0.0696       135.5298        66.5665        75.3399         0.7444         0.7374         0.7785        13.8790         0.5246         0.8841         0.4424        44.6896         2.1369         0.7281        47.5682     
 5113.0000        13.9959         0.0739       136.9363        65.0765        76.6262         0.7405         0.7036         0.7477        14.0492         0.5332         0.8478         0.4335        43.8118         2.1255         0.7275        47.4541     
 5113.5000        14.0620         0.0827       138.7736        63.1762        78.2321         0.7352         0.6873         0.7193        14.0226         0.5381         0.8533         0.4634        43.1700         2.1139         0.7254        47.2547     
 5114.0000        14.0397         0.0847       140.0369        60.5977        76.6189         0.7306         0.7027         0.7245        13.8382         0.5203         0.8745         0.4492        42.6235         2.1061         0.7232        46.9272     
 5114.5000        14.2897         0.0816       139.0413        59.1865        73.9199         0.7239         0.7270         0.7487        13.8408         0.4599         0.8927         0.4083        41.9167         2.0834         0.7199        46.7219     
 5115.0000        14.1538         0.0910       137.4886        58.0876        71.0689         0.7154         0.7509         0.7769        13.8052         0.4439         0.8348         0.3888        43.4461         2.0715         0.7154        46.6869     
 5115.5000        14.2100         0.0920       137.1972        56.2637        69.9048         0.7061         0.7598         0.7919        13.7211         0.5380         0.8951         0.4245        45.3651         2.0662         0.7114        46.7333     
 5116.0000        14.2883         0.0875       137.5047        54.2116        69.6760         0.6941         0.7454         0.7778        13.7727         0.5619         0.9378         0.4438        46.8819         2.0699         0.7093        46.8250     
 5116.5000        14.2810         0.0832       137.1220        51.5183        67.7595         0.6779         0.7124         0.7423        13.7924         0.4660         1.0340         0.3729        46.5232         2.0908         0.7072        47.0354     
 5117.0000        14.1484         0.0671       136.1946        48.1590        64.5587         0.6564         0.6924         0.7187        13.7985         0.5699         1.0170         0.4228        45.0725         2.1047         0.7015        47.3560     
 5117.5000        14.2251         0.0530       135.8417        45.8541        61.4587         0.6346         0.6920         0.7213        13.7849         0.4995         0.7834         0.4280        44.7483         2.1134         0.6939        47.6836     
 5118.0000        14.5243         0.0698       135.6666        45.0709        61.0353         0.6216         0.6815         0.7112        13.6737         0.5390         0.8634         0.4226        44.7844         2.1336         0.6865        47.9446     
 5118.5000        14.4270         0.0839       137.6228        45.3604        63.6746         0.6205         0.6490         0.6779        13.5467         0.5284         0.7580         0.4330        45.1647         2.1521         0.6804        47.9701     
 5119.0000        14.3132         0.0935       137.4465        47.4708        65.9198         0.6309         0.6310         0.6518        13.5038         0.4210         0.7489         0.4169        45.3187         2.1509         0.6821        47.8796     
 5119.5000        14.5564         0.0959       135.8478        49.5861        66.2475         0.6553         0.6479         0.6645        13.4747         0.4461         0.8060         0.3963        44.9470         2.1608         0.6926        48.0573     
 5120.0000        14.6201         0.0829       134.7128        51.5289        66.1210         0.6837         0.6817         0.7077        13.4302         0.4370         0.8819         0.3812        44.1823         2.1584         0.7115        48.4528     
 5120.5000        14.5412         0.0736       133.2808        53.4660        67.2616         0.7108         0.7344         0.7684        13.3445         0.4040         0.7571         0.3638        43.7061         2.1531         0.7415        48.6920     
 5121.0000        14.6213         0.0854       131.5973        55.6277        69.0049         0.7323         0.7969         0.8441        13.3439         0.3902         0.7849         0.3630        43.3676         2.1698         0.7704        48.5701     
 5121.5000        14.4168         0.0958       129.4755        57.6396        70.3558         0.7486         0.8406         0.8872        13.4040         0.4541         0.9890         0.4095        43.3372         2.1869         0.7859        48.1358     
 5122.0000        14.1658         0.0903       129.9029        58.2937        71.9719         0.7612         0.8530         0.8704        13.8355         0.5766         1.1188         0.4985        43.5934         2.1816         0.7853        47.5613     
 5122.5000        14.1355         0.0756       130.0549        59.2890        74.6866         0.7694         0.8429         0.8540        14.1059         0.6693         0.9876         0.5171        42.9430         2.1642         0.7762        47.1254     
 5123.0000        14.1190         0.0619       131.7761        60.5103        78.0808         0.7693         0.8234         0.8571        14.1307         0.6214         0.8870         0.4886        41.8454         2.1413         0.7607        46.6881     
 5123.5000        14.0024         0.0529       136.1283        61.0180        80.9123         0.7557         0.7970         0.8316        13.9680         0.6391         1.0729         0.4855        41.7076         2.1183         0.7383        46.3274     
 5124.0000        13.8806         0.0526       139.4420        61.1802        82.2453         0.7337         0.7614         0.7766        13.9509         0.7272         0.9805         0.4896        42.4310         2.0928         0.7179        46.1164     
 5124.5000        13.7484         0.0752       143.3301        59.3911        81.0821         0.7191         0.7220         0.7356        14.0675         0.7827         1.0567         0.5067        44.0370         2.0672         0.7056        45.9394     
 5125.0000        13.8721         0.0957       146.4108        57.2919        77.1120         0.7140         0.6874         0.7098        14.1044         0.5000         0.8226         0.4276        45.6914         2.0572         0.7013        45.8441     
 5125.5000        14.4375         0.1056       144.5964        56.0252        72.4271         0.7121         0.6763         0.7152        14.0748         0.4924         0.8524         0.3925        47.2941         2.0564         0.7031        45.9149     
 5126.0000        14.9868         0.0897       139.6724        55.0323        69.5744         0.7119         0.6882         0.7290        14.0686         0.4323         0.8191         0.3442        47.9859         2.0522         0.7083        46.0951     
