~Version Information Section
VERS.          2.0                                     : CWLS LOG ASCII Standard
WRAP.          NO                                      : One line per depth step
CREA.          03/10/17                                : LAS Creation Date
~Well Information Section
STRT.ft        550.5000                                : Start Depth
STOP.ft        8567.0000                               : Stop Depth
STEP.ft        0.5000                                  : Step
NULL.          -999.2500                               : Null Value
COMP.          CONOCO GULF NCB                         : Company
WELL.          15/19-2                                 : Well
FLD .          WILDCAT                                 : Field
LOC .          NORTH SEA                               : Location
LOC1.          -                                       : Location (UTM)
CTRY.          UK                                      : Country
PROV.          UKCS                                    : Province
UWI .          908                                     : UWI Number
API .          -                                       : API Number
SECT.          -                                       : Section
TOWN.          -                                       : Township
RNGE.          -                                       : Range
PDAT.          MSL                                     : Perm Datum
EPD .ft        0.0                                     : Elevation
LMF .          RKB                                     : Log Measured From
DMF .          RKB                                     : Drill Measured From
APD .ft        71.0                                    : Above Perm Datum
EKB .ft        71.0                                    : Elev-Kelly Bushing
EDF .          -                                       : Elev-Drill Floor
EGL .ft        -495.0                                  : Elev-Ground Level (Water Depth)
TDD .ft        8575.0                                  : Total Depth (Driller)
TDL .ft        8567.0                                  : Total Depth (Logger)
SRVC.          SCHLUMBERGER                            : Service Company
LATI.          58 29 27.8" N                           : Latitude
LONG.          00 39 43.6" E                           : Longitude
DATE.          10-APR-1974 - 11-JUN-1974               : Logging Date
PROJ.          UKCS                                    : Project
SET .          COMP_WIRE                               : Set
~Curve Information Section
DEPTH.ft                                               : Depth Curve
CALD.in                                                : Caliper (from FDC/CNL/GR)
DRHO.g/cc                                              : Delta Rho
DT.us/ft                                               : Delta-T
GR.gAPI                                                : Gamma Ray (from ISF/BHC/GR)
GRD.gAPI                                               : Gamma Ray (from FDC/CNL/GR)
ILD.Ohmm                                               : Deep Induction Standard Processed Resistivity
LLD.Ohmm                                               : Latero-Log Deep (Resistivity)
LLS.Ohmm                                               : Latero-Log Shallow (Resistivity)
MCAL.in                                                : Caliper (from MLL/ML)
MINV.Ohmm                                              : Micro-Inverse Resistivity
MLL.Ohmm                                               : Mll Resistivity
MNOR.Ohmm                                              : Micro-Normal Resistivity
NPHI.pu                                                : Neutron Porosity
RHOB.g/cc                                              : Bulk Density
SFLU.Ohmm                                              : SFL Resistivity (Unaveraged)
SP.mV                                                  : Spontaneous Potential 
~ASCII Log Data Section
# ...
 5686.5000        12.7045         0.0043       108.5335        23.1891        30.7357         0.3776         0.4938         0.5347        11.9524         0.6031         1.2963         0.6046        31.2004         2.1609         0.5660        34.6481     
 5687.0000        12.6931         0.0018       107.0562        22.8729        27.0901         0.3792         0.4961         0.5498        11.9369         0.6083         1.3631         0.5976        30.8837         2.1652         0.5736        33.9378     
 5687.5000        12.6849         0.0030       105.9007        23.0672        25.7266         0.3885         0.5001         0.5631        11.9209         0.6222         1.3761         0.5970        30.3579         2.1694         0.5839        33.7258     
 5688.0000        12.7006         0.0084       104.6074        23.0453        25.7818         0.4042         0.5131         0.5780        12.0336         0.6486         1.4745         0.6321        29.8508         2.1749         0.5958        33.5154     
 5688.5000        12.7066         0.0100       103.6761        25.1957        26.5018         0.4325         0.5280         0.5936        12.2355         0.6104         1.6118         0.6174        29.6203         2.1783         0.6123        33.3628     
 5689.0000        12.6825         0.0078       103.0350        27.3592        27.8866         0.4736         0.5476         0.6105        12.2785         0.5646         1.6685         0.5635        29.9716         2.1783         0.6394        33.6880     
 5689.5000        12.6817         0.0041       102.2718        29.8625        29.7641         0.5250         0.5653         0.6222        12.3520         0.5265         1.5980         0.5182        30.0790         2.1843         0.6752        34.1136     
 5690.0000        12.6707         0.0077       101.3831        32.4795        32.1041         0.5828         0.5841         0.6298        12.3623         0.5417         1.4160         0.5362        29.5366         2.1998         0.7152        34.7842     
 5690.5000        12.6035         0.0264       101.5277        36.5950        35.6973         0.6535         0.6244         0.6539        12.3155         0.5675         1.4254         0.5668        29.1606         2.2228         0.7559        36.2862     
 5691.0000        12.5737         0.0455       103.9812        41.2223        40.9036         0.7508         0.6622         0.6977        12.2320         0.5934         1.5098         0.5973        30.5533         2.2533         0.7971        38.0030     
 5691.5000        12.5758         0.0655       108.0602        45.7696        47.3005         0.8572         0.7221         0.7632        12.0726         0.6172         1.4574         0.5889        32.5515         2.2957         0.8400        39.9206     
 5692.0000        12.6402         0.0781       112.0147        50.2694        54.1086         0.9564         0.7977         0.8528        11.9590         0.5785         1.2893         0.5185        36.2436         2.3390         0.8853        41.8895     
 5692.5000        12.8578         0.0889       112.8607        54.5369        60.2243         1.0288         0.8488         0.8912        11.8641         0.5116         1.4426         0.4666        38.0395         2.3580         0.9322        43.7461     
 5693.0000        12.9228         0.1011       112.7138        55.2405        65.1800         1.0634         0.8330         0.9084        11.7950         0.4968         1.6706         0.4810        39.2328         2.3724         0.9786        44.9595     
 5693.5000        12.8964         0.0883       111.7913        55.0863        68.1463         1.0757         0.8650         0.9479        11.7880         0.5163         1.6192         0.5225        39.3826         2.3832         1.0118        45.3178     
 5694.0000        12.8850         0.0549       110.8156        54.7743        68.4411         1.0644         0.9453         1.0169        11.8350         0.5274         1.4036         0.5181        39.2005         2.3752         1.0212        44.9395     
 5694.5000        12.9641         0.0207       109.7692        53.1555        66.7426         1.0009         0.9799         1.0658        11.9018         0.4659         1.8238         0.4385        38.7852         2.3706         1.0126        44.1727     
 5695.0000        13.1224         0.0064       108.5013        50.4288        63.9899         0.9144         0.9857         1.0844        11.9381         0.6594         3.4617         0.6143        38.4103         2.3775         0.9956        43.2912     
 5695.5000        12.8980         0.0105       104.2056        46.7659        59.4927         0.8332         1.0162         1.0895        11.9388         0.5197         2.3659         0.4943        37.9796         2.3741         0.9746        42.0530     
 5696.0000        12.6510         0.0138       101.6035        42.2461        53.9199         0.7619         0.9712         1.0174        11.9392         0.6414         2.1826         0.6286        36.5910         2.3327         0.9448        40.3285     
 5696.5000        12.5707         0.0063       100.8103        34.3187        49.8027         0.6976         0.8643         0.9236        11.9167         0.6777         2.1815         0.7471        33.5056         2.2689         0.8912        40.7215     
 5697.0000        12.5603         0.0048        98.2807        30.9694        44.8119         0.6349         0.7548         0.8450        11.8836         0.6806         2.0312         0.7734        31.3250         2.2337         0.8232        40.9463     
 5697.5000        12.5694         0.0093        96.2703        29.5193        41.0742         0.5849         0.6985         0.7642        11.8505         0.6585         1.6452         0.7042        31.6311         2.2131         0.7666        38.9316     
 5698.0000        12.5502         0.0154        94.8897        28.6797        39.4395         0.5415         0.6465         0.6933        11.8255         0.6240         1.4733         0.6402        32.6591         2.2007         0.7290        37.2821     
 5698.5000        12.5149         0.0131        94.1823        28.1672        38.7940         0.5068         0.6127         0.6640        11.8400         0.6608         1.4001         0.6456        32.6495         2.1965         0.7110        35.7562     
 5699.0000        12.5293         0.0079        95.1573        27.4697        36.9160         0.4817         0.6113         0.6651        11.8605         0.6232         1.5213         0.6657        30.9483         2.1958         0.7029        34.7180     
 5699.5000        12.5596         0.0140        96.3052        26.0183        32.3494         0.4646         0.6214         0.6778        11.9242         0.5650         1.6456         0.6353        28.5747         2.2049         0.6964        34.2042     
 5700.0000        12.5560         0.0173        97.2493        23.5186        28.3381         0.4548         0.6273         0.6814        11.9782         0.5228         1.6719         0.5935        27.4213         2.2265         0.6904        33.9909     
 5700.5000        12.5575         0.0145        97.4333        22.8412        26.8377         0.4504         0.6270         0.6749        12.0363         0.5226         1.5960         0.5828        28.0796         2.2365         0.6855        33.8693     
 5701.0000        12.5662         0.0077        96.8009        23.4911        26.6992         0.4494         0.6213         0.6632        12.1930         0.5224         1.7320         0.5826        28.6069         2.2367         0.6819        33.8298     
 5701.5000        12.5770         0.0036        95.9597        24.5966        27.6529         0.4526         0.6121         0.6556        12.3507         0.5222         1.7840         0.5824        28.6255         2.2328         0.6800        33.9655     
 5702.0000        12.5822         0.0028        95.0469        26.2420        28.0490         0.4598         0.6018         0.6498        12.5082         0.5514         1.6655         0.5847        28.2295         2.2351         0.6764        34.3486     
