~Version Information Section
VERS.          2.0                                     : CWLS LOG ASCII Standard
WRAP.          NO                                      : One line per depth step
CREA.          03/10/17                                : LAS Creation Date
~Well Information Section
STRT.ft        550.5000                                : Start Depth
STOP.ft        8567.0000                               : Stop Depth
STEP.ft        0.5000                                  : Step
NULL.          -999.2500                               : Null Value
COMP.          CONOCO GULF NCB                         : Company
WELL.          15/19-2                                 : Well
FLD .          WILDCAT                                 : Field
LOC .          NORTH SEA                               : Location
LOC1.          -                                       : Location (UTM)
CTRY.          UK                                      : Country
PROV.          UKCS                                    : Province
UWI .          908                                     : UWI Number
API .          -                                       : API Number
SECT.          -                                       : Section
TOWN.          -                                       : Township
RNGE.          -                                       : Range
PDAT.          MSL                                     : Perm Datum
EPD .ft        0.0                                     : Elevation
LMF .          RKB                                     : Log Measured From
DMF .          RKB                                     : Drill Measured From
APD .ft        71.0                                    : Above Perm Datum
EKB .ft        71.0                                    : Elev-Kelly Bushing
EDF .          -                                       : Elev-Drill Floor
EGL .ft        -495.0                                  : Elev-Ground Level (Water Depth)
TDD .ft        8575.0                                  : Total Depth (Driller)
TDL .ft        8567.0                                  : Total Depth (Logger)
SRVC.          SCHLUMBERGER                            : Service Company
LATI.          58 29 27.8" N                           : Latitude
LONG.          00 39 43.6" E                           : Longitude
DATE.          10-APR-1974 - 11-JUN-1974               : Logging Date
PROJ.          UKCS                                    : Project
SET .          COMP_WIRE                               : Set
~Curve Information Section
DEPTH.ft                                               : Depth Curve
CALD.in                                                : Caliper (from FDC/CNL/GR)
DRHO.g/cc                                              : Delta Rho
DT.us/ft                                               : Delta-T
GR.gAPI                                                : Gamma Ray (from ISF/BHC/GR)
GRD.gAPI                                               : Gamma Ray (from FDC/CNL/GR)
ILD.Ohmm                                               : Deep Induction Standard Processed Resistivity
LLD.Ohmm                                               : Latero-Log Deep (Resistivity)
LLS.Ohmm                                               : Latero-Log Shallow (Resistivity)
MCAL.in                                                : Caliper (from MLL/ML)
MINV.Ohmm                                              : Micro-Inverse Resistivity
MLL.Ohmm                                               : Mll Resistivity
MNOR.Ohmm                                              : Micro-Normal Resistivity
NPHI.pu                                                : Neutron Porosity
RHOB.g/cc                                              : Bulk Density
SFLU.Ohmm                                              : SFL Resistivity (Unaveraged)
SP.mV                                                  : Spontaneous Potential 
~ASCII Log Data Section
# ...
 4246.5000        13.4019         0.0095       167.4900        27.1895      -999.2500         0.9508         1.1718         1.0604        12.9229         0.5503         1.4023         0.4947        56.4997      -999.2500         0.4625        38.4001     
 4247.0000        13.4688         0.0034       168.9275        27.4228      -999.2500         0.9599         1.1968         1.0772        12.9124         0.5323         1.1567         0.4740        54.5698      -999.2500         0.4635        39.1282     
 4247.5000        13.5278        -0.0017       170.8166        28.1692        31.0208         0.9697         1.2267         1.0850        12.9287         0.5347         1.2720         0.4761        53.6367         1.8165         0.4636        39.8557     
 4248.0000        13.5597        -0.0027       171.2737        27.6175        31.1633         0.9764         1.2469         1.0891        12.9559         0.5393         1.3174         0.4797        52.2221         1.8180         0.4625        40.5839     
 4248.5000        13.5597        -0.0023       171.6179        27.0040        31.7347         0.9729         1.2500         1.0929        13.0231         0.5449         1.3073         0.4891        52.2876         1.8404         0.4576        41.3114     
 4249.0000        13.5313        -0.0014       171.4141        28.2160        31.3978         0.9651         1.2514         1.0950        13.0475         0.5594         1.2788         0.4813        54.2508         1.8483         0.4510        41.6430     
 4249.5000        13.4093         0.0044       170.2177        29.5336        30.9334         0.9534         1.2422         1.1005        12.9283         0.5909         1.1758         0.5210        56.0361         1.8374         0.4428        41.5039     
 4250.0000        13.2572         0.0084       169.0233        29.8724        30.9487         0.9394         1.2223         1.1074        12.8462         0.6244         1.3112         0.5769        56.7934         1.8236         0.4366        40.7925     
 4250.5000        13.1322         0.0090       170.2031        29.7351        31.5147         0.9219         1.2150         1.0998        12.8082         0.6040         1.2264         0.5866        57.4883         1.8232         0.4319        40.7118     
 4251.0000        13.1192         0.0097       171.3954        29.1211        31.9867         0.8986         1.2195         1.0946        12.8577         0.5520         1.2976         0.4934        56.1468         1.8386         0.4247        40.7767     
 4251.5000        13.1303         0.0107       170.9805        28.0584        31.3782         0.8779         1.2367         1.1214        12.9852         0.5501         1.3182         0.4793        54.6936         1.8529         0.4183        40.3180     
 4252.0000        13.1215         0.0099       170.6954        26.7857        30.4429         0.8593         1.2669         1.1765        13.0146         0.6173         0.9859         0.4963        52.8888         1.8787         0.4139        38.9713     
 4252.5000        13.1038         0.0082       170.9610        25.2865        29.4990         0.8445         1.2932         1.2806        13.0376         0.6742         0.9438         0.5533        51.2346         1.8816         0.4128        37.6968     
 4253.0000        13.0695         0.0046       171.3292        24.5990        28.5549         0.8405         1.3026         1.3559        13.0606         0.7500         1.0732         0.6505        50.4332         1.8566         0.4081        37.0641     
 4253.5000        13.0334         0.0025       167.0802        23.5268        27.7758         0.8351         1.2851         1.3415        13.0835         0.8000         1.5228         0.7269        50.1302         1.8504         0.4095        36.4309     
 4254.0000        13.0248         0.0058       153.9755        22.4534        27.4485         0.7988         1.2134         1.3005        13.0424         0.8014         1.5329         0.7695        50.1777         1.8580         0.4110        35.9118     
 4254.5000        13.0888         0.0110       160.2176        21.4623        27.6780         0.7927         1.1252         1.2568        12.8364         0.7647         1.5431         0.6877        50.8196         1.8736         0.4124        35.9712     
 4255.0000        13.2104         0.0165       170.2552        22.8221        28.3266         0.8219         1.0901         1.2066        12.6802         0.7267         1.5334         0.6570        51.9161         1.8911         0.4138        36.0310     
 4255.5000        13.2822         0.0207       170.1935        23.6898        28.4954         0.8882         1.1573         1.1764        12.5862         0.7231         1.5448         0.6956        53.0289         1.9184         0.4278        36.1430     
 4256.0000        13.3329         0.0237       167.0495        23.5361        28.1006         1.0449         1.3545         1.2293        12.5365         0.7207         1.6103         0.7616        53.2085         1.9421         0.4478        36.3887     
 4256.5000        13.3694         0.0207       168.9155        23.3815        27.3812         1.2592         1.7411         1.4303        12.6284         0.6645         1.6168         0.7873        52.9534         1.9570         0.4679        36.8100     
 4257.0000        13.3565         0.0086       165.5888        23.9278        26.4150         1.4733         2.1184         1.6832        12.7379         0.6163         1.4735         0.6610        50.9722         1.9728         0.4879        37.9436     
 4257.5000        13.3228        -0.0039       164.6765        23.5925        25.4241         1.6891         2.3778         1.9894        12.7519         0.7254         4.2540         0.5879        46.1234         2.0302         0.5080        39.5929     
 4258.0000        13.2428        -0.0192       168.2687        22.7742        24.3935         1.9090         2.7894         2.3047        12.7512         0.6142        22.1295         0.5844        42.2481         2.1357         0.6123        40.8793     
 4258.5000        13.0926        -0.0204       170.4574        21.8937        23.6093         1.9037         2.9006         2.3005        12.7133         0.6758        49.4678         0.6054        36.8192         2.2401         0.7263        42.1814     
 4259.0000        12.9989        -0.0132       169.8687        20.8209        23.9922         1.7980         2.2984         1.8561        12.5695         0.7021        26.5043         0.6529        36.9908         2.2624         0.8052        42.3847     
 4259.5000        12.9769        -0.0178       170.5710        20.8931        24.2314         1.6205         1.6858         1.4063        12.6270         0.6835        11.4037         0.6348        40.5653         2.1944         0.7541        42.5878     
 4260.0000        12.9559        -0.0125       170.0840        21.3912        24.1365         1.4425         1.4517         1.2156        12.7604         0.6323         1.7314         0.5864        42.8313         2.0906         0.6636        42.9114     
 4260.5000        12.9112         0.0167       169.5167        22.2480        24.7239         1.2701         1.3440         1.1096        12.8143         0.5988         1.5827         0.5142        45.4299         2.0177         0.5732        43.3845     
 4261.0000        12.9858         0.0235       171.1544        23.2683        25.5160         1.1059         1.2862         1.0695        12.9136         0.6375         1.5833         0.5243        51.5919         1.9815         0.4837        43.8582     
 4261.5000        13.1581         0.0187       169.4936        24.2879        25.6608         0.9419         1.2670         1.0656        13.0019         0.6836         1.6058         0.5866        54.6761         1.8680         0.4487        44.3315     
 4262.0000        13.3363         0.0234       165.2836        25.1478        25.4326         0.7777         1.2738         1.0718        13.0343         0.6440         1.6948         0.5945        55.1192         1.8501         0.4266        44.8051     
