~Version Information Section
VERS.          2.0                                     : CWLS LOG ASCII Standard
WRAP.          NO                                      : One line per depth step
CREA.          03/10/17                                : LAS Creation Date
~Well Information Section
STRT.ft        550.5000                                : Start Depth
STOP.ft        8567.0000                               : Stop Depth
STEP.ft        0.5000                                  : Step
NULL.          -999.2500                               : Null Value
COMP.          CONOCO GULF NCB                         : Company
WELL.          15/19-2                                 : Well
FLD .          WILDCAT                                 : Field
LOC .          NORTH SEA                               : Location
LOC1.          -                                       : Location (UTM)
CTRY.          UK                                      : Country
PROV.          UKCS                                    : Province
UWI .          908                                     : UWI Number
API .          -                                       : API Number
SECT.          -                                       : Section
TOWN.          -                                       : Township
RNGE.          -                                       : Range
PDAT.          MSL                                     : Perm Datum
EPD .ft        0.0                                     : Elevation
LMF .          RKB                                     : Log Measured From
DMF .          RKB                                     : Drill Measured From
APD .ft        71.0                                    : Above Perm Datum
EKB .ft        71.0                                    : Elev-Kelly Bushing
EDF .          -                                       : Elev-Drill Floor
EGL .ft        -495.0                                  : Elev-Ground Level (Water Depth)
TDD .ft        8575.0                                  : Total Depth (Driller)
TDL .ft        8567.0                                  : Total Depth (Logger)
SRVC.          SCHLUMBERGER                            : Service Company
LATI.          58 29 27.8" N                           : Latitude
LONG.          00 39 43.6" E                           : Longitude
DATE.          10-APR-1974 - 11-JUN-1974               : Logging Date
PROJ.          UKCS                                    : Project
SET .          COMP_WIRE                               : Set
~Curve Information Section
DEPTH.ft                                               : Depth Curve
CALD.in                                                : Caliper (from FDC/CNL/GR)
DRHO.g/cc                                              : Delta Rho
DT.us/ft                                               : Delta-T
GR.gAPI                                                : Gamma Ray (from ISF/BHC/GR)
GRD.gAPI                                               : Gamma Ray (from FDC/CNL/GR)
ILD.Ohmm                                               : Deep Induction Standard Processed Resistivity
LLD.Ohmm                                               : Latero-Log Deep (Resistivity)
LLS.Ohmm                                               : Latero-Log Shallow (Resistivity)
MCAL.in                                                : Caliper (from MLL/ML)
MINV.Ohmm                                              : Micro-Inverse Resistivity
MLL.Ohmm                                               : Mll Resistivity
MNOR.Ohmm                                              : Micro-Normal Resistivity
NPHI.pu                                                : Neutron Porosity
RHOB.g/cc                                              : Bulk Density
SFLU.Ohmm                                              : SFL Resistivity (Unaveraged)
SP.mV                                                  : Spontaneous Potential 
~ASCII Log Data Section
# ...
 6534.5000        15.7565        -0.0100        79.5067        33.7076        24.5809         2.3141         2.1282         2.0398        15.1849         1.9300         3.9126         1.3123        21.1489         2.4417         1.4216        61.0719     
 6535.0000        15.7664        -0.0102        80.0274        33.3458        24.8262         2.5063         2.2021         2.1034        15.1949         1.8032         3.5217         1.2571        21.0400         2.4536         1.4620        61.3695     
 6535.5000        15.7972        -0.0082        80.3901        32.2368        24.7115         2.6989         2.2703         2.1729        15.2026         2.1045         3.9864         1.2101        20.6785         2.4773         1.5183        61.9905     
 6536.0000        15.7793        -0.0016        80.2987        31.4251        23.4959         3.0553         2.3489         2.2472        15.2030         2.3058         4.1481         1.0508        19.9594         2.4927         1.5942        62.8617     
 6536.5000        15.7604         0.0162        78.9960        29.8887        23.0296         3.4964         2.4320         2.3283        15.1964         2.4852         3.5419         1.1653        19.3330         2.5114         1.6656        63.5689     
 6537.0000        15.7362         0.0383        75.8876        26.7359        21.9925         3.9372         2.5911         2.5406        15.1721         2.4036         1.8873         1.1243        17.6792         2.5433         1.7927        63.7314     
 6537.5000        15.6657         0.0416        71.2179        23.4221        20.0973         4.6458         3.0586         3.0657        15.1092         1.7050         1.7569         0.9052        14.5236         2.5635         2.0258        63.2830     
 6538.0000        15.5697         0.0209        65.6799        21.4397        18.0842         5.4770         5.0019         3.9305        14.9547         1.5504        11.8824         1.1067        11.1002         2.5734         2.4267        62.3102     
 6538.5000        15.3590         0.0073        60.6514        20.2234        16.2609         6.3089         7.6481         5.4385        14.7514         3.2809        16.4034         1.8020         6.4049         2.5958         2.9043        61.4380     
 6539.0000        15.1228        -0.0024        57.2700        19.2702        15.0917         7.1593        10.4703         7.6050        14.6257         3.0004        15.1085         1.7241         4.6705         2.6038         3.2321        61.1196     
 6539.5000        14.9524        -0.0089        55.4265        19.0880        14.0393         8.3358        12.3544         9.3666        14.5409         2.9917        39.1802         4.2334         3.8619         2.5965         3.4326        61.5358     
 6540.0000        14.8546        -0.0125        54.6815        19.3563        12.8592         8.8614        14.2900        10.4973        14.4737         4.8103        50.8647         4.9978         3.4390         2.5973         3.4736        61.9915     
 6540.5000        14.7587        -0.0121        55.3411        20.2168        13.5334         8.7396        14.9031        10.8159        14.4174         4.9927        44.6924         5.0012         3.5696         2.6027         3.4113        62.4025     
 6541.0000        14.6663        -0.0098        57.9063        21.0512        14.6932         8.4158        10.9248         9.2891        14.4056         4.9969        44.3354         5.0060         4.0463         2.5947         3.2777        62.5101     
 6541.5000        14.6720        -0.0055        60.3723        22.4372        15.6854         7.8941         8.0044         7.5959        14.4361         4.9978        29.5642         5.0079         5.3991         2.5836         2.9920        62.5376     
 6542.0000        14.7350        -0.0021        62.8393        23.3699        16.3036         7.4391         6.8309         6.3081        14.4702         4.0591         7.8629         4.3085         7.6766         2.5617         2.8282        62.6000     
 6542.5000        14.7979         0.0007        64.7321        23.9028        16.4694         6.9893         5.9771         5.4432        14.5042         2.2628         9.5473         2.5650         8.9156         2.5448         2.7119        62.6391     
 6543.0000        14.8561         0.0020        64.2091        24.2087        16.2895         6.2554         5.4239         5.1384        14.5371         4.4648        14.4970         4.6356         9.3671         2.5411         2.6456        62.7380     
 6543.5000        14.8727         0.0022        63.9002        24.3656        16.1382         5.7020         5.6902         5.3779        14.5649         3.9404         7.0128         4.4190         9.2138         2.5594         2.5918        62.5947     
 6544.0000        14.8768         0.0031        64.1015        24.1752        16.1784         5.5739         6.0970         5.5282        14.5999         2.7316        10.2952         3.1721         8.9258         2.5679         2.5792        62.1676     
 6544.5000        14.8808         0.0041        64.5487        23.8284        16.4767         5.4941         5.9601         5.3509        14.6370         3.9977        10.0447         3.6068         8.9243         2.5658         2.5673        61.9183     
 6545.0000        14.8849         0.0043        64.9266        23.0444        16.8204         5.4382         5.7721         5.1106        14.6549         4.4040         9.9597         3.5625         9.2632         2.5562         2.5672        61.9795     
 6545.5000        14.8863        -0.0012        65.1425        22.2332        16.8358         5.4408         5.5201         4.9710        14.6552         3.7606         8.4359         2.6668         9.4745         2.5493         2.5724        62.5627     
 6546.0000        14.8857        -0.0080        64.4740        21.3251        16.7357         5.4541         5.3813         5.0737        14.6531         1.7648         9.8328         4.4219         9.4325         2.5419         2.5987        63.2797     
 6546.5000        14.8851        -0.0126        62.8819        20.5515        16.8911         5.4674         5.9598         5.4123        14.6407         1.9787         8.3201         3.0352         9.0103         2.5355         2.6338        63.7202     
 6547.0000        14.8845        -0.0134        60.7926        20.1078        17.1614         5.4810         6.6747         5.7748        14.6427         2.4269        13.3217         3.1057         8.6821         2.5389         2.6833        63.8379     
 6547.5000        14.8832        -0.0122        60.2831        20.3265        17.2646         5.4991         7.0619         5.9698        14.6548         3.1117        14.8862         3.2273         8.4329         2.5490         2.6880        63.8374     
 6548.0000        14.8789        -0.0072        60.4534        20.9913        17.0257         5.5172         7.0850         5.9465        14.6669         3.5584        10.5143         3.9262         8.5722         2.5611         2.6781        63.7878     
 6548.5000        14.8744        -0.0073        60.7759        20.8505        16.6812         5.5106         6.8773         5.7580        14.6631         4.2395         9.2221         4.3076         8.8741         2.5613         2.6681        63.4841     
 6549.0000        14.8699        -0.0143        61.4398        20.5917        16.4077         5.4298         6.5497         5.5342        14.6378         4.9334        10.9830         4.7509         9.1626         2.5479         2.6494        63.0657     
 6549.5000        14.8653        -0.0133        62.3743        21.2716        16.2922         5.3485         6.2088         5.3372        14.6181         4.3011        12.3703         4.9369         9.3951         2.5432         2.6247        63.1300     
 6550.0000        14.8684        -0.0116        63.4039        21.5701        16.6593         5.2276         5.9294         5.1040        14.5986         3.8874        12.5275         4.7831         9.6559         2.5370         2.5761        64.1244     
