~Version Information Section
VERS.          2.0                                     : CWLS LOG ASCII Standard
WRAP.          NO                                      : One line per depth step
CREA.          03/10/17                                : LAS Creation Date
~Well Information Section
STRT.ft        550.5000                                : Start Depth
STOP.ft        8567.0000                               : Stop Depth
STEP.ft        0.5000                                  : Step
NULL.          -999.2500                               : Null Value
COMP.          CONOCO GULF NCB                         : Company
WELL.          15/19-2                                 : Well
FLD .          WILDCAT                                 : Field
LOC .          NORTH SEA                               : Location
LOC1.          -                                       : Location (UTM)
CTRY.          UK                                      : Country
PROV.          UKCS                                    : Province
UWI .          908                                     : UWI Number
API .          -                                       : API Number
SECT.          -                                       : Section
TOWN.          -                                       : Township
RNGE.          -                                       : Range
PDAT.          MSL                                     : Perm Datum
EPD .ft        0.0                                     : Elevation
LMF .          RKB                                     : Log Measured From
DMF .          RKB                                     : Drill Measured From
APD .ft        71.0                                    : Above Perm Datum
EKB .ft        71.0                                    : Elev-Kelly Bushing
EDF .          -                                       : Elev-Drill Floor
EGL .ft        -495.0                                  : Elev-Ground Level (Water Depth)
TDD .ft        8575.0                                  : Total Depth (Driller)
TDL .ft        8567.0                                  : Total Depth (Logger)
SRVC.          SCHLUMBERGER                            : Service Company
LATI.          58 29 27.8" N                           : Latitude
LONG.          00 39 43.6" E                           : Longitude
DATE.          10-APR-1974 - 11-JUN-1974               : Logging Date
PROJ.          UKCS                                    : Project
SET .          COMP_WIRE                               : Set
~Curve Information Section
DEPTH.ft                                               : Depth Curve
CALD.in                                                : Caliper (from FDC/CNL/GR)
DRHO.g/cc                                              : Delta Rho
DT.us/ft                                               : Delta-T
GR.gAPI                                                : Gamma Ray (from ISF/BHC/GR)
GRD.gAPI                                               : Gamma Ray (from FDC/CNL/GR)
ILD.Ohmm                                               : Deep Induction Standard Processed Resistivity
LLD.Ohmm                                               : Latero-Log Deep (Resistivity)
LLS.Ohmm                                               : Latero-Log Shallow (Resistivity)
MCAL.in                                                : Caliper (from MLL/ML)
MINV.Ohmm                                              : Micro-Inverse Resistivity
MLL.Ohmm                                               : Mll Resistivity
MNOR.Ohmm                                              : Micro-Normal Resistivity
NPHI.pu                                                : Neutron Porosity
RHOB.g/cc                                              : Bulk Density
SFLU.Ohmm                                              : SFL Resistivity (Unaveraged)
SP.mV                                                  : Spontaneous Potential 
~ASCII Log Data Section
# ...
 7398.5000        17.4516        -0.0137        67.3612       100.2583       110.0024       142.7702        43.1479        10.3765        17.1269         4.1963        88.5636         2.2460        24.1827         2.5735         1.8952        66.3315     
 7399.0000        17.4733        -0.0156        71.5154        98.2177       108.4390       358.8826        41.0288         9.4551        17.2129         3.7779        75.2563         2.2585        28.4827         2.5429         1.8304        66.8624     
 7399.5000        17.4950        -0.0159        69.9014        94.1301       106.5415       122.5635        33.2244         8.2896        17.3192         3.2824        66.2277         2.3225        33.8754         2.4873         1.7574        67.0213     
 7400.0000        17.5166        -0.0272        58.8954        86.9729       100.6291        16.4430        24.5203         7.2695        17.6589         2.6617        23.9835         2.3575        38.2524         2.4117         1.6720        66.8582     
 7400.5000        17.5366        -0.0315        59.0443        76.2909        87.6654         6.2664        18.8933         6.3763        18.1021         2.1764         7.4032         2.2220        41.2493         2.3100         1.5813        66.7297     
 7401.0000        17.5393        -0.0204        64.6508        66.0855        73.8835         4.0321        15.0123         5.8245        18.4824         1.9101         3.6199         1.9801        44.2922         2.1659         1.4847        66.9002     
 7401.5000        17.5366        -0.0098        57.1633        55.5211        57.2828         2.8127        13.4897         5.4633        18.7967         1.7195         1.9858         1.9028        45.6619         2.0120         1.4009        67.2465     
 7402.0000        17.5339        -0.0057        48.4594        47.6756        48.6740         2.2480        12.9794         5.2997        19.0801         1.5419         9.3923         1.8195        47.6451         1.8314         1.3175        67.2836     
 7402.5000        17.5312        -0.0155        47.5936        44.5100        45.6803         2.0170        12.1957         5.0720        19.2617         1.3255        20.7854         1.6250        51.2982         1.6224         1.2340        66.9541     
 7403.0000        17.5285        -0.0334        49.2157        44.3644        45.9125         2.0648        10.5773         4.6085        19.3768         1.0831         9.6506         1.5018        54.9303         1.4835         1.1454        66.6832     
 7403.5000        17.5258        -0.0409        62.2848        46.4789        47.9032         2.2219         8.1384         3.8420        19.3900         0.7445         0.4614         1.2192        58.3101         1.4356         1.0588        66.5419     
 7404.0000        17.5231        -0.0352       113.7663        52.1352        51.0378         2.4008         5.5635         3.0542        19.3827         0.3649         0.3163         0.5690        59.4549         1.4374         0.9864        66.1782     
 7404.5000        17.5204        -0.0238       138.2368        59.0510        57.2816         2.4533         4.5028         2.7836        19.3124         0.2065         0.3244         0.2213        58.4284         1.4826         0.9551        65.6970     
 7405.0000        17.5177        -0.0037       138.1894        66.1827        66.6585         2.6673         4.6694         2.9290        19.0614         0.1874         0.4641         0.1966        57.2672         1.5698         0.9358        65.0204     
 7405.5000        17.5150         0.0083       121.4835        78.0006        77.9229         4.0693         5.7819         3.4102        18.7296         0.2086         0.8819         0.2145        52.8316         1.6952         0.9831        64.2788     
 7406.0000        17.5123         0.0104       100.9774        90.5002        93.7583         7.2721         7.4994         3.9499        18.8748         0.2709         2.2370         0.2455        46.5621         1.9505         1.0572        63.5294     
 7406.5000        17.5096        -0.0014        85.0448       100.6248       110.1939        77.3323         9.3088         4.2828        19.1658         0.4653         6.2905         0.3647        44.8212         2.1021         1.1883        63.0387     
 7407.0000        17.5081        -0.0035        75.8963       106.9820       114.7214      1946.0811        10.5939         4.3717        19.0622         0.7060        10.3352         0.7847        41.6017         2.3855         1.3336        62.4374     
 7407.5000        17.5076        -0.0013        70.5525       108.9982       111.4234      1957.0537        11.1996         4.4055        19.0021         0.8911        11.9549         1.1163        32.6226         2.4916         1.4201        61.3416     
 7408.0000        17.5071        -0.0064        69.0176       108.6566       108.5476      1950.4331        12.3278         4.4202        19.0004         1.0404        17.4217         1.2001        23.1874         2.5085         1.4794        60.5532     
 7408.5000        17.5066        -0.0092        68.1449       108.5126       108.7426      1024.8232        14.4220         4.4850        19.0180         1.1504        29.0817         1.2080        20.3372         2.5127         1.4959        60.4699     
 7409.0000        17.5061        -0.0092        67.2876       109.1254       114.1535        55.2170        17.0615         4.6494        19.0224         1.1699        37.4778         1.4036        19.1769         2.5294         1.4960        59.8431     
 7409.5000        17.5056        -0.0069        66.3522       110.0292       119.5336        24.8465        18.9428         4.8537        19.0410         1.1468        22.4255         1.2322        19.3775         2.5554         1.4961        59.0216     
 7410.0000        17.5051        -0.0027        65.4671       108.9197       119.5922        18.3408        19.8439         5.0534        19.0636         1.0950        21.7361         1.0791        17.8441         2.5751         1.4962        58.7339     
 7410.5000        17.5046        -0.0008        65.2612       103.4482       113.7890        15.7339        20.6816         5.2949        19.0850         0.9976        34.5260         0.9544        15.4608         2.5633         1.4925        58.6827     
 7411.0000        17.5041        -0.0060        66.1864        92.0002       101.6306        14.3732        22.3495         5.5371        19.0717         0.9325        40.3266         0.9561        14.1406         2.5406         1.4833        57.8006     
 7411.5000        17.5036        -0.0083        67.3560        84.6819        91.8948        13.2772        23.2830         5.6804        19.0617         0.8996        63.8472         0.8576        13.5283         2.5152         1.4745        56.9638     
 7412.0000        17.5031        -0.0052        68.2681        79.8861        83.7700        12.2783        22.2770         5.6614        19.0564         0.8455        23.8208         0.8754        12.9108         2.4955         1.4676        56.2853     
 7412.5000        17.5026        -0.0015        69.0468        79.7263        80.9390        11.3953        20.7997         5.5339        19.0558         0.7649        25.0674         0.7881        12.2550         2.4886         1.4279        55.6315     
 7413.0000        17.5021         0.0012        69.4033        85.6465        84.7628        10.8560        19.6782         5.4132        19.0599         0.6885        25.2468         0.6948        11.6341         2.4951         1.4189        54.9852     
 7413.5000        17.5016         0.0011        68.9085        90.2615        92.6240        10.5919        18.8920         5.3400        19.0850         0.6565        19.2446         0.6566        11.7331         2.5077         1.4126        54.3379     
 7414.0000        17.5011         0.0011        67.9413        96.8664       103.3839        10.3282        18.3773         5.3339        19.1317         0.6513        20.4697         0.6588        12.3692         2.5252         1.4074        53.2747     
