~Version Information Section
VERS.          2.0                                     : CWLS LOG ASCII Standard
WRAP.          NO                                      : One line per depth step
CREA.          05/03/15                                : LAS Creation Date
~Well Information Section
STRT.ft        460.5000                                : Start Depth
STOP.ft        8016.0000                               : Stop Depth
STEP.ft        0.5000                                  : Step
NULL.          -999.2500                               : Null Value
COMP.          MONSANTO PLC                            : Company
WELL.          15/21-1                                 : Well
FLD .          WILDCAT                                 : Field
LOC .          NORTH SEA                               : Location
LOC1.                                                  : Location (UTM)
CTRY.          UK                                      : Country
PROV.          UKCS                                    : Province
UWI .          913                                     : UWI Number
API .                                                  : API Number
SECT.                                                  : Section
TOWN.                                                  : Township
RNGE.                                                  : Range
PDAT.          MSL                                     : Perm Datum
EPD .ft        0.00                                    : Elevation
LMF .          RT                                      : Log Measured From
DMF .          RT                                      : Drill Measured From
APD .ft        30.00                                   : Above Perm Datum
EKB .ft        31.00                                   : Elev-Kelly Bushing
EDF .ft        30.00                                   : Elev-Drill Floor
EGL .ft        -457.00                                 : Elev-Ground Level (Water Depth)
TDD .ft        8011.00                                 : Total Depth (Driller)
TDL .ft        8018.00                                 : Total Depth (Logger)
SRVC.          SCHLUMBERGER                            : Service Company
LATI.          58 13 21.6 N                            : Latitude
LONG.          00 05 07.2 E                            : Longitude
DATE.          APR-MAY-1973                            : Logging Date
PROJ.          UKCS                                    : Project
SET .          COMP WIRE                               : Set
~Curve Information Section
DEPTH.ft                                               : Depth Curve
CAL.in                                                 : BHC Caliper
CALI.in                                                : FDC Caliper
DRHO.g/cc                                              : Delta Rho
DT.us/ft                                               : Delta-T
GR.gAPI                                                : BHC Gamma Ray
GRD.gAPI                                               : FDC Gamma Ray
IND.ohmm                                               : Induction 6FF40 Resistivity
NPHI.%                                                 : Neutron Porosity
RHOB.g/cc                                              : Bulk Density
SN.ohmm                                                : Short Normal 16" Resistivity
SP.mV                                                  : Spontaneous Potential
~ASCII Log Data Section
# ...
 6355.5000        12.1535        12.1535         0.0555        70.9355        27.4886        30.6056         2.8834        14.5789         2.5400         3.8598        27.9181     
 6356.0000        12.1604        12.1604         0.0665        62.7191        23.3711        24.4136         3.6678         9.5773         2.5851         4.3672        27.8000     
 6356.5000        12.1375        12.1375         0.0758        59.7982        19.7316        19.4406         4.2705         9.3817         2.5872         4.6183        27.6344     
 6357.0000        12.1190        12.1190         0.0870        62.1122        18.7893        17.6864         4.3405        10.8782         2.5887         4.6955        27.5315     
 6357.5000        12.1065        12.1065         0.0817        64.1245        18.7860        17.3372         3.9846        13.3408         2.5530         4.5949        27.5345     
 6358.0000        12.1052        12.1052         0.0306        64.8421        17.8477        17.1175         3.6072        15.3748         2.4873         4.4506        27.5375     
 6358.5000        12.0958        12.0958         0.0399        65.3489        16.6449        15.7634         3.2568        15.3081         2.4841         4.2874        27.4026     
 6359.0000        12.0846        12.0846         0.0300        65.4317        15.5955        13.5633         3.0356        15.4819         2.4839         4.1866        27.1421     
 6359.5000        12.0853        12.0853         0.0358        65.4641        14.4154        13.0907         2.8658        16.2695         2.4635         4.1286        26.9110     
 6360.0000        12.0954        12.0954         0.0333        66.8771        13.0334        13.8908         2.7612        16.6603         2.4396         4.0579        26.5481     
 6360.5000        12.1013        12.1013         0.0236        67.3839        11.9814        13.9266         2.6658        15.7787         2.4239         3.9853        26.2303     
 6361.0000        12.0882        12.0882         0.0181        67.4063        12.7621        12.4674         2.6452        15.4088         2.4258         3.9287        26.1554     
 6361.5000        12.1057        12.1057         0.0264        67.2269        12.8942        11.5517         2.6438        15.5623         2.4411         3.9450        26.0335     
 6362.0000        12.1338        12.1338         0.0175        67.0624        12.2696        12.8497         2.6557        15.3377         2.4512         4.0001        26.2197     
 6362.5000        12.1590        12.1590         0.0303        66.6514        12.5154        13.4748         2.6838        14.8998         2.4784         4.0195        26.4056     
 6363.0000        12.1920        12.1920         0.0341        66.3724        13.3230        13.5670         2.7344        14.3695         2.4937         4.0367        26.7674     
 6363.5000        12.2018        12.2018         0.0407        66.3737        13.8425        13.6218         2.7879        14.0370         2.4966         4.0540        26.7724     
 6364.0000        12.2015        12.2015         0.0436        66.6040        14.1152        13.6191         2.8392        13.5844         2.4834         4.0713        26.9136     
 6364.5000        12.2012        12.2012         0.0386        66.6763        13.9175        13.7298         2.8906        13.1845         2.4864         4.0842        26.7918     
 6365.0000        12.2030        12.2030         0.0188        66.3065        13.3500        14.0129         2.9419        12.8035         2.4757         4.1240        26.7797     
 6365.5000        12.2112        12.2112         0.0142        65.7033        12.6141        13.3733         2.9934        12.3154         2.4727         4.2022        26.7827     
 6366.0000        12.2197        12.2197         0.0214        64.8577        12.1443        12.9164         3.0452        11.9106         2.4836         4.2337        26.9113     
 6366.5000        12.2269        12.2269         0.0410        63.9030        12.1984        13.6916         3.1011        11.9791         2.5077         4.2342        27.0747     
 6367.0000        12.2339        12.2339         0.0478        63.6749        12.5156        14.3398         3.1570        12.6445         2.5220         4.2233        27.1910     
 6367.5000        12.2418        12.2418         0.0343        64.6893        12.9990        14.4757         3.2077        13.5203         2.5006         4.1825        27.2544     
 6368.0000        12.2529        12.2529         0.0439        65.8064        13.2118        15.2728         3.1885        14.1235         2.4992         4.1186        27.3972     
 6368.5000        12.2587        12.2587         0.0367        67.1169        13.4524        16.1732         3.1649        14.0187         2.4814         4.0783        27.3269     
 6369.0000        12.2586        12.2586         0.0415        67.7499        13.5324        16.7499         3.1014        13.3728         2.4999         4.0212        27.2001     
 6369.5000        12.2653        12.2653         0.0498        67.0764        13.5303        16.0080         3.0059        13.1266         2.4993         3.9625        26.9363     
 6370.0000        12.2743        12.2743         0.0606        66.2885        13.5194        14.7628         2.9075        13.0209         2.5152         3.9023        26.4513     
 6370.5000        12.2584        12.2584         0.0681        65.3713        13.1536        13.8775         2.7746        13.2477         2.5200         3.8232        26.0862     
 6371.0000        12.2292        12.2292         0.0600        66.0178        12.8588        14.4574         2.5959        14.1373         2.5016         3.7353        25.7078     
 6371.5000        12.1789        12.1789         0.0389        66.6683        12.7213        15.4569         2.3929        15.3840         2.4755         3.5479        25.5751     
 6372.0000        12.1366        12.1366         0.0175        67.8064        12.8387        14.9685         2.1900        16.5652         2.4378         3.3282        25.1675     
 6372.5000        12.1266        12.1266         0.0099        68.8909        13.2995        13.8207         2.0137        17.3430         2.4113         3.1093        24.8287     
 6373.0000        12.1439        12.1439         0.0164        69.9990        13.0923        14.1625         1.8507        18.4134         2.3965         2.8948        24.4776     
 6373.5000        12.1598        12.1598         0.0187        71.1080        12.2537        13.6723         1.6879        19.4404         2.3899         2.6848        24.0779     
 6374.0000        12.1798        12.1798         0.0104        72.8132        12.2638        14.3217         1.5249        20.4686         2.3821         2.5177        23.8041     
 6374.5000        12.1951        12.1951         0.0068        74.0557        12.8675        14.5045         1.4149        21.2739         2.3606         2.3496        23.4901     
 6375.0000        12.1948        12.1948         0.0121        74.8975        12.5187        14.2697         1.3433        21.9613         2.3531         2.2182        23.1226     
 6375.5000        12.1948        12.1948         0.0177        76.1196        12.1703        13.8768         1.2731        22.5995         2.3559         2.1400        22.8951     
 6376.0000        12.2057        12.2057         0.0242        76.6502        12.1018        14.5101         1.2161        22.3509         2.3472         2.0658        22.8082     
 6376.5000        12.2079        12.2079         0.0267        76.2258        13.0390        14.4714         1.1743        22.0672         2.3407         2.0334        22.5246     
 6377.0000        12.1916        12.1916         0.0277        75.9398        13.4982        14.1691         1.1604        22.4220         2.3473         2.0163        22.5444     
 6377.5000        12.1582        12.1581         0.0355        76.5254        13.4961        13.7567         1.1502        23.0589         2.3552         2.0190        22.6483     
