~Version Information Section
VERS.          2.0                                     : CWLS LOG ASCII Standard
WRAP.          NO                                      : One line per depth step
CREA.          05/03/15                                : LAS Creation Date
~Well Information Section
STRT.ft        460.5000                                : Start Depth
STOP.ft        8016.0000                               : Stop Depth
STEP.ft        0.5000                                  : Step
NULL.          -999.2500                               : Null Value
COMP.          MONSANTO PLC                            : Company
WELL.          15/21-1                                 : Well
FLD .          WILDCAT                                 : Field
LOC .          NORTH SEA                               : Location
LOC1.                                                  : Location (UTM)
CTRY.          UK                                      : Country
PROV.          UKCS                                    : Province
UWI .          913                                     : UWI Number
API .                                                  : API Number
SECT.                                                  : Section
TOWN.                                                  : Township
RNGE.                                                  : Range
PDAT.          MSL                                     : Perm Datum
EPD .ft        0.00                                    : Elevation
LMF .          RT                                      : Log Measured From
DMF .          RT                                      : Drill Measured From
APD .ft        30.00                                   : Above Perm Datum
EKB .ft        31.00                                   : Elev-Kelly Bushing
EDF .ft        30.00                                   : Elev-Drill Floor
EGL .ft        -457.00                                 : Elev-Ground Level (Water Depth)
TDD .ft        8011.00                                 : Total Depth (Driller)
TDL .ft        8018.00                                 : Total Depth (Logger)
SRVC.          SCHLUMBERGER                            : Service Company
LATI.          58 13 21.6 N                            : Latitude
LONG.          00 05 07.2 E                            : Longitude
DATE.          APR-MAY-1973                            : Logging Date
PROJ.          UKCS                                    : Project
SET .          COMP WIRE                               : Set
~Curve Information Section
DEPTH.ft                                               : Depth Curve
CAL.in                                                 : BHC Caliper
CALI.in                                                : FDC Caliper
DRHO.g/cc                                              : Delta Rho
DT.us/ft                                               : Delta-T
GR.gAPI                                                : BHC Gamma Ray
GRD.gAPI                                               : FDC Gamma Ray
IND.ohmm                                               : Induction 6FF40 Resistivity
NPHI.%                                                 : Neutron Porosity
RHOB.g/cc                                              : Bulk Density
SN.ohmm                                                : Short Normal 16" Resistivity
SP.mV                                                  : Spontaneous Potential
~ASCII Log Data Section
# ...
 7525.5000        13.1555        13.1555         0.1277        74.2420        54.1854        59.0836         3.2128        24.8759         2.3333         3.1297        44.1597     
 7526.0000        13.7889        13.7889         0.1708        83.4257        63.7229        64.4951         3.0239        29.3953         2.2670         2.9218        44.0409     
 7526.5000        15.2963        15.2963         0.0829        92.0937        67.8914        73.8836         2.8152        33.8041         2.2770         2.7876        44.3225     
 7527.0000        15.3623        15.3623         0.0839        94.4663        72.8594        82.0416         2.6660        35.5178         2.2955         2.7201        44.6703     
 7527.5000        15.2918        15.2918         0.1184        87.8504        73.5822        89.6777         2.5413        35.9968         2.3173         2.6770        44.7636     
 7528.0000        15.1577        15.1577         0.1469        92.8438        69.8020        92.1962         2.5066        35.3177         2.3149         2.6615        44.7536     
 7528.5000        14.6356        14.6356         0.1013        87.9994        70.3841        90.0475         2.5861        34.7744         2.3638         2.6695        44.7437     
 7529.0000        14.0582        14.0582         0.0531        81.9607        69.2577        87.5597         2.7671        31.9849         2.4690         2.7261        44.7337     
 7529.5000        14.0863        14.0863         0.0063        78.6279        64.6091        85.8889         2.9886        25.5981         2.5292         2.8334        44.7035     
 7530.0000        13.3219        13.3219         0.0092        64.4020        57.1163        81.6414         3.3394        20.4587         2.5997         2.9821        44.6537     
 7530.5000        13.2428        13.2428         0.0167        64.0192        49.9473        73.4005         3.7216        19.5691         2.6658         3.1400        44.7038     
 7531.0000        13.0732        13.0732         0.0080        64.2731        45.9865        66.0438         4.1378        19.7540         2.6567         3.2762        44.6299     
 7531.5000        13.0209        13.0209         0.0029        62.3898        44.6362        61.7277         4.2969        20.0462         2.6192         3.3391        43.9062     
 7532.0000        12.9343        12.9343         0.0072        63.4127        45.3285        60.4212         4.2019        20.4613         2.5750         3.3215        43.3069     
 7532.5000        12.7859        12.7859         0.0141        65.7696        46.6445        60.2404         3.7333        22.1965         2.5489         3.2150        42.5648     
 7533.0000        12.6102        12.6102         0.0073        71.8687        46.7380        59.9289         3.2005        23.8866         2.4691         3.0322        41.6694     
 7533.5000        12.4879        12.4877         0.0084        80.3232        46.3089        59.9888         2.8139        24.3974         2.3804         2.8955        40.8270     
 7534.0000        12.3536        12.3536         0.0444        80.7123        46.7230        60.4475         2.6823        27.7628         2.3107         2.7799        40.2238     
 7534.5000        12.3356        12.3356         0.1295        80.6040        47.5450        59.6880         2.6658        31.2313         2.2240         2.7430        40.1467     
 7535.0000        12.9816        12.9816         0.1621        82.5046        49.2142        58.8546         2.6869        32.3697         2.1263         2.7376        40.0665     
 7535.5000        13.6914        13.6914         0.1332        83.3802        54.1319        59.5288         2.6612        32.2701         2.1650         2.6782        40.2408     
 7536.0000        13.1707        13.1707         0.1443        75.2600        55.3761        60.7170         2.5186        31.4000         2.2887         2.6211        40.4507     
 7536.5000        12.7886        12.7886         0.0698        75.8517        51.7613        63.2400         2.4793        29.4622         2.3754         2.5936        40.7303     
 7537.0000        12.7914        12.7914         0.0353        75.6403        49.5127        64.5922         2.5155        26.5133         2.4829         2.6038        41.1047     
 7537.5000        12.8383        12.8383         0.0529        75.2458        48.8620        64.4744         2.5954        24.3738         2.5621         2.6390        41.3541     
 7538.0000        12.8090        12.8089         0.0394        75.3350        48.0770        62.2554         2.5827        25.0516         2.5617         2.6664        41.2505     
 7538.5000        12.7958        12.7958         0.0435        74.7764        47.1947        61.3650         2.4738        25.5768         2.5538         2.6737        41.0110     
 7539.0000        12.6897        12.6897         0.0332        74.2896        48.5229        58.0141         2.3275        26.1464         2.5410         2.5916        40.5801     
 7539.5000        12.4946        12.4946         0.0431        74.8714        48.9575        56.6483         2.2048        25.9647         2.5579         2.4651        39.0310     
 7540.0000        12.3674        12.3674         0.0490        76.0450        46.1208        54.7784         2.0427        25.0053         2.5958         2.3359        37.0730     
 7540.5000        12.2966        12.2966         0.0476        77.2329        42.8000        52.0453         1.8782        24.7388         2.5871         2.2148        34.8518     
 7541.0000        12.0641        12.0641         0.0418        77.2160        40.3561        48.9249         1.7494        25.4614         2.5796         2.1030        32.6418     
 7541.5000        12.0048        12.0048         0.0242        76.5066        37.8869        46.2449         1.6336        26.2004         2.5809         2.0199        30.5868     
 7542.0000        11.9692        11.9692         0.0287        75.9002        36.8544        45.6641         1.5005        27.2056         2.5533         1.9503        28.8935     
 7542.5000        11.9571        11.9571         0.0267        76.9749        35.5836        45.7710         1.3443        28.5564         2.5404         1.8680        27.4312     
 7543.0000        11.9488        11.9488         0.0185        74.4182        34.5556        45.0985         1.1534        29.9081         2.5248         1.7736        26.3123     
 7543.5000        11.9120        11.9120         0.0558        73.4053        34.7967        45.1846         0.9782        31.5704         2.5212         1.6502        25.2729     
 7544.0000        11.8890        11.8890         0.0798        72.9285        34.8333        42.8412         0.8374        33.3140         2.5099         1.4925        24.3295     
 7544.5000        11.8774        11.8774         0.0760        73.3261        33.3079        40.4261         0.8077        35.0360         2.4606         1.4014        23.2766     
 7545.0000        11.9084        11.9084         0.0512        78.2305        31.0584        39.8127         0.7920        36.0964         2.4449         1.3437        22.1750     
 7545.5000        11.9123        11.9123         0.0481        82.2127        29.4637        38.2807         0.7854        36.2133         2.4491         1.3229        21.6135     
 7546.0000        11.8893        11.8893         0.0304        82.3562        30.6682        35.9159         0.8211        34.6685         2.4221         1.3898        22.2303     
 7546.5000        11.9388        11.9390         0.0052        79.3604        32.3156        35.8730         0.8956        31.6441         2.4049         1.5897        23.2152     
 7547.0000        12.0423        12.0423         0.0147        75.6823        33.8639        37.7754         0.9822        29.0484         2.4371         1.8377        24.6319     
 7547.5000        12.1666        12.1666         0.0357        71.9457        34.9929        40.2555         1.0687        27.0035         2.4851         2.0457        26.6917     
