~Version Information Section
VERS.          2.0                                     : CWLS LOG ASCII Standard
WRAP.          NO                                      : One line per depth step
CREA.          05/03/15                                : LAS Creation Date
~Well Information Section
STRT.ft        460.5000                                : Start Depth
STOP.ft        8016.0000                               : Stop Depth
STEP.ft        0.5000                                  : Step
NULL.          -999.2500                               : Null Value
COMP.          MONSANTO PLC                            : Company
WELL.          15/21-1                                 : Well
FLD .          WILDCAT                                 : Field
LOC .          NORTH SEA                               : Location
LOC1.                                                  : Location (UTM)
CTRY.          UK                                      : Country
PROV.          UKCS                                    : Province
UWI .          913                                     : UWI Number
API .                                                  : API Number
SECT.                                                  : Section
TOWN.                                                  : Township
RNGE.                                                  : Range
PDAT.          MSL                                     : Perm Datum
EPD .ft        0.00                                    : Elevation
LMF .          RT                                      : Log Measured From
DMF .          RT                                      : Drill Measured From
APD .ft        30.00                                   : Above Perm Datum
EKB .ft        31.00                                   : Elev-Kelly Bushing
EDF .ft        30.00                                   : Elev-Drill Floor
EGL .ft        -457.00                                 : Elev-Ground Level (Water Depth)
TDD .ft        8011.00                                 : Total Depth (Driller)
TDL .ft        8018.00                                 : Total Depth (Logger)
SRVC.          SCHLUMBERGER                            : Service Company
LATI.          58 13 21.6 N                            : Latitude
LONG.          00 05 07.2 E                            : Longitude
DATE.          APR-MAY-1973                            : Logging Date
PROJ.          UKCS                                    : Project
SET .          COMP WIRE                               : Set
~Curve Information Section
DEPTH.ft                                               : Depth Curve
CAL.in                                                 : BHC Caliper
CALI.in                                                : FDC Caliper
DRHO.g/cc                                              : Delta Rho
DT.us/ft                                               : Delta-T
GR.gAPI                                                : BHC Gamma Ray
GRD.gAPI                                               : FDC Gamma Ray
IND.ohmm                                               : Induction 6FF40 Resistivity
NPHI.%                                                 : Neutron Porosity
RHOB.g/cc                                              : Bulk Density
SN.ohmm                                                : Short Normal 16" Resistivity
SP.mV                                                  : Spontaneous Potential
~ASCII Log Data Section
# ...
 6603.0000        13.9969        13.9969      -999.2500       101.0931        39.9555      -999.2500         1.5955      -999.2500      -999.2500         1.5047        44.1854     
 6603.5000        14.0767        14.0767      -999.2500       104.5879        40.6080      -999.2500         1.5878      -999.2500      -999.2500         1.5045        44.1820     
 6604.0000        14.0657        14.0657      -999.2500       114.5056        40.3567      -999.2500         1.5676      -999.2500      -999.2500         1.4799        44.2835     
 6604.5000        14.0979        14.0979      -999.2500       112.2096        39.3590      -999.2500         1.5450      -999.2500      -999.2500         1.4535        44.5750     
 6605.0000        14.0853        14.0853      -999.2500       110.0480        38.5815      -999.2500         1.5198      -999.2500      -999.2500         1.4353        44.7643     
 6605.5000        14.0439        14.0439      -999.2500       108.6746        38.5461      -999.2500         1.4941      -999.2500      -999.2500         1.4169        44.9605     
 6606.0000        14.0293        14.0293      -999.2500       104.3234        39.5804      -999.2500         1.4685      -999.2500      -999.2500         1.3997        45.1400     
 6606.5000        14.0166        14.0166      -999.2500       104.0512        41.9111      -999.2500         1.4475      -999.2500      -999.2500         1.3963        45.1611     
 6607.0000        14.0232        14.0232      -999.2500       112.5782        43.4220      -999.2500         1.4403      -999.2500      -999.2500         1.3933        45.0634     
 6607.5000        14.0438        14.0438      -999.2500       116.5596        44.2378      -999.2500         1.4334      -999.2500      -999.2500         1.3775        44.8862     
 6608.0000        14.0851        14.0851      -999.2500       117.5268        46.6704      -999.2500         1.4266      -999.2500      -999.2500         1.3638        44.8508     
 6608.5000        14.0616        14.0616      -999.2500       121.1538        49.0265      -999.2500         1.4203      -999.2500      -999.2500         1.3528        44.8473     
 6609.0000        14.0224        14.0224      -999.2500       115.5202        49.4610      -999.2500         1.4157      -999.2500      -999.2500         1.3448        44.8119     
 6609.5000        14.0117        14.0117      -999.2500       112.0689        47.6548      -999.2500         1.4111      -999.2500      -999.2500         1.3446        44.5357     
 6610.0000        14.0161        14.0161      -999.2500       107.4757        45.9139      -999.2500         1.4063      -999.2500      -999.2500         1.3468        44.1929     
 6610.5000        14.0220        14.0220      -999.2500       105.9195        42.5435      -999.2500         1.4009      -999.2500      -999.2500         1.3549        44.0617     
 6611.0000        14.0279        14.0279      -999.2500       111.4586        39.8859      -999.2500         1.3954      -999.2500      -999.2500         1.3664        44.1212     
 6611.5000        14.0409        14.0409      -999.2500       113.3851        41.5240      -999.2500         1.3833      -999.2500      -999.2500         1.3688        44.1267     
 6612.0000        14.0506        14.0506      -999.2500       115.1460        45.5198      -999.2500         1.3696      -999.2500      -999.2500         1.3658        44.1233     
 6612.5000        14.0305        14.0305      -999.2500       114.0215        49.8426      -999.2500         1.3568      -999.2500      -999.2500         1.3456        44.1198     
 6613.0000        14.0303        14.0303      -999.2500       112.1487        51.4081      -999.2500         1.3503      -999.2500      -999.2500         1.3364        44.0920     
 6613.5000        14.0205        14.0205      -999.2500       119.3345        51.6685      -999.2500         1.3447      -999.2500      -999.2500         1.3310        43.9282     
 6614.0000        14.0100        14.0100      -999.2500       131.1595        50.6660      -999.2500         1.3547      -999.2500      -999.2500         1.3306        43.9095     
 6614.5000        14.0099        14.0099      -999.2500       134.3869        50.6505      -999.2500         1.3719      -999.2500      -999.2500         1.3360        43.9060     
 6615.0000        14.0138        14.0138      -999.2500       137.5487        49.9608      -999.2500         1.3837      -999.2500      -999.2500         1.3434        43.9026     
 6615.5000        14.0229        14.0229      -999.2500       134.8149        48.3453      -999.2500         1.3905      -999.2500      -999.2500         1.3545        43.8991     
 6616.0000        14.0314        14.0314      -999.2500       128.5824        48.4824      -999.2500         1.3869      -999.2500      -999.2500         1.3631        43.8957     
 6616.5000        14.0380        14.0380      -999.2500       117.4168        50.4067      -999.2500         1.3801      -999.2500      -999.2500         1.3761        43.8922     
 6617.0000        14.0445        14.0445      -999.2500       107.3461        51.9205      -999.2500         1.3792      -999.2500      -999.2500         1.3904        43.8888     
 6617.5000        14.0564        14.0564      -999.2500       113.2159        52.9617      -999.2500         1.3945      -999.2500      -999.2500         1.3917        43.8817     
 6618.0000        14.0783        14.0783      -999.2500       119.9364        55.2928      -999.2500         1.4148      -999.2500      -999.2500         1.3988        43.7050     
 6618.5000        14.0885        14.0885      -999.2500       124.8007        54.8189      -999.2500         1.4217      -999.2500      -999.2500         1.4112        43.6785     
 6619.0000        14.0883        14.0883      -999.2500       124.1573        49.9830      -999.2500         1.4265      -999.2500      -999.2500         1.4236        43.5832     
 6619.5000        14.0881        14.0881      -999.2500       117.3608        44.3204      -999.2500         1.4393      -999.2500      -999.2500         1.4360        43.3381     
 6620.0000        14.0880        14.0880      -999.2500       110.6252        39.0527      -999.2500         1.4710      -999.2500      -999.2500         1.4557        43.1001     
 6620.5000        14.0319        14.0319      -999.2500       103.6917        36.2329      -999.2500         1.5036      -999.2500      -999.2500         1.4849        43.0650     
 6621.0000        13.8840        13.8840      -999.2500        98.1462        33.8693      -999.2500         1.5273      -999.2500      -999.2500         1.5103        43.0615     
 6621.5000        13.8920        13.8920      -999.2500        96.4363        33.6569      -999.2500         1.5486      -999.2500      -999.2500         1.5205        43.0581     
 6622.0000        13.8487        13.8487      -999.2500        97.5197        33.4832      -999.2500         1.5699      -999.2500      -999.2500         1.5294        43.1958     
 6622.5000        13.9163        13.9163      -999.2500       101.8827        34.3392      -999.2500         1.5742      -999.2500      -999.2500         1.5383        43.7797     
 6623.0000        13.9983        13.9983      -999.2500       108.0850        35.1911      -999.2500         1.5594      -999.2500      -999.2500         1.5472        44.1116     
 6623.5000        14.0584        14.0584      -999.2500       111.6248        37.0653      -999.2500         1.5501      -999.2500      -999.2500         1.5461        44.5030     
 6624.0000        14.0457        14.0457      -999.2500       110.4268        39.5130      -999.2500         1.5333      -999.2500      -999.2500         1.5344        44.6401     
 6624.5000        14.0334        14.0334      -999.2500       110.8258        38.9135      -999.2500         1.5147      -999.2500      -999.2500         1.5224        44.4883     
 6625.0000        14.0062        14.0062      -999.2500       105.1033        37.8805      -999.2500         1.4962      -999.2500      -999.2500         1.5068        44.2617     
