~Version Information Section
VERS.          2.0                                     : CWLS LOG ASCII Standard
WRAP.          NO                                      : One line per depth step
CREA.          05/03/15                                : LAS Creation Date
~Well Information Section
STRT.ft        460.5000                                : Start Depth
STOP.ft        8016.0000                               : Stop Depth
STEP.ft        0.5000                                  : Step
NULL.          -999.2500                               : Null Value
COMP.          MONSANTO PLC                            : Company
WELL.          15/21-1                                 : Well
FLD .          WILDCAT                                 : Field
LOC .          NORTH SEA                               : Location
LOC1.                                                  : Location (UTM)
CTRY.          UK                                      : Country
PROV.          UKCS                                    : Province
UWI .          913                                     : UWI Number
API .                                                  : API Number
SECT.                                                  : Section
TOWN.                                                  : Township
RNGE.                                                  : Range
PDAT.          MSL                                     : Perm Datum
EPD .ft        0.00                                    : Elevation
LMF .          RT                                      : Log Measured From
DMF .          RT                                      : Drill Measured From
APD .ft        30.00                                   : Above Perm Datum
EKB .ft        31.00                                   : Elev-Kelly Bushing
EDF .ft        30.00                                   : Elev-Drill Floor
EGL .ft        -457.00                                 : Elev-Ground Level (Water Depth)
TDD .ft        8011.00                                 : Total Depth (Driller)
TDL .ft        8018.00                                 : Total Depth (Logger)
SRVC.          SCHLUMBERGER                            : Service Company
LATI.          58 13 21.6 N                            : Latitude
LONG.          00 05 07.2 E                            : Longitude
DATE.          APR-MAY-1973                            : Logging Date
PROJ.          UKCS                                    : Project
SET .          COMP WIRE                               : Set
~Curve Information Section
DEPTH.ft                                               : Depth Curve
CAL.in                                                 : BHC Caliper
CALI.in                                                : FDC Caliper
DRHO.g/cc                                              : Delta Rho
DT.us/ft                                               : Delta-T
GR.gAPI                                                : BHC Gamma Ray
GRD.gAPI                                               : FDC Gamma Ray
IND.ohmm                                               : Induction 6FF40 Resistivity
NPHI.%                                                 : Neutron Porosity
RHOB.g/cc                                              : Bulk Density
SN.ohmm                                                : Short Normal 16" Resistivity
SP.mV                                                  : Spontaneous Potential
~ASCII Log Data Section
# ...
 6130.5000        11.9937        11.9937         0.0184        83.1822        28.6305        35.4816         1.5987        25.6646         2.3412         2.1418        25.4792     
 6131.0000        12.0068        12.0068         0.0276        82.3484        28.9100        35.5910         1.5920        26.3982         2.3507         2.2022        25.4797     
 6131.5000        12.0216        12.0216         0.0210        80.5911        28.6949        36.4987         1.6042        27.1926         2.3502         2.2431        25.3706     
 6132.0000        12.0201        12.0201         0.0236        78.3923        28.0849        34.9195         1.6438        26.3719         2.3579         2.3216        25.0103     
 6132.5000        12.0056        12.0056         0.0325        78.3311        27.3320        31.3801         1.6902        24.5090         2.3865         2.4084        24.6443     
 6133.0000        11.9877        11.9877         0.0321        77.2161        26.4739        28.2766         1.7390        23.3767         2.4166         2.5208        24.2274     
 6133.5000        11.9669        11.9669         0.0218        76.1451        25.9352        26.4198         1.7937        21.7796         2.4273         2.5824        24.0290     
 6134.0000        11.9827        11.9827         0.0347        75.0731        26.3238        25.5104         1.8388        20.1382         2.4370         2.6700        23.7067     
 6134.5000        12.0184        12.0184         0.0483        73.9318        25.5110        24.5056         1.8875        19.0611         2.4538         2.7100        23.4663     
 6135.0000        12.0103        12.0103         0.0471        73.7931        25.5247        23.2973         1.9146        18.0877         2.4527         2.7418        23.1666     
 6135.5000        12.0214        12.0214         0.0331        73.1814        25.1262        23.6509         1.9110        17.8219         2.4425         2.7387        23.0707     
 6136.0000        12.0477        12.0477         0.0221        71.7717        24.5135        24.3278         1.8744        18.3858         2.4208         2.6952        22.9647     
 6136.5000        12.0682        12.0682         0.0164        71.4675        23.7656        26.2720         1.7988        20.2445         2.4025         2.6187        22.8835     
 6137.0000        12.0797        12.0797         0.0344        71.6687        23.7700        28.9108         1.7268        22.2159         2.4113         2.5127        22.8841     
 6137.5000        12.0806        12.0806         0.0520        72.8508        25.9170        31.5464         1.6405        24.2909         2.4099         2.4193        22.8846     
 6138.0000        12.0666        12.0666         0.0482        76.5509        27.6618        34.7099         1.4937        26.8303         2.3929         2.3216        22.9095     
 6138.5000        12.0612        12.0612         0.0589        80.6883        32.4344        40.9217         1.3956        29.0712         2.3992         2.1999        23.1061     
 6139.0000        12.0677        12.0677         0.0564        84.8257        37.5737        45.8920         1.3118        30.3693         2.3883         2.0456        23.3087     
 6139.5000        12.0876        12.0876         0.0472        88.3340        40.7017        49.6222         1.2339        30.0734         2.3765         1.9488        23.4908     
 6140.0000        12.1371        12.1371         0.0556        91.4615        43.7572        51.0775         1.1846        29.3225         2.3923         1.8617        23.7188     
 6140.5000        12.2088        12.2088         0.0428        92.4399        45.7514        51.8504         1.1409        28.2876         2.3795         1.7989        23.9161     
 6141.0000        12.2387        12.2387         0.0213        91.7347        46.2793        52.4180         1.1239        26.6333         2.3532         1.7675        24.1890     
 6141.5000        12.2382        12.2382         0.0274        93.3294        44.6841        49.9804         1.1128        23.2865         2.3572         1.7442        24.1035     
 6142.0000        12.2296        12.2296         0.0237        95.3262        42.4453        44.2808         1.1128        20.9349         2.3652         1.7164        23.9862     
 6142.5000        12.2172        12.2172         0.0303        93.4734        40.3783        38.8582         1.1209        19.9215         2.3773         1.6786        23.8234     
 6143.0000        12.2109        12.2109         0.0485        92.7381        37.6301        34.3042         1.1376        22.9640         2.3692         1.6382        23.5962     
 6143.5000        12.1667        12.1667         0.0682        93.6825        33.0034        33.1721         1.1622        25.7754         2.3206         1.5881        23.4430     
 6144.0000        12.1127        12.1127         0.0457        95.5840        29.8669        32.8380         1.1952        28.5790         2.2632         1.5379        23.1591     
 6144.5000        12.0430        12.0430         0.0332        96.7616        29.2598        31.5265         1.2124        29.7145         2.2458         1.4997        22.8610     
 6145.0000        11.9700        11.9700         0.0312        96.0029        29.0707        30.0081         1.2199        29.3746         2.2575         1.4860        22.5464     
 6145.5000        11.9195        11.9195         0.0250        91.6015        28.0908        28.4621         1.2194        28.2104         2.2755         1.4828        22.2438     
 6146.0000        11.9219        11.9219         0.0184        87.9839        26.3365        27.3539         1.2046        26.6567         2.2889         1.5074        21.6941     
 6146.5000        11.9289        11.9289         0.0150        86.9164        25.0289        26.9635         1.1863        25.7170         2.2926         1.5499        21.2591     
 6147.0000        11.9326        11.9326         0.0106        86.9157        24.0164        28.2819         1.1689        25.6862         2.2947         1.5829        20.8437     
 6147.5000        11.9322        11.9322         0.0191        87.6063        22.5160        28.2123         1.1615        25.6445         2.2851         1.6018        20.6793     
 6148.0000        11.9317        11.9317         0.0174        87.9862        21.6047        27.2039         1.1563        25.4759         2.2684         1.5970        20.5114     
 6148.5000        11.9312        11.9312         0.0073        88.1862        21.3384        27.4792         1.1411        25.6481         2.2529         1.5820        20.4962     
 6149.0000        11.9085        11.9085         0.0025        87.5958        21.9599        26.7371         1.1215        25.3346         2.2434         1.5554        20.4968     
 6149.5000        11.9048        11.9048         0.0045        86.9005        23.1199        26.7704         1.1019        24.8048         2.2471         1.5505        20.4974     
 6150.0000        11.9345        11.9345         0.0050        86.1084        24.3468        27.5270         1.0827        24.2339         2.2556         1.5355        20.4980     
 6150.5000        11.9618        11.9618         0.0037        86.0105        24.3050        27.2052         1.0668        23.8791         2.2495         1.5092        20.4986     
 6151.0000        11.9585        11.9585         0.0036        85.7853        24.8171        26.5360         1.0511        23.7076         2.2405         1.5032        20.4714     
 6151.5000        11.9418        11.9418         0.0107        84.6556        24.4406        25.5271         1.0360        23.8587         2.2388         1.4946        20.4479     
 6152.0000        11.9091        11.9091         0.0253        85.0715        22.9920        24.4712         1.0211        24.3795         2.2565         1.4759        20.3668     
 6152.5000        11.8918        11.8918         0.0205        86.9427        21.5804        23.9272         1.0063        25.0171         2.2636         1.4615        20.2298     
