~Version Information Section
VERS.          2.0                                     : CWLS LOG ASCII Standard
WRAP.          NO                                      : One line per depth step
CREA.          05/03/15                                : LAS Creation Date
~Well Information Section
STRT.ft        460.5000                                : Start Depth
STOP.ft        8016.0000                               : Stop Depth
STEP.ft        0.5000                                  : Step
NULL.          -999.2500                               : Null Value
COMP.          MONSANTO PLC                            : Company
WELL.          15/21-1                                 : Well
FLD .          WILDCAT                                 : Field
LOC .          NORTH SEA                               : Location
LOC1.                                                  : Location (UTM)
CTRY.          UK                                      : Country
PROV.          UKCS                                    : Province
UWI .          913                                     : UWI Number
API .                                                  : API Number
SECT.                                                  : Section
TOWN.                                                  : Township
RNGE.                                                  : Range
PDAT.          MSL                                     : Perm Datum
EPD .ft        0.00                                    : Elevation
LMF .          RT                                      : Log Measured From
DMF .          RT                                      : Drill Measured From
APD .ft        30.00                                   : Above Perm Datum
EKB .ft        31.00                                   : Elev-Kelly Bushing
EDF .ft        30.00                                   : Elev-Drill Floor
EGL .ft        -457.00                                 : Elev-Ground Level (Water Depth)
TDD .ft        8011.00                                 : Total Depth (Driller)
TDL .ft        8018.00                                 : Total Depth (Logger)
SRVC.          SCHLUMBERGER                            : Service Company
LATI.          58 13 21.6 N                            : Latitude
LONG.          00 05 07.2 E                            : Longitude
DATE.          APR-MAY-1973                            : Logging Date
PROJ.          UKCS                                    : Project
SET .          COMP WIRE                               : Set
~Curve Information Section
DEPTH.ft                                               : Depth Curve
CAL.in                                                 : BHC Caliper
CALI.in                                                : FDC Caliper
DRHO.g/cc                                              : Delta Rho
DT.us/ft                                               : Delta-T
GR.gAPI                                                : BHC Gamma Ray
GRD.gAPI                                               : FDC Gamma Ray
IND.ohmm                                               : Induction 6FF40 Resistivity
NPHI.%                                                 : Neutron Porosity
RHOB.g/cc                                              : Bulk Density
SN.ohmm                                                : Short Normal 16" Resistivity
SP.mV                                                  : Spontaneous Potential
~ASCII Log Data Section
# ...
 5883.0000        12.0024        12.0024         0.0102        93.2827        30.4012        34.2990         1.2153        28.7202         2.2695         1.8076        22.2418     
 5883.5000        12.0193        12.0193         0.0165        90.5540        31.0183        36.5314         1.2849        28.1018         2.2995         1.8984        22.5372     
 5884.0000        11.9987        11.9987         0.0206        90.2981        32.2494        38.8700         1.3594        27.4533         2.3076         2.0106        23.4347     
 5884.5000        11.9851        11.9851         0.0141        91.0472        33.6447        40.0448         1.4530        26.9305         2.3044         2.1214        24.2412     
 5885.0000        11.9963        11.9963         0.0255        90.5589        34.8386        40.4153         1.6007        26.7152         2.3170         2.1817        24.6752     
 5885.5000        12.0186        12.0186         0.0478        90.7368        34.6286        40.1371         1.6442        26.8299         2.3266         2.2045        24.9303     
 5886.0000        12.0534        12.0534         0.0468        90.4769        34.9093        41.0057         1.6721        27.3700         2.3268         2.2210        25.2385     
 5886.5000        12.1048        12.1048         0.0352        89.5643        36.2562        42.7269         1.6706        27.9462         2.3407         2.2178        25.5242     
 5887.0000        12.1269        12.1269         0.0140        89.2195        37.5595        45.3338         1.6362        28.3210         2.3291         2.1806        25.7648     
 5887.5000        12.1639        12.1639         0.0028        90.2536        37.9159        47.4908         1.6101        28.8251         2.3028         2.1355        26.0050     
 5888.0000        12.1807        12.1807         0.0087        91.1029        38.4751        48.3254         1.6040        29.1103         2.2958         2.0917        26.2454     
 5888.5000        12.1911        12.1911         0.0195        91.3116        39.2071        49.6640         1.5965        29.0974         2.2989         2.0556        26.6443     
 5889.0000        12.1995        12.1995         0.0257        92.1462        40.6029        49.9105         1.5750        29.5514         2.3003         2.0061        26.8911     
 5889.5000        12.1995        12.1995         0.0253        93.1613        41.3831        48.9564         1.5508        30.4002         2.2928         1.9694        26.9134     
 5890.0000        12.1996        12.1996         0.0170        94.2144        42.1643        49.0113         1.5280        31.4925         2.2804         1.9324        27.1021     
 5890.5000        12.2009        12.2009         0.0173        95.3875        42.9766        49.8686         1.5171        32.3512         2.2828         1.8940        27.5161     
 5891.0000        12.2099        12.2099         0.0278        96.8804        43.9741        49.8842         1.5081        33.1329         2.3028         1.8656        27.7059     
 5891.5000        12.2205        12.2205         0.0543        97.2358        43.7071        50.9725         1.4991        33.8328         2.3292         1.8600        27.9278     
 5892.0000        12.2337        12.2337         0.0733        93.7508        42.0825        52.1270         1.4720        34.4997         2.3614         1.8545        28.0996     
 5892.5000        12.2312        12.2312         0.0575        89.7667        41.0264        52.4324         1.4406        35.1606         2.3584         1.8359        28.1006     
 5893.0000        12.2197        12.2197         0.0437        89.1219        40.3803        51.2922         1.4104        35.6983         2.3440         1.7738        27.9483     
 5893.5000        12.2197        12.2197         0.0470        92.9203        41.3935        51.7173         1.4261        36.1087         2.3175         1.7081        27.8222     
 5894.0000        12.2227        12.2227         0.0554        99.8629        44.9205        53.3870         1.4532        35.8922         2.3036         1.6494        27.2383     
 5894.5000        12.2337        12.2337         0.0598       103.6071        45.7547        54.4804         1.4949        35.4425         2.2865         1.5936        26.8114     
 5895.0000        12.2498        12.2498         0.0352       102.8536        44.3889        52.0039         1.5206        34.6134         2.2417         1.5751        26.2938     
 5895.5000        12.2141        12.2141         0.0079       101.3675        43.4890        49.8287         1.5247        33.5420         2.1952         1.5897        25.5260     
 5896.0000        12.1116        12.1116         0.0086       100.6665        43.0352        47.7335         1.5378        33.0182         2.1892         1.6000        25.0048     
 5896.5000        12.0680        12.0680         0.0173       100.6524        43.7533        45.7340         1.5595        32.5591         2.2048         1.6068        24.7498     
 5897.0000        12.0691        12.0691         0.0159       101.9904        45.3044        44.5085         1.5640        31.9986         2.2299         1.6138        24.9621     
 5897.5000        12.0867        12.0867         0.0162       104.1283        47.4720        44.8394         1.5157        31.7331         2.2499         1.6212        25.4660     
 5898.0000        12.1420        12.1421         0.0069       106.0461        47.1068        46.3550         1.4471        32.3353         2.2544         1.6227        26.0310     
 5898.5000        12.1971        12.1971         0.0108       105.3942        46.2149        48.9909         1.3992        33.5360         2.2661         1.6157        26.6390     
 5899.0000        12.2182        12.2182         0.0116       102.6352        46.4744        50.9760         1.3586        34.0206         2.2681         1.6026        26.8610     
 5899.5000        12.2200        12.2200         0.0044       100.2175        46.9116        51.7650         1.3337        33.6446         2.2601         1.5740        26.8641     
 5900.0000        12.2116        12.2116         0.0042        99.3948        45.2645        51.8759         1.3277        33.6337         2.2494         1.5448        26.8616     
 5900.5000        12.1884        12.1884         0.0144        97.8426        45.0000        52.4156         1.3276        33.9528         2.2452         1.5240        26.8382     
 5901.0000        12.1652        12.1652         0.0247        94.5194        44.1888        53.1262         1.3687        34.6061         2.2421         1.5237        26.6740     
 5901.5000        12.1720        12.1720         0.0222        94.9745        42.9740        53.0470         1.4240        35.1016         2.2289         1.5306        26.6535     
 5902.0000        12.1793        12.1793         0.0243        98.1932        42.2401        52.7963         1.4580        34.8036         2.2288         1.5458        26.7620     
 5902.5000        12.1901        12.1901         0.0262        97.0323        43.3509        51.8474         1.5071        33.9339         2.2483         1.6033        26.9987     
 5903.0000        12.2132        12.2132         0.0351        95.3035        43.4564        51.6530         1.5907        33.1086         2.2860         1.6848        27.2359     
 5903.5000        12.2187        12.2187         0.0576        92.3771        44.1013        51.9556         1.6742        32.0175         2.3411         1.7632        27.4724     
 5904.0000        12.2185        12.2185         0.0476        90.0481        44.1918        51.7085         1.7366        29.9862         2.3892         1.8427        27.6299     
 5904.5000        12.2183        12.2183         0.0289        84.6863        42.5632        49.9663         1.7555        26.9304         2.4159         1.9282        27.5641     
 5905.0000        12.2202        12.2202         0.0128        77.9795        40.7147        48.3169         1.7397        24.7098         2.4361         1.9973        27.4415     
