~Version Information Section
VERS.          2.0                                     : CWLS LOG ASCII Standard
WRAP.          NO                                      : One line per depth step
CREA.          05/03/15                                : LAS Creation Date
~Well Information Section
STRT.ft        460.5000                                : Start Depth
STOP.ft        8016.0000                               : Stop Depth
STEP.ft        0.5000                                  : Step
NULL.          -999.2500                               : Null Value
COMP.          MONSANTO PLC                            : Company
WELL.          15/21-1                                 : Well
FLD .          WILDCAT                                 : Field
LOC .          NORTH SEA                               : Location
LOC1.                                                  : Location (UTM)
CTRY.          UK                                      : Country
PROV.          UKCS                                    : Province
UWI .          913                                     : UWI Number
API .                                                  : API Number
SECT.                                                  : Section
TOWN.                                                  : Township
RNGE.                                                  : Range
PDAT.          MSL                                     : Perm Datum
EPD .ft        0.00                                    : Elevation
LMF .          RT                                      : Log Measured From
DMF .          RT                                      : Drill Measured From
APD .ft        30.00                                   : Above Perm Datum
EKB .ft        31.00                                   : Elev-Kelly Bushing
EDF .ft        30.00                                   : Elev-Drill Floor
EGL .ft        -457.00                                 : Elev-Ground Level (Water Depth)
TDD .ft        8011.00                                 : Total Depth (Driller)
TDL .ft        8018.00                                 : Total Depth (Logger)
SRVC.          SCHLUMBERGER                            : Service Company
LATI.          58 13 21.6 N                            : Latitude
LONG.          00 05 07.2 E                            : Longitude
DATE.          APR-MAY-1973                            : Logging Date
PROJ.          UKCS                                    : Project
SET .          COMP WIRE                               : Set
~Curve Information Section
DEPTH.ft                                               : Depth Curve
CAL.in                                                 : BHC Caliper
CALI.in                                                : FDC Caliper
DRHO.g/cc                                              : Delta Rho
DT.us/ft                                               : Delta-T
GR.gAPI                                                : BHC Gamma Ray
GRD.gAPI                                               : FDC Gamma Ray
IND.ohmm                                               : Induction 6FF40 Resistivity
NPHI.%                                                 : Neutron Porosity
RHOB.g/cc                                              : Bulk Density
SN.ohmm                                                : Short Normal 16" Resistivity
SP.mV                                                  : Spontaneous Potential
~ASCII Log Data Section
# ...
 5433.0000        14.1244        14.1244         0.0450        97.0220        31.1548        37.9768         1.6031        34.0173         2.3000         1.5986        47.9765     
 5433.5000        14.2147        14.2147         0.0924       103.2985        31.7722        39.6683         1.5688        33.3603         2.3301         1.5819        48.2175     
 5434.0000        14.0144        14.0144         0.1197       107.6591        32.6296        38.4472         1.5482        35.3401         2.2890         1.5665        48.4249     
 5434.5000        14.0557        14.0557         0.1436       105.6305        32.8485        36.1221         1.5349        37.1391         2.2765         1.5634        48.4292     
 5435.0000        14.0151        14.0151         0.1205       108.1611        30.9059        34.0137         1.5376        37.7644         2.2695         1.5633        48.6484     
 5435.5000        14.2330        14.2330         0.0817       105.6079        29.4786        32.1576         1.5684        37.9553         2.2554         1.5677        48.8280     
 5436.0000        14.2707        14.2707         0.0524       110.3386        27.7651        30.5122         1.6079        37.9094         2.2476         1.5771        48.8491     
 5436.5000        14.2863        14.2863         0.0582       105.2220        25.8153        29.4832         1.6497        37.8405         2.2656         1.6225        49.0261     
 5437.0000        14.4117        14.4117         0.0832        97.7864        24.8052        29.7006         1.6930        38.4527         2.2898         1.6631        49.0996     
 5437.5000        14.2009        14.2009         0.0805        99.3999        25.3672        30.8694         1.6715        38.9025         2.2756         1.6488        49.2248     
 5438.0000        14.1956        14.1957         0.0855        99.9261        26.1815        30.7482         1.6385        39.0757         2.2582         1.6338        49.2238     
 5438.5000        14.2323        14.2323         0.0880       104.8938        25.7993        30.9005         1.6075        39.4494         2.2501         1.6138        49.2228     
 5439.0000        14.2050        14.2050         0.0962       102.2508        25.2855        31.4745         1.6135        38.7095         2.2561         1.6004        49.1560     
 5439.5000        14.2687        14.2687         0.0600        96.3877        25.1144        33.3259         1.6225        37.3878         2.2568         1.5937        49.0147     
 5440.0000        14.0838        14.0836         0.0883        99.1530        26.2424        35.3839         1.6531        35.9212         2.2871         1.6079        48.8215     
 5440.5000        14.0613        14.0613         0.1451        99.2104        26.9232        37.6686         1.6464        38.0851         2.3047         1.6203        48.6677     
 5441.0000        14.2099        14.2099         0.1425       104.1944        26.5814        37.4832         1.5892        39.4903         2.2658         1.5944        48.8217     
 5441.5000        14.4145        14.4145         0.1218       109.2196        26.0564        36.3701         1.5073        40.4298         2.2358         1.5411        49.0868     
 5442.0000        14.7682        14.7682         0.0679       109.2389        26.0446        35.4971         1.4302        40.2854         2.2376         1.4637        49.2158     
 5442.5000        14.7673        14.7673         0.0304        99.6712        26.5288        35.4577         1.4012        38.8854         2.2606         1.4080        49.1101     
 5443.0000        14.7741        14.7741         0.0264        95.1232        28.5308        37.6967         1.4062        36.9614         2.3045         1.4192        48.5225     
 5443.5000        14.6525        14.6524         0.0585        89.3953        31.4267        41.9762         1.4331        36.1196         2.3212         1.4443        47.6730     
 5444.0000        14.4688        14.4688         0.1169        93.4515        32.8819        46.5989         1.4701        39.0880         2.3227         1.4633        47.5125     
 5444.5000        14.1485        14.1483         0.1267       109.9439        34.1798        51.0172         1.4908        41.0651         2.2761         1.4653        47.1179     
 5445.0000        14.1313        14.1313         0.1120       125.8069        38.1206        55.1405         1.5145        43.9797         2.2005         1.4977        47.0054     
 5445.5000        14.3266        14.3266         0.1055       126.5084        41.0717        60.4328         1.5419        44.0368         2.1848         1.5397        47.0187     
 5446.0000        14.5511        14.5511         0.0991       119.7348        42.2938        62.7509         1.5863        42.1787         2.1921         1.5851        47.1924     
 5446.5000        14.4352        14.4352         0.0867       114.9942        43.5133        64.7123         1.6825        40.5080         2.1951         1.6398        47.2028     
 5447.0000        14.5566        14.5566         0.1018       110.0612        45.4023        65.8016         1.8424        38.2414         2.2081         1.6795        47.2018     
 5447.5000        14.7371        14.7371         0.1061       102.7171        46.9262        65.8574         2.0161        37.1891         2.2556         1.7156        47.1945     
 5448.0000        15.1444        15.1444         0.0777       101.8460        49.0784        67.0898         2.0974        36.7554         2.2666         1.7573        47.0384     
 5448.5000        15.1948        15.1948         0.0699       109.0824        50.2875        68.9007         2.1134        36.7860         2.2778         1.8019        46.9984     
 5449.0000        15.1020        15.1020         0.0624       111.8085        50.2920        69.8578         2.1253        37.2096         2.3045         1.8494        46.9396     
 5449.5000        14.6048        14.6048         0.0513       111.0004        50.7276        68.6961         2.1455        37.9367         2.3191         1.8976        46.8950     
 5450.0000        14.4028        14.4028         0.0495       106.8924        52.2552        68.2111         2.1877        38.4083         2.3316         1.9513        46.9954     
 5450.5000        14.4778        14.4778         0.0562       104.4512        53.3248        67.7000         2.2571        37.9783         2.3365         2.0064        46.9944     
 5451.0000        14.4540        14.4541         0.0683       105.1376        53.1188        65.9951         2.3214        38.2370         2.3427         2.0385        46.9934     
 5451.5000        14.5574        14.5574         0.0700       100.2377        51.9187        63.9638         2.3907        38.7063         2.3497         2.0738        46.9924     
 5452.0000        14.3122        14.3122         0.0566       101.9942        50.0171        62.8031         2.5139        39.0923         2.3558         2.1537        46.9914     
 5452.5000        14.6106        14.6106         0.0515       106.2029        47.7096        61.4212         2.6164        39.0668         2.3559         2.2124        46.9749     
 5453.0000        15.0145        15.0147         0.0613       101.4328        45.8920        59.7950         2.6888        38.5598         2.3495         2.2478        46.6395     
 5453.5000        14.3837        14.3837         0.0786        93.9773        43.2797        57.9904         2.7399        38.1520         2.3255         2.2634        46.4741     
 5454.0000        14.5257        14.5257         0.0463        97.6676        43.7610        56.1790         2.7686        38.0512         2.2768         2.2637        46.3862     
 5454.5000        14.4704        14.4704         0.0509       103.3573        43.6265        54.3661         2.7788        37.4890         2.2525         2.2140        46.3828     
 5455.0000        14.7960        14.7960         0.0894        97.8275        43.5417        52.5826         2.7658        36.9024         2.2782         2.1697        46.1676     
