~Version Information Section
VERS.          2.0                                     : CWLS LOG ASCII Standard
WRAP.          NO                                      : One line per depth step
CREA.          05/03/15                                : LAS Creation Date
~Well Information Section
STRT.ft        460.5000                                : Start Depth
STOP.ft        8016.0000                               : Stop Depth
STEP.ft        0.5000                                  : Step
NULL.          -999.2500                               : Null Value
COMP.          MONSANTO PLC                            : Company
WELL.          15/21-1                                 : Well
FLD .          WILDCAT                                 : Field
LOC .          NORTH SEA                               : Location
LOC1.                                                  : Location (UTM)
CTRY.          UK                                      : Country
PROV.          UKCS                                    : Province
UWI .          913                                     : UWI Number
API .                                                  : API Number
SECT.                                                  : Section
TOWN.                                                  : Township
RNGE.                                                  : Range
PDAT.          MSL                                     : Perm Datum
EPD .ft        0.00                                    : Elevation
LMF .          RT                                      : Log Measured From
DMF .          RT                                      : Drill Measured From
APD .ft        30.00                                   : Above Perm Datum
EKB .ft        31.00                                   : Elev-Kelly Bushing
EDF .ft        30.00                                   : Elev-Drill Floor
EGL .ft        -457.00                                 : Elev-Ground Level (Water Depth)
TDD .ft        8011.00                                 : Total Depth (Driller)
TDL .ft        8018.00                                 : Total Depth (Logger)
SRVC.          SCHLUMBERGER                            : Service Company
LATI.          58 13 21.6 N                            : Latitude
LONG.          00 05 07.2 E                            : Longitude
DATE.          APR-MAY-1973                            : Logging Date
PROJ.          UKCS                                    : Project
SET .          COMP WIRE                               : Set
~Curve Information Section
DEPTH.ft                                               : Depth Curve
CAL.in                                                 : BHC Caliper
CALI.in                                                : FDC Caliper
DRHO.g/cc                                              : Delta Rho
DT.us/ft                                               : Delta-T
GR.gAPI                                                : BHC Gamma Ray
GRD.gAPI                                               : FDC Gamma Ray
IND.ohmm                                               : Induction 6FF40 Resistivity
NPHI.%                                                 : Neutron Porosity
RHOB.g/cc                                              : Bulk Density
SN.ohmm                                                : Short Normal 16" Resistivity
SP.mV                                                  : Spontaneous Potential
~ASCII Log Data Section
# ...
 4713.0000        11.9843        11.9843         0.0168       113.7219        27.7408        31.1451         0.6781        30.1945         2.1698         0.9166        20.4247     
 4713.5000        11.9828        11.9828         0.0195       116.1444        28.2818        31.4354         0.7007        30.4686         2.1665         0.9248        20.4347     
 4714.0000        11.9735        11.9735         0.0263       117.3627        29.7756        30.6396         0.7233        31.2184         2.1753         0.9504        20.5708     
 4714.5000        11.9723        11.9723         0.0235       114.9171        30.9496        31.2692         0.7440        32.2838         2.1786         0.9804        20.9536     
 4715.0000        11.9938        11.9938         0.0172       111.3398        31.1036        31.1957         0.7626        33.0553         2.1847         1.0054        21.2051     
 4715.5000        12.0003        12.0003         0.0121       108.1629        29.4847        31.1983         0.7807        32.9188         2.1944         1.0176        21.2746     
 4716.0000        11.9886        11.9886         0.0049       104.4812        29.2138        31.2756         0.7885        31.8088         2.2106         1.0263        21.2554     
 4716.5000        11.9952        11.9952         0.0047       105.9484        29.0603        31.1458         0.7916        30.7408         2.2170         1.0320        21.0327     
 4717.0000        12.0289        12.0289         0.0181       110.3756        28.9492        31.1780         0.7920        31.2548         2.2104         1.0341        20.8024     
 4717.5000        12.0218        12.0218         0.0160       111.2743        29.7990        31.4918         0.7923        32.0140         2.1745         1.0346        20.5718     
 4718.0000        11.9914        11.9914         0.0235       111.8292        30.2330        32.1901         0.7927        32.2049         2.1572         1.0282        20.5244     
 4718.5000        11.9673        11.9673         0.0345       112.3369        29.3892        33.3031         0.7900        31.7242         2.1675         1.0205        20.7250     
 4719.0000        11.9790        11.9790         0.0356       112.1499        27.9736        34.2132         0.7845        31.8270         2.1861         1.0129        20.7444     
 4719.5000        11.9801        11.9801         0.0231       112.7581        27.4541        34.2194         0.7790        32.0349         2.1771         1.0054        20.7544     
 4720.0000        11.9685        11.9685         0.0155       112.3857        27.7147        33.1149         0.7733        31.5344         2.1672         1.0011        20.7643     
 4720.5000        11.9663        11.9663         0.0112       112.0066        27.6665        33.1737         0.7675        30.7395         2.1666         1.0063        20.7743     
 4721.0000        11.9893        11.9893         0.0094       112.1372        29.5237        33.0187         0.7646        31.1058         2.1594         1.0070        20.7285     
 4721.5000        12.0284        12.0284         0.0102       111.3702        30.5389        33.3404         0.7627        30.9274         2.1605         1.0004        20.4659     
 4722.0000        12.0479        12.0479         0.0138       111.9106        29.6581        34.0085         0.7608        30.6608         2.1641         0.9930        20.2431     
 4722.5000        12.0567        12.0567         0.0166       113.3998        28.0379        33.5684         0.7603        31.2307         2.1686         1.0016        20.0405     
 4723.0000        12.0561        12.0561         0.0204       115.0131        27.1465        31.5503         0.7606        31.4822         2.1714         1.0024        20.0369     
 4723.5000        12.0554        12.0554         0.0224       114.3311        28.0505        31.6279         0.7610        32.0134         2.1636         1.0029        20.4101     
 4724.0000        12.0431        12.0431         0.0104       110.8950        27.2163        32.0887         0.7613        32.2884         2.1634         1.0031        20.5189     
 4724.5000        12.0250        12.0250         0.0094       109.4788        26.6813        31.5550         0.7599        31.3623         2.1571         0.9952        20.6541     
 4725.0000        12.0070        12.0070         0.0094       108.2458        27.6387        32.0110         0.7583        30.5827         2.1606         0.9951        20.6641     
 4725.5000        11.9941        11.9941         0.0106       111.4007        28.9170        34.0211         0.7568        29.9078         2.1682         0.9893        20.4908     
 4726.0000        11.9993        11.9993         0.0106       116.3058        27.9270        36.0779         0.7572        29.9041         2.1705         0.9906        20.4411     
 4726.5000        12.0045        12.0045         0.0062       114.7903        27.3453        34.6511         0.7616        29.9456         2.1621         0.9956        20.4926     
 4727.0000        12.0102        12.0102         0.0025       113.2827        29.1375        33.3364         0.7662        29.4314         2.1577         1.0121        20.5040     
 4727.5000        12.0320        12.0320         0.0051       110.8918        30.1637        33.9380         0.7705        28.7605         2.1583         1.0160        20.5140     
 4728.0000        12.0594        12.0594         0.0062       109.4773        30.0926        33.2433         0.7712        28.3924         2.1708         1.0143        20.5542     
 4728.5000        12.0769        12.0769         0.0028       115.7590        28.7588        33.0936         0.7716        28.8722         2.1761         0.9916        20.9554     
 4729.0000        12.0881        12.0881         0.0005       118.6903        27.2742        33.5480         0.7720        30.5097         2.1691         0.9897        21.2187     
 4729.5000        12.0966        12.0966         0.0012       119.0089        27.3722        34.9218         0.7686        32.3119         2.1697         0.9886        21.2385     
 4730.0000        12.1047        12.1047         0.0111       114.6989        27.7227        35.8923         0.7644        32.0342         2.1675         0.9845        20.6643     
 4730.5000        12.1151        12.1151         0.0134       110.2683        28.3230        33.7510         0.7603        30.7389         2.1632         0.9831        20.2995     
 4731.0000        12.1250        12.1250         0.0123       108.8208        28.8366        32.0431         0.7593        29.7341         2.1688         0.9864        20.0721     
 4731.5000        12.1256        12.1256         0.0152       109.2560        29.2098        32.0165         0.7597        29.8452         2.1772         0.9898        19.9352     
 4732.0000        12.1250        12.1250         0.0229       110.3067        29.4281        32.0907         0.7600        30.4202         2.1893         0.9924        19.8250     
 4732.5000        12.1244        12.1244         0.0221       113.9147        29.0497        30.9424         0.7638        30.2633         2.2030         0.9930        19.8137     
 4733.0000        12.1237        12.1237         0.0198       114.0695        28.2324        29.9302         0.7678        30.2166         2.2117         0.9935        20.0015     
 4733.5000        12.1258        12.1258         0.0195       114.2557        27.3767        30.8797         0.7710        30.3371         2.2147         0.9939        20.3730     
 4734.0000        12.1297        12.1297         0.0143       114.3806        26.2677        30.2537         0.7740        29.8580         2.1979         0.9944        20.5685     
 4734.5000        12.1336        12.1336         0.0189       110.6153        25.9628        29.0157         0.7734        30.0882         2.1855         0.9949        20.5330     
 4735.0000        12.1375        12.1375         0.0273       108.4356        25.7765        28.1767         0.7677        30.1874         2.1922         0.9953        20.4636     
