~Version Information Section
VERS.          2.0                                     : CWLS LOG ASCII Standard
WRAP.          NO                                      : One line per depth step
CREA.          05/03/15                                : LAS Creation Date
~Well Information Section
STRT.ft        460.5000                                : Start Depth
STOP.ft        8016.0000                               : Stop Depth
STEP.ft        0.5000                                  : Step
NULL.          -999.2500                               : Null Value
COMP.          MONSANTO PLC                            : Company
WELL.          15/21-1                                 : Well
FLD .          WILDCAT                                 : Field
LOC .          NORTH SEA                               : Location
LOC1.                                                  : Location (UTM)
CTRY.          UK                                      : Country
PROV.          UKCS                                    : Province
UWI .          913                                     : UWI Number
API .                                                  : API Number
SECT.                                                  : Section
TOWN.                                                  : Township
RNGE.                                                  : Range
PDAT.          MSL                                     : Perm Datum
EPD .ft        0.00                                    : Elevation
LMF .          RT                                      : Log Measured From
DMF .          RT                                      : Drill Measured From
APD .ft        30.00                                   : Above Perm Datum
EKB .ft        31.00                                   : Elev-Kelly Bushing
EDF .ft        30.00                                   : Elev-Drill Floor
EGL .ft        -457.00                                 : Elev-Ground Level (Water Depth)
TDD .ft        8011.00                                 : Total Depth (Driller)
TDL .ft        8018.00                                 : Total Depth (Logger)
SRVC.          SCHLUMBERGER                            : Service Company
LATI.          58 13 21.6 N                            : Latitude
LONG.          00 05 07.2 E                            : Longitude
DATE.          APR-MAY-1973                            : Logging Date
PROJ.          UKCS                                    : Project
SET .          COMP WIRE                               : Set
~Curve Information Section
DEPTH.ft                                               : Depth Curve
CAL.in                                                 : BHC Caliper
CALI.in                                                : FDC Caliper
DRHO.g/cc                                              : Delta Rho
DT.us/ft                                               : Delta-T
GR.gAPI                                                : BHC Gamma Ray
GRD.gAPI                                               : FDC Gamma Ray
IND.ohmm                                               : Induction 6FF40 Resistivity
NPHI.%                                                 : Neutron Porosity
RHOB.g/cc                                              : Bulk Density
SN.ohmm                                                : Short Normal 16" Resistivity
SP.mV                                                  : Spontaneous Potential
~ASCII Log Data Section
# ...
 6828.0000        12.7872        12.7872      -999.2500        63.4950        41.7082      -999.2500         5.5873      -999.2500      -999.2500         5.3500        61.8892     
 6828.5000        12.7770        12.7770      -999.2500        63.5840        42.5673      -999.2500         5.4814      -999.2500      -999.2500         5.2847        61.8886     
 6829.0000        12.8024        12.8024      -999.2500        65.2415        42.4401      -999.2500         5.3729      -999.2500      -999.2500         5.2197        61.7303     
 6829.5000        12.8021        12.8021      -999.2500        68.0242        41.3281      -999.2500         5.2644      -999.2500      -999.2500         5.1501        61.3001     
 6830.0000        12.7686        12.7686      -999.2500        69.9254        41.3646      -999.2500         5.1655      -999.2500      -999.2500         5.0728        60.9144     
 6830.5000        12.7367        12.7367      -999.2500        68.9083        41.2324      -999.2500         5.0933      -999.2500      -999.2500         5.0192        60.5425     
 6831.0000        12.7366        12.7366      -999.2500        67.1500        40.5970      -999.2500         5.0226      -999.2500      -999.2500         5.0003        60.6838     
 6831.5000        12.7388        12.7388      -999.2500        64.7571        40.7457      -999.2500         5.0530      -999.2500      -999.2500         5.0220        60.6832     
 6832.0000        12.7558        12.7558      -999.2500        64.9677        41.6149      -999.2500         5.1566      -999.2500      -999.2500         5.0736        60.7462     
 6832.5000        12.7661        12.7660      -999.2500        67.2277        41.7446      -999.2500         5.3525      -999.2500      -999.2500         5.1921        61.1251     
 6833.0000        12.8158        12.8159      -999.2500        69.4332        40.9081      -999.2500         5.5470      -999.2500      -999.2500         5.3135        61.3770     
 6833.5000        12.7525        12.7525      -999.2500        71.5973        40.4829      -999.2500         5.7047      -999.2500      -999.2500         5.4346        61.4818     
 6834.0000        12.7034        12.7034      -999.2500        72.6306        38.7134      -999.2500         5.8572      -999.2500      -999.2500         5.5557        61.4812     
 6834.5000        12.7611        12.7611      -999.2500        70.3330        36.7249      -999.2500         6.0042      -999.2500      -999.2500         5.6988        61.4806     
 6835.0000        12.8627        12.8627      -999.2500        65.3575        35.3861      -999.2500         6.1563      -999.2500      -999.2500         5.8473        61.4800     
 6835.5000        12.9045        12.9045      -999.2500        63.1609        35.8783      -999.2500         6.3391      -999.2500      -999.2500         5.9629        61.4794     
 6836.0000        12.9451        12.9451      -999.2500        61.4340        36.7982      -999.2500         6.4561      -999.2500      -999.2500         6.0626        61.4788     
 6836.5000        12.9701        12.9701      -999.2500        60.6491        36.5903      -999.2500         6.5206      -999.2500      -999.2500         6.1621        61.6679     
 6837.0000        12.9882        12.9882      -999.2500        60.3677        35.9713      -999.2500         6.5267      -999.2500      -999.2500         6.2459        61.8645     
 6837.5000        12.9612        12.9612      -999.2500        60.3252        36.8926      -999.2500         6.5271      -999.2500      -999.2500         6.3270        61.9563     
 6838.0000        12.9215        12.9215      -999.2500        62.0033        38.9572      -999.2500         6.5275      -999.2500      -999.2500         6.3213        62.0770     
 6838.5000        12.9013        12.9013      -999.2500        64.2907        40.1196      -999.2500         6.4485      -999.2500      -999.2500         6.2826        62.1558     
 6839.0000        12.9082        12.9082      -999.2500        67.1305        39.7628      -999.2500         6.3454      -999.2500      -999.2500         6.2440        61.9028     
 6839.5000        12.8617        12.8617      -999.2500        66.4352        38.5164      -999.2500         6.2660      -999.2500      -999.2500         6.1484        61.8484     
 6840.0000        12.7754        12.7754      -999.2500        64.9432        35.5626      -999.2500         6.1938      -999.2500      -999.2500         6.0623        61.7316     
 6840.5000        12.8292        12.8292      -999.2500        62.8273        34.6431      -999.2500         6.1230      -999.2500      -999.2500         6.0406        61.7370     
 6841.0000        12.8925        12.8925      -999.2500        61.0336        35.6110      -999.2500         5.9780      -999.2500      -999.2500         6.0211        61.7729     
 6841.5000        12.8782        12.8783      -999.2500        60.4158        37.1866      -999.2500         5.8402      -999.2500      -999.2500         6.0109        61.7723     
 6842.0000        12.8751        12.8751      -999.2500        61.2345        38.2527      -999.2500         5.7631      -999.2500      -999.2500         6.0113        61.8022     
 6842.5000        12.8833        12.8833      -999.2500        60.8855        38.4551      -999.2500         5.6945      -999.2500      -999.2500         6.0117        61.8706     
 6843.0000        12.8742        12.8742      -999.2500        61.7567        37.9082      -999.2500         5.7204      -999.2500      -999.2500         5.9970        61.7326     
 6843.5000        12.8349        12.8349      -999.2500        63.1842        37.1625      -999.2500         5.7644      -999.2500      -999.2500         5.9669        61.6697     
 6844.0000        12.7901        12.7901      -999.2500        63.9440        35.1455      -999.2500         5.8291      -999.2500      -999.2500         5.9831        61.6691     
 6844.5000        12.7386        12.7386      -999.2500        63.9447        35.4546      -999.2500         5.8872      -999.2500      -999.2500         6.0122        61.7032     
 6845.0000        12.6972        12.6972      -999.2500        64.2304        36.1425      -999.2500         5.9623      -999.2500      -999.2500         6.0136        61.8214     
 6845.5000        12.6775        12.6776      -999.2500        64.6240        36.1419      -999.2500         6.0811      -999.2500      -999.2500         6.0140        61.8675     
 6846.0000        12.6608        12.6608      -999.2500        63.9744        35.8390      -999.2500         6.2543      -999.2500      -999.2500         6.0144        61.8668     
 6846.5000        12.6440        12.6440      -999.2500        64.0652        34.7601      -999.2500         6.3931      -999.2500      -999.2500         6.0011        61.8662     
 6847.0000        12.6342        12.6342      -999.2500        64.9001        33.7377      -999.2500         6.4838      -999.2500      -999.2500         5.9777        61.7876     
 6847.5000        12.6342        12.6342      -999.2500        65.7987        33.9413      -999.2500         6.4577      -999.2500      -999.2500         5.9222        61.6648     
 6848.0000        12.6600        12.6600      -999.2500        65.8607        36.8088      -999.2500         6.2046      -999.2500      -999.2500         5.7744        61.1841     
 6848.5000        12.6314        12.6314      -999.2500        66.4845        37.0801      -999.2500         5.7106      -999.2500      -999.2500         5.5395        60.8685     
 6849.0000        12.6022        12.6022      -999.2500        68.5592        36.0618      -999.2500         5.2099      -999.2500      -999.2500         5.1407        60.8621     
 6849.5000        12.5939        12.5939      -999.2500        69.5219        35.3376      -999.2500         4.9236      -999.2500      -999.2500         4.8059        60.9488     
 6850.0000        12.6227        12.6227      -999.2500        71.7039        37.2345      -999.2500         4.6959      -999.2500      -999.2500         4.5712        61.0611     
