~Version Information Section
VERS.          2.0                                     : CWLS LOG ASCII Standard
WRAP.          NO                                      : One line per depth step
CREA.          05/03/15                                : LAS Creation Date
~Well Information Section
STRT.ft        460.5000                                : Start Depth
STOP.ft        8016.0000                               : Stop Depth
STEP.ft        0.5000                                  : Step
NULL.          -999.2500                               : Null Value
COMP.          MONSANTO PLC                            : Company
WELL.          15/21-1                                 : Well
FLD .          WILDCAT                                 : Field
LOC .          NORTH SEA                               : Location
LOC1.                                                  : Location (UTM)
CTRY.          UK                                      : Country
PROV.          UKCS                                    : Province
UWI .          913                                     : UWI Number
API .                                                  : API Number
SECT.                                                  : Section
TOWN.                                                  : Township
RNGE.                                                  : Range
PDAT.          MSL                                     : Perm Datum
EPD .ft        0.00                                    : Elevation
LMF .          RT                                      : Log Measured From
DMF .          RT                                      : Drill Measured From
APD .ft        30.00                                   : Above Perm Datum
EKB .ft        31.00                                   : Elev-Kelly Bushing
EDF .ft        30.00                                   : Elev-Drill Floor
EGL .ft        -457.00                                 : Elev-Ground Level (Water Depth)
TDD .ft        8011.00                                 : Total Depth (Driller)
TDL .ft        8018.00                                 : Total Depth (Logger)
SRVC.          SCHLUMBERGER                            : Service Company
LATI.          58 13 21.6 N                            : Latitude
LONG.          00 05 07.2 E                            : Longitude
DATE.          APR-MAY-1973                            : Logging Date
PROJ.          UKCS                                    : Project
SET .          COMP WIRE                               : Set
~Curve Information Section
DEPTH.ft                                               : Depth Curve
CAL.in                                                 : BHC Caliper
CALI.in                                                : FDC Caliper
DRHO.g/cc                                              : Delta Rho
DT.us/ft                                               : Delta-T
GR.gAPI                                                : BHC Gamma Ray
GRD.gAPI                                               : FDC Gamma Ray
IND.ohmm                                               : Induction 6FF40 Resistivity
NPHI.%                                                 : Neutron Porosity
RHOB.g/cc                                              : Bulk Density
SN.ohmm                                                : Short Normal 16" Resistivity
SP.mV                                                  : Spontaneous Potential
~ASCII Log Data Section
# ...
 7053.0000        13.1647        13.1647      -999.2500       120.8260        54.9287      -999.2500         0.9726      -999.2500      -999.2500         1.0690        54.1523     
 7053.5000        13.1227        13.1227      -999.2500       118.7620        55.6421      -999.2500         0.9803      -999.2500      -999.2500         1.0668        54.2840     
 7054.0000        13.1037        13.1037      -999.2500       116.8341        55.3176      -999.2500         1.0219      -999.2500      -999.2500         1.0909        54.3515     
 7054.5000        13.0940        13.0940      -999.2500       121.9762        55.8377      -999.2500         1.1100      -999.2500      -999.2500         1.1602        54.4978     
 7055.0000        13.1080        13.1080      -999.2500       121.2762        54.0989      -999.2500         1.2179      -999.2500      -999.2500         1.2329        54.7389     
 7055.5000        13.2014        13.2014      -999.2500       113.8568        50.0562      -999.2500         1.4097      -999.2500      -999.2500         1.3669        54.9491     
 7056.0000        13.1721        13.1721      -999.2500       105.0527        45.6453      -999.2500         1.6639      -999.2500      -999.2500         1.5465        54.7426     
 7056.5000        13.0722        13.0722      -999.2500        96.7257        41.7751      -999.2500         1.9186      -999.2500      -999.2500         1.7147        54.1841     
 7057.0000        13.0195        13.0195      -999.2500        91.4738        40.1738      -999.2500         2.1932      -999.2500      -999.2500         1.8484        53.9022     
 7057.5000        13.0742        13.0742      -999.2500        94.5999        42.0644      -999.2500         2.4737      -999.2500      -999.2500         1.9302        53.7326     
 7058.0000        13.1018        13.1018      -999.2500        96.4505        45.4644      -999.2500         2.6169      -999.2500      -999.2500         2.0072        53.3819     
 7058.5000        13.0332        13.0333      -999.2500        96.5471        47.0661      -999.2500         2.6356      -999.2500      -999.2500         2.0451        52.9351     
 7059.0000        12.9844        12.9844      -999.2500        98.8459        45.8521      -999.2500         2.5028      -999.2500      -999.2500         2.0500        52.4077     
 7059.5000        13.0254        13.0254      -999.2500        97.7547        44.9838      -999.2500         2.2612      -999.2500      -999.2500         2.0327        52.1653     
 7060.0000        13.0277        13.0277      -999.2500        94.3423        46.7706      -999.2500         2.0106      -999.2500      -999.2500         2.0140        52.5910     
 7060.5000        13.0373        13.0373      -999.2500        87.7857        50.4332      -999.2500         1.7815      -999.2500      -999.2500         1.9167        53.5447     
 7061.0000        13.0423        13.0423      -999.2500        92.3382        52.0708      -999.2500         1.6430      -999.2500      -999.2500         1.7407        53.8606     
 7061.5000        13.0461        13.0461      -999.2500        94.2863        55.4468      -999.2500         1.5542      -999.2500      -999.2500         1.6120        54.3445     
 7062.0000        12.9190        12.9190      -999.2500       100.9756        59.1581      -999.2500         1.4810      -999.2500      -999.2500         1.5361        54.3237     
 7062.5000        13.1430        13.1431      -999.2500       111.6382        59.2989      -999.2500         1.4488      -999.2500      -999.2500         1.4969        53.9726     
 7063.0000        13.2371        13.2368      -999.2500       112.1906        58.0564      -999.2500         1.4434      -999.2500      -999.2500         1.5007        53.8995     
 7063.5000        13.3705        13.3705      -999.2500       113.7628        57.4414      -999.2500         1.4419      -999.2500      -999.2500         1.5168        53.7423     
 7064.0000        13.3813        13.3813      -999.2500       114.1257        55.5797      -999.2500         1.4966      -999.2500      -999.2500         1.5424        53.7417     
 7064.5000        13.7465        13.7465      -999.2500       110.7441        51.7099      -999.2500         1.6125      -999.2500      -999.2500         1.5712        53.7412     
 7065.0000        13.9290        13.9290      -999.2500       114.8566        47.9003      -999.2500         1.7464      -999.2500      -999.2500         1.6015        53.7408     
 7065.5000        13.9092        13.9092      -999.2500       108.8950        45.3816      -999.2500         1.8940      -999.2500      -999.2500         1.6365        53.7883     
 7066.0000        13.8669        13.8669      -999.2500       108.7598        42.6403      -999.2500         2.0304      -999.2500      -999.2500         1.6953        54.0733     
 7066.5000        13.9501        13.9501      -999.2500       111.9210        39.3498      -999.2500         2.1555      -999.2500      -999.2500         1.7558        54.4330     
 7067.0000        13.9290        13.9292      -999.2500       111.7879        40.9561      -999.2500         2.2336      -999.2500      -999.2500         1.7936        54.7032     
 7067.5000        13.7820        13.7820      -999.2500       109.1180        42.2918      -999.2500         2.2186      -999.2500      -999.2500         1.8040        54.7158     
 7068.0000        13.8062        13.8062      -999.2500       106.6976        44.8317      -999.2500         2.1673      -999.2500      -999.2500         1.7839        54.3392     
 7068.5000        13.7037        13.7037      -999.2500       104.7915        47.2510      -999.2500         2.0683      -999.2500      -999.2500         1.7498        54.3385     
 7069.0000        13.4173        13.4170      -999.2500       104.9491        48.6670      -999.2500         1.9310      -999.2500      -999.2500         1.6944        54.4020     
 7069.5000        13.5628        13.5628      -999.2500       104.6433        48.5932      -999.2500         1.7939      -999.2500      -999.2500         1.6247        54.3588     
 7070.0000        13.3834        13.3834      -999.2500       106.5092        49.4188      -999.2500         1.6745      -999.2500      -999.2500         1.5550        54.5369     
 7070.5000        13.2556        13.2556      -999.2500       107.9335        50.7718      -999.2500         1.5560      -999.2500      -999.2500         1.4855        54.5368     
 7071.0000        13.1597        13.1597      -999.2500       109.0983        52.2505      -999.2500         1.4369      -999.2500      -999.2500         1.4080        54.5370     
 7071.5000        13.2187        13.2184      -999.2500       109.8560        54.1847      -999.2500         1.2740      -999.2500      -999.2500         1.3225        54.6739     
 7072.0000        13.4056        13.4056      -999.2500       108.8933        58.1863      -999.2500         1.1249      -999.2500      -999.2500         1.2407        54.7320     
 7072.5000        13.4031        13.4031      -999.2500       105.6145        61.2110      -999.2500         1.0443      -999.2500      -999.2500         1.1755        54.5353     
 7073.0000        13.2257        13.2257      -999.2500       106.4492        62.2867      -999.2500         0.9703      -999.2500      -999.2500         1.1107        54.5345     
 7073.5000        13.2969        13.2969      -999.2500       111.4257        61.9080      -999.2500         0.9409      -999.2500      -999.2500         1.0630        54.4304     
 7074.0000        13.1637        13.1637      -999.2500       112.3958        62.0641      -999.2500         0.9261      -999.2500      -999.2500         1.0267        54.1882     
 7074.5000        13.4082        13.4082      -999.2500       124.3489        62.2608      -999.2500         0.9390      -999.2500      -999.2500         1.0130        53.9469     
 7075.0000        13.5334        13.5334      -999.2500       120.5174        61.0115      -999.2500         0.9410      -999.2500      -999.2500         1.0130        53.9318     
