~Version Information Section
VERS.          2.0                                     : CWLS LOG ASCII Standard
WRAP.          NO                                      : One line per depth step
CREA.          05/03/15                                : LAS Creation Date
~Well Information Section
STRT.ft        460.5000                                : Start Depth
STOP.ft        8016.0000                               : Stop Depth
STEP.ft        0.5000                                  : Step
NULL.          -999.2500                               : Null Value
COMP.          MONSANTO PLC                            : Company
WELL.          15/21-1                                 : Well
FLD .          WILDCAT                                 : Field
LOC .          NORTH SEA                               : Location
LOC1.                                                  : Location (UTM)
CTRY.          UK                                      : Country
PROV.          UKCS                                    : Province
UWI .          913                                     : UWI Number
API .                                                  : API Number
SECT.                                                  : Section
TOWN.                                                  : Township
RNGE.                                                  : Range
PDAT.          MSL                                     : Perm Datum
EPD .ft        0.00                                    : Elevation
LMF .          RT                                      : Log Measured From
DMF .          RT                                      : Drill Measured From
APD .ft        30.00                                   : Above Perm Datum
EKB .ft        31.00                                   : Elev-Kelly Bushing
EDF .ft        30.00                                   : Elev-Drill Floor
EGL .ft        -457.00                                 : Elev-Ground Level (Water Depth)
TDD .ft        8011.00                                 : Total Depth (Driller)
TDL .ft        8018.00                                 : Total Depth (Logger)
SRVC.          SCHLUMBERGER                            : Service Company
LATI.          58 13 21.6 N                            : Latitude
LONG.          00 05 07.2 E                            : Longitude
DATE.          APR-MAY-1973                            : Logging Date
PROJ.          UKCS                                    : Project
SET .          COMP WIRE                               : Set
~Curve Information Section
DEPTH.ft                                               : Depth Curve
CAL.in                                                 : BHC Caliper
CALI.in                                                : FDC Caliper
DRHO.g/cc                                              : Delta Rho
DT.us/ft                                               : Delta-T
GR.gAPI                                                : BHC Gamma Ray
GRD.gAPI                                               : FDC Gamma Ray
IND.ohmm                                               : Induction 6FF40 Resistivity
NPHI.%                                                 : Neutron Porosity
RHOB.g/cc                                              : Bulk Density
SN.ohmm                                                : Short Normal 16" Resistivity
SP.mV                                                  : Spontaneous Potential
~ASCII Log Data Section
# ...
 5658.0000        11.8947        11.8947         0.0108        98.6149        31.7831        32.2535         1.0674        29.9504         2.2354         1.4829        20.5049     
 5658.5000        11.8865        11.8865         0.0115        96.3002        31.1451        31.8580         1.0244        30.4754         2.2548         1.4516        20.1860     
 5659.0000        11.9080        11.9080         0.0082        94.4085        29.7741        32.3169         0.9934        30.6845         2.2742         1.4524        20.0140     
 5659.5000        11.9328        11.9328         0.0119        92.6959        27.6550        32.8861         0.9747        31.0552         2.3014         1.4472        19.5496     
 5660.0000        11.9582        11.9582         0.0276        92.3503        27.1788        32.2751         0.9603        31.0366         2.3146         1.4318        19.3026     
 5660.5000        11.9786        11.9786         0.0410        93.7550        26.9933        31.2019         0.9545        30.7431         2.3021         1.4234        19.3924     
 5661.0000        11.9939        11.9939         0.0318        95.6169        26.0541        30.1816         0.9494        30.1747         2.2801         1.3985        19.4663     
 5661.5000        11.9942        11.9942         0.0176        96.9803        25.9371        29.9948         0.9443        30.0932         2.2544         1.3785        19.9713     
 5662.0000        11.9919        11.9919         0.0116        97.9839        26.8029        30.5345         0.9302        30.2607         2.2380         1.3676        20.0751     
 5662.5000        11.9693        11.9693         0.0134        98.9637        28.0515        30.9055         0.9174        29.9293         2.2294         1.3305        19.9414     
 5663.0000        11.9494        11.9494         0.0176        99.7345        29.4206        30.4750         0.9029        29.6265         2.2199         1.3184        19.7730     
 5663.5000        11.9392        11.9392         0.0179        99.8591        29.5932        29.5750         0.8880        29.3012         2.2140         1.2981        19.6798     
 5664.0000        11.9336        11.9336         0.0117       100.2414        28.3054        30.0932         0.8855        28.7865         2.2130         1.2951        19.4877     
 5664.5000        11.9335        11.9335         0.0108        99.9812        26.3604        30.9771         0.8768        28.5017         2.2181         1.2843        19.2793     
 5665.0000        11.9334        11.9334         0.0129       100.2521        25.5205        31.2507         0.8680        28.8006         2.2236         1.2845        19.3953     
 5665.5000        11.9334        11.9334         0.0085       100.1218        25.1604        30.1619         0.8591        29.1782         2.2209         1.2778        19.2561     
 5666.0000        11.9380        11.9380         0.0106        99.4882        25.4881        29.0216         0.8728        29.0399         2.2201         1.2740        19.0933     
 5666.5000        11.9451        11.9451         0.0089        98.7498        25.2225        28.7713         0.8930        28.6076         2.2242         1.2862        19.1797     
 5667.0000        11.9518        11.9518         0.0038        98.2030        26.0372        29.0260         0.9138        28.0793         2.2207         1.3073        19.2538     
 5667.5000        11.9531        11.9531         0.0006        97.9838        28.0214        28.6018         0.9297        27.6400         2.2215         1.3373        19.2646     
 5668.0000        11.9530        11.9530         0.0069        97.7482        29.2815        28.5617         0.9407        27.2887         2.2314         1.3586        19.2912     
 5668.5000        11.9529        11.9529         0.0078        95.6305        29.0941        28.6490         0.9516        27.3962         2.2417         1.3976        19.3719     
 5669.0000        11.9529        11.9529         0.0063        93.3927        28.9740        29.8118         0.9611        28.0945         2.2535         1.4249        19.4544     
 5669.5000        11.9470        11.9470         0.0078        93.0648        30.3836        30.7864         0.9696        28.8560         2.2638         1.4525        19.5658     
 5670.0000        11.9367        11.9367         0.0191        93.9797        31.1882        30.7068         0.9704        29.1700         2.2660         1.4493        19.7197     
 5670.5000        11.9326        11.9326         0.0349        95.9962        29.4344        29.8518         0.9709        29.0632         2.2550         1.4426        19.8736     
 5671.0000        11.9325        11.9325         0.0263        98.2752        28.1108        29.1148         0.9620        29.0853         2.2350         1.4308        19.9406     
 5671.5000        11.9370        11.9370         0.0122        98.8991        27.0414        28.6739         0.9524        29.2619         2.2265         1.4060        19.9514     
 5672.0000        11.9524        11.9524         0.0099        99.0560        26.5974        28.8298         0.9427        29.7381         2.2337         1.4054        19.9622     
 5672.5000        11.9523        11.9523         0.0105        99.8019        26.9466        29.9400         0.9326        29.9572         2.2492         1.4061        19.8081     
 5673.0000        11.9522        11.9522         0.0132       100.7527        27.1475        31.2341         0.9296        29.7440         2.2686         1.4068        19.9750     
 5673.5000        11.9521        11.9521         0.0235       101.1204        27.0785        32.6492         0.9301        29.2203         2.2803         1.4075        19.9946     
 5674.0000        11.9521        11.9521         0.0206       100.8650        26.5558        34.3334         0.9231        28.8658         2.2634         1.4083        19.8774     
 5674.5000        11.9527        11.9527         0.0162       100.4498        25.2516        34.3720         0.9150        28.6131         2.2293         1.4059        19.8161     
 5675.0000        11.9635        11.9635         0.0235       100.1755        23.9189        33.5141         0.9145        28.5350         2.2152         1.3968        19.8269     
 5675.5000        11.9649        11.9649         0.0361        99.8821        23.9015        33.0948         0.9145        28.6022         2.2315         1.3975        19.8377     
 5676.0000        11.9461        11.9461         0.0386        99.6927        24.5248        31.7687         0.9111        29.0604         2.2374         1.3982        19.8485     
 5676.5000        11.9318        11.9318         0.0236        97.0762        24.0644        30.8793         0.9077        29.7032         2.2559         1.4156        19.8593     
 5677.0000        11.9315        11.9315         0.0162        93.2098        23.1741        30.0571         0.9193        30.3915         2.2577         1.4555        19.8694     
 5677.5000        11.9314        11.9314         0.0285        89.2625        23.2631        29.8467         0.9317        31.0715         2.2929         1.4790        19.7653     
 5678.0000        11.9313        11.9313         0.0483        88.5002        23.5094        30.3819         0.9502        31.6678         2.3367         1.4935        19.7326     
 5678.5000        11.9103        11.9103         0.0525        90.5180        23.8779        31.0285         0.9718        32.1803         2.2982         1.5081        19.7435     
 5679.0000        11.9217        11.9217         0.0289        95.5918        24.8348        30.8691         1.0163        31.3578         2.2368         1.5062        19.7132     
 5679.5000        11.9543        11.9543         0.0229        99.1832        24.8375        30.5960         1.0622        29.5720         2.2081         1.5101        19.7241     
 5680.0000        11.9587        11.9587         0.0237        98.4919        25.0518        30.4296         1.1115        28.6557         2.2150         1.5459        19.7896     
