~Version Information Section
VERS.          2.0                                     : CWLS LOG ASCII Standard
WRAP.          NO                                      : One line per depth step
CREA.          05/03/15                                : LAS Creation Date
~Well Information Section
STRT.ft        460.5000                                : Start Depth
STOP.ft        8016.0000                               : Stop Depth
STEP.ft        0.5000                                  : Step
NULL.          -999.2500                               : Null Value
COMP.          MONSANTO PLC                            : Company
WELL.          15/21-1                                 : Well
FLD .          WILDCAT                                 : Field
LOC .          NORTH SEA                               : Location
LOC1.                                                  : Location (UTM)
CTRY.          UK                                      : Country
PROV.          UKCS                                    : Province
UWI .          913                                     : UWI Number
API .                                                  : API Number
SECT.                                                  : Section
TOWN.                                                  : Township
RNGE.                                                  : Range
PDAT.          MSL                                     : Perm Datum
EPD .ft        0.00                                    : Elevation
LMF .          RT                                      : Log Measured From
DMF .          RT                                      : Drill Measured From
APD .ft        30.00                                   : Above Perm Datum
EKB .ft        31.00                                   : Elev-Kelly Bushing
EDF .ft        30.00                                   : Elev-Drill Floor
EGL .ft        -457.00                                 : Elev-Ground Level (Water Depth)
TDD .ft        8011.00                                 : Total Depth (Driller)
TDL .ft        8018.00                                 : Total Depth (Logger)
SRVC.          SCHLUMBERGER                            : Service Company
LATI.          58 13 21.6 N                            : Latitude
LONG.          00 05 07.2 E                            : Longitude
DATE.          APR-MAY-1973                            : Logging Date
PROJ.          UKCS                                    : Project
SET .          COMP WIRE                               : Set
~Curve Information Section
DEPTH.ft                                               : Depth Curve
CAL.in                                                 : BHC Caliper
CALI.in                                                : FDC Caliper
DRHO.g/cc                                              : Delta Rho
DT.us/ft                                               : Delta-T
GR.gAPI                                                : BHC Gamma Ray
GRD.gAPI                                               : FDC Gamma Ray
IND.ohmm                                               : Induction 6FF40 Resistivity
NPHI.%                                                 : Neutron Porosity
RHOB.g/cc                                              : Bulk Density
SN.ohmm                                                : Short Normal 16" Resistivity
SP.mV                                                  : Spontaneous Potential
~ASCII Log Data Section
# ...
 7300.5000        13.1835        13.1835      -999.2500        89.6141        69.9884      -999.2500         1.4126      -999.2500      -999.2500         1.4079        42.2944     
 7301.0000        13.1862        13.1862      -999.2500        85.9370        69.1520      -999.2500         1.4579      -999.2500      -999.2500         1.4605        42.1970     
 7301.5000        13.1503        13.1503      -999.2500        91.1499        66.3707      -999.2500         1.5067      -999.2500      -999.2500         1.5009        42.1990     
 7302.0000        13.2942        13.2942      -999.2500        94.5911        66.9395      -999.2500         1.5674      -999.2500      -999.2500         1.5369        42.2107     
 7302.5000        13.2829        13.2829      -999.2500       103.3576        68.3266      -999.2500         1.6365      -999.2500      -999.2500         1.5539        42.2110     
 7303.0000        13.3597        13.3597      -999.2500       105.0999        68.3191      -999.2500         1.6898      -999.2500      -999.2500         1.5465        41.9534     
 7303.5000        13.3791        13.3791      -999.2500       101.9565        70.3967      -999.2500         1.6846      -999.2500      -999.2500         1.5235        41.8347     
 7304.0000        13.4293        13.4293      -999.2500        99.9824        71.5930      -999.2500         1.6538      -999.2500      -999.2500         1.5056        41.9020     
 7304.5000        13.5073        13.5073      -999.2500        97.8961        69.4912      -999.2500         1.6098      -999.2500      -999.2500         1.4939        42.0101     
 7305.0000        13.2837        13.2837      -999.2500        92.3111        68.2400      -999.2500         1.5491      -999.2500      -999.2500         1.4794        42.0130     
 7305.5000        13.0534        13.0534      -999.2500        97.7400        67.2452      -999.2500         1.4725      -999.2500      -999.2500         1.4526        42.0150     
 7306.0000        13.1105        13.1104      -999.2500       100.8150        69.3884      -999.2500         1.4166      -999.2500      -999.2500         1.4165        42.0170     
 7306.5000        13.1423        13.1423      -999.2500       101.4715        72.0624      -999.2500         1.3558      -999.2500      -999.2500         1.3613        41.8251     
 7307.0000        13.1624        13.1624      -999.2500       106.8633        72.1053      -999.2500         1.2787      -999.2500      -999.2500         1.3179        41.8610     
 7307.5000        13.2558        13.2558      -999.2500       112.4281        71.9810      -999.2500         1.1923      -999.2500      -999.2500         1.2993        42.0207     
 7308.0000        13.3371        13.3371      -999.2500       121.3213        75.6421      -999.2500         1.1222      -999.2500      -999.2500         1.2566        42.2635     
 7308.5000        13.1654        13.1654      -999.2500       133.8780        76.9127      -999.2500         1.0719      -999.2500      -999.2500         1.2234        42.4269     
 7309.0000        13.2219        13.2219      -999.2500       140.4530        74.5434      -999.2500         1.0581      -999.2500      -999.2500         1.2018        42.4289     
 7309.5000        13.2327        13.2327      -999.2500       128.8859        73.9296      -999.2500         1.0524      -999.2500      -999.2500         1.1851        42.4309     
 7310.0000        13.1354        13.1354      -999.2500       112.3239        75.2534      -999.2500         1.0773      -999.2500      -999.2500         1.1998        42.6088     
 7310.5000        13.0413        13.0413      -999.2500        97.5038        73.8398      -999.2500         1.1405      -999.2500      -999.2500         1.2474        43.0905     
 7311.0000        13.0199        13.0199      -999.2500        87.8057        70.0698      -999.2500         1.2036      -999.2500      -999.2500         1.3118        43.4063     
 7311.5000        13.0426        13.0426      -999.2500        85.0560        65.5580      -999.2500         1.3184      -999.2500      -999.2500         1.4102        43.6281     
 7312.0000        12.9868        12.9868      -999.2500        84.1417        66.0591      -999.2500         1.4624      -999.2500      -999.2500         1.5084        43.8190     
 7312.5000        13.0434        13.0434      -999.2500        86.7361        66.2666      -999.2500         1.6063      -999.2500      -999.2500         1.6239        44.3348     
 7313.0000        13.0385        13.0385      -999.2500        88.5309        66.0500      -999.2500         1.7201      -999.2500      -999.2500         1.6964        44.5130     
 7313.5000        13.0570        13.0570      -999.2500        89.1721        66.0335      -999.2500         1.8091      -999.2500      -999.2500         1.7222        44.4579     
 7314.0000        13.1375        13.1375      -999.2500        90.2459        68.6512      -999.2500         1.8223      -999.2500      -999.2500         1.7176        44.4489     
 7314.5000        13.2149        13.2149      -999.2500       101.4774        67.1663      -999.2500         1.8043      -999.2500      -999.2500         1.7109        44.4508     
 7315.0000        13.3196        13.3196      -999.2500       108.6559        68.2010      -999.2500         1.7685      -999.2500      -999.2500         1.6961        44.4528     
 7315.5000        13.5490        13.5490      -999.2500       109.9974        67.5240      -999.2500         1.7771      -999.2500      -999.2500         1.6934        44.4548     
 7316.0000        13.7759        13.7759      -999.2500       101.2085        68.2842      -999.2500         1.8157      -999.2500      -999.2500         1.7023        44.0848     
 7316.5000        13.7093        13.7091      -999.2500        85.0354        67.5323      -999.2500         1.9168      -999.2500      -999.2500         1.7260        43.6847     
 7317.0000        13.4615        13.4615      -999.2500        76.7763        67.6088      -999.2500         1.9704      -999.2500      -999.2500         1.7466        43.6608     
 7317.5000        13.2495        13.2495      -999.2500        74.7896        66.1805      -999.2500         2.0124      -999.2500      -999.2500         1.7615        43.6628     
 7318.0000        13.2120        13.2120      -999.2500        76.8755        65.3440      -999.2500         1.9895      -999.2500      -999.2500         1.7763        44.1217     
 7318.5000        13.3523        13.3523      -999.2500        88.7191        66.1189      -999.2500         1.8972      -999.2500      -999.2500         1.7871        44.6547     
 7319.0000        13.4416        13.4414      -999.2500       100.2453        66.3468      -999.2500         1.8613      -999.2500      -999.2500         1.7717        45.0437     
 7319.5000        13.5154        13.5154      -999.2500       101.8947        65.1385      -999.2500         1.8676      -999.2500      -999.2500         1.7337        44.8357     
 7320.0000        13.5748        13.5748      -999.2500       108.9361        66.2850      -999.2500         1.8782      -999.2500      -999.2500         1.6580        43.9215     
 7320.5000        13.4813        13.4813      -999.2500        99.6151        70.1455      -999.2500         1.8910      -999.2500      -999.2500         1.6220        43.1878     
 7321.0000        13.4705        13.4705      -999.2500        94.3732        70.8352      -999.2500         1.8059      -999.2500      -999.2500         1.5985        42.6727     
 7321.5000        13.5172        13.5172      -999.2500        95.8184        68.3040      -999.2500         1.7386      -999.2500      -999.2500         1.5893        42.2626     
 7322.0000        13.4762        13.4762      -999.2500        92.8914        64.9988      -999.2500         1.6963      -999.2500      -999.2500         1.5930        42.0960     
 7322.5000        13.3937        13.3937      -999.2500        87.9252        63.2663      -999.2500         1.6566      -999.2500      -999.2500         1.6020        42.0827     
