~Version Information Section
VERS.          2.0                                     : CWLS LOG ASCII Standard
WRAP.          NO                                      : One line per depth step
CREA.          05/03/15                                : LAS Creation Date
~Well Information Section
STRT.ft        460.5000                                : Start Depth
STOP.ft        8016.0000                               : Stop Depth
STEP.ft        0.5000                                  : Step
NULL.          -999.2500                               : Null Value
COMP.          MONSANTO PLC                            : Company
WELL.          15/21-1                                 : Well
FLD .          WILDCAT                                 : Field
LOC .          NORTH SEA                               : Location
LOC1.                                                  : Location (UTM)
CTRY.          UK                                      : Country
PROV.          UKCS                                    : Province
UWI .          913                                     : UWI Number
API .                                                  : API Number
SECT.                                                  : Section
TOWN.                                                  : Township
RNGE.                                                  : Range
PDAT.          MSL                                     : Perm Datum
EPD .ft        0.00                                    : Elevation
LMF .          RT                                      : Log Measured From
DMF .          RT                                      : Drill Measured From
APD .ft        30.00                                   : Above Perm Datum
EKB .ft        31.00                                   : Elev-Kelly Bushing
EDF .ft        30.00                                   : Elev-Drill Floor
EGL .ft        -457.00                                 : Elev-Ground Level (Water Depth)
TDD .ft        8011.00                                 : Total Depth (Driller)
TDL .ft        8018.00                                 : Total Depth (Logger)
SRVC.          SCHLUMBERGER                            : Service Company
LATI.          58 13 21.6 N                            : Latitude
LONG.          00 05 07.2 E                            : Longitude
DATE.          APR-MAY-1973                            : Logging Date
PROJ.          UKCS                                    : Project
SET .          COMP WIRE                               : Set
~Curve Information Section
DEPTH.ft                                               : Depth Curve
CAL.in                                                 : BHC Caliper
CALI.in                                                : FDC Caliper
DRHO.g/cc                                              : Delta Rho
DT.us/ft                                               : Delta-T
GR.gAPI                                                : BHC Gamma Ray
GRD.gAPI                                               : FDC Gamma Ray
IND.ohmm                                               : Induction 6FF40 Resistivity
NPHI.%                                                 : Neutron Porosity
RHOB.g/cc                                              : Bulk Density
SN.ohmm                                                : Short Normal 16" Resistivity
SP.mV                                                  : Spontaneous Potential
~ASCII Log Data Section
# ...
 4960.5000        15.0287        15.0289         0.1012       135.9132        54.1230        66.2533         1.4798        47.2195         2.1360         1.3273        43.4033     
 4961.0000        15.0986        15.0986         0.1044       129.5405        55.9202        67.9474         1.5045        46.3873         2.1783         1.3473        43.6445     
 4961.5000        14.5557        14.5557         0.0903       126.6511        56.9184        70.5062         1.5279        45.0920         2.1665         1.3706        43.8542     
 4962.0000        14.5658        14.5658         0.0901       140.6923        57.1211        72.1694         1.5476        43.0694         2.1567         1.3837        43.6866     
 4962.5000        14.5657        14.5657         0.1043       140.0938        57.2694        73.6878         1.5572        42.0765         2.1564         1.3956        43.3627     
 4963.0000        14.6971        14.6971         0.1193       143.0206        57.0963        75.1559         1.5590        42.8454         2.1493         1.4090        42.8634     
 4963.5000        15.0032        15.0032         0.1019       138.0566        56.0721        74.7117         1.5586        42.3500         2.1045         1.4227        42.4155     
 4964.0000        15.3278        15.3278         0.0864       139.5245        54.0364        71.6603         1.5557        42.6726         2.0657         1.4364        41.8529     
 4964.5000        14.5812        14.5812         0.0851       141.2069        53.0347        70.0003         1.5436        43.2324         2.0392         1.4486        41.3612     
 4965.0000        14.6180        14.6182         0.0856       139.9064        55.1496        69.4632         1.5387        43.1541         2.0271         1.4564        41.1617     
 4965.5000        14.9238        14.9238         0.0756       129.5435        56.2067        70.4928         1.5321        42.2432         2.0477         1.4639        41.1500     
 4966.0000        14.4301        14.4301         0.1271       133.0853        58.0115        71.6584         1.5431        41.5343         2.1074         1.4714        41.4453     
 4966.5000        15.7579        15.7579         0.1201       133.7682        60.1062        73.0525         1.5761        40.8973         2.1002         1.4861        41.5018     
 4967.0000        16.5953        16.5957         0.0820       133.8128        62.3828        74.4306         1.6107        41.4129         2.1346         1.5042        41.8308     
 4967.5000        16.6122        16.6122         0.1070       135.6661        63.0374        76.5297         1.6448        43.9498         2.2190         1.5264        42.1763     
 4968.0000        16.4726        16.4726         0.1288       130.7774        62.6909        79.4115         1.6716        45.1905         2.2828         1.5268        42.2272     
 4968.5000        16.2351        16.2351         0.1051       119.7968        63.5367        80.9549         1.7028        45.3503         2.2784         1.5265        42.4587     
 4969.0000        15.2243        15.2243         0.0459       119.6866        64.5383        80.9899         1.7423        44.1752         2.2909         1.5359        42.5290     
 4969.5000        14.4873        14.4873         0.0137       119.7646        62.4152        82.2581         1.7945        42.8608         2.3529         1.5680        42.4078     
 4970.0000        14.4352        14.4352         0.0125       121.4643        60.5323        84.6735         1.8578        41.5689         2.3826         1.5814        42.4013     
 4970.5000        15.1910        15.1910         0.0589       132.9998        59.7066        85.6512         1.8965        40.8008         2.3971         1.5400        42.3666     
 4971.0000        15.4461        15.4461         0.0676       126.5701        58.6949        85.2683         1.9168        41.6212         2.3319         1.5006        42.1881     
 4971.5000        14.3232        14.3226         0.0417       136.7542        57.2896        85.8792         1.9189        43.7867         2.2377         1.4677        42.1815     
 4972.0000        15.4999        15.4999         0.0278       130.2693        57.3002        85.7470         1.9164        44.7434         2.2123         1.4501        42.1541     
 4972.5000        15.7975        15.7975         0.0470       130.9751        57.6467        83.7081         1.8929        46.1229         2.2150         1.4325        41.8676     
 4973.0000        14.9381        14.9381         0.0462       139.8571        58.6543        81.7582         1.8350        47.2491         2.2043         1.4138        41.7111     
 4973.5000        13.8675        13.8667         0.0692       152.4576        58.8750        79.7429         1.7551        48.2553         2.1728         1.3860        41.5751     
 4974.0000        14.6449        14.6449         0.0840       150.8713        58.4171        79.6816         1.6466        48.0849         2.1378         1.3516        41.7096     
 4974.5000        14.3806        14.3806         0.0690       146.5492        57.5996        79.8762         1.5325        46.4454         2.0646         1.2982        42.0447     
 4975.0000        14.7762        14.7762         0.0560       160.4757        56.7243        80.3097         1.4241        45.2919         2.0113         1.2500        42.8409     
 4975.5000        14.9908        14.9908         0.0439       161.8711        57.6130        81.3410         1.3156        44.6148         2.0088         1.2017        43.4816     
 4976.0000        15.3634        15.3634         0.0687       166.2019        59.1359        82.9551         1.2408        43.7114         2.0678         1.1572        43.9038     
 4976.5000        14.9905        14.9905         0.0787       161.6935        58.9692        84.6468         1.1866        43.1891         2.1363         1.1231        44.0866     
 4977.0000        15.0992        15.0992         0.0864       162.3739        57.8469        87.1155         1.1433        42.6255         2.1279         1.0931        44.1444     
 4977.5000        16.0462        16.0462         0.0853       167.9259        56.4202        86.2872         1.1041        41.8750         2.1021         1.0556        44.1682     
 4978.0000        16.5869        16.5872         0.0733       170.0745        54.9817        83.3081         1.0777        41.3990         2.0729         1.0246        44.0976     
 4978.5000        16.6019        16.6019         0.0792       175.3221        50.2058        78.7901         1.0554        42.8643         2.0398         1.0030        44.0910     
 4979.0000        16.5807        16.5807         0.0724       178.4095        47.2676        73.8844         1.0370        44.8005         2.0080         0.9873        44.0845     
 4979.5000        16.5528        16.5528         0.0656       174.2691        46.2122        68.9748         1.0196        45.7942         1.9784         0.9827        44.0780     
 4980.0000        15.9517        15.9511         0.0786       182.4233        45.9051        65.4742         1.0032        47.6451         1.9502         0.9759        44.2042     
 4980.5000        15.4946        15.4946         0.0554       182.0649        45.8545        62.4910         0.9929        47.7623         1.9124         0.9692        44.2649     
 4981.0000        16.2426        16.2426         0.0569       186.3516        44.1825        60.1394         0.9862        48.2887         1.8966         0.9638        44.2159     
 4981.5000        15.9575        15.9575         0.0459       181.5451        42.3919        58.3775         0.9942        49.7903         1.8731         0.9593        44.0562     
 4982.0000        16.2687        16.2687         0.0467       190.8656        41.5558        56.4536         1.0034        50.9797         1.8444         0.9624        44.0452     
 4982.5000        16.0902        16.0902         0.0572       194.2588        42.4355        54.9126         1.0107        51.7951         1.8360         0.9740        43.8683     
