~Version Information Section
VERS.          2.0                                     : CWLS LOG ASCII Standard
WRAP.          NO                                      : One line per depth step
CREA.          05/03/15                                : LAS Creation Date
~Well Information Section
STRT.ft        460.5000                                : Start Depth
STOP.ft        8016.0000                               : Stop Depth
STEP.ft        0.5000                                  : Step
NULL.          -999.2500                               : Null Value
COMP.          MONSANTO PLC                            : Company
WELL.          15/21-1                                 : Well
FLD .          WILDCAT                                 : Field
LOC .          NORTH SEA                               : Location
LOC1.                                                  : Location (UTM)
CTRY.          UK                                      : Country
PROV.          UKCS                                    : Province
UWI .          913                                     : UWI Number
API .                                                  : API Number
SECT.                                                  : Section
TOWN.                                                  : Township
RNGE.                                                  : Range
PDAT.          MSL                                     : Perm Datum
EPD .ft        0.00                                    : Elevation
LMF .          RT                                      : Log Measured From
DMF .          RT                                      : Drill Measured From
APD .ft        30.00                                   : Above Perm Datum
EKB .ft        31.00                                   : Elev-Kelly Bushing
EDF .ft        30.00                                   : Elev-Drill Floor
EGL .ft        -457.00                                 : Elev-Ground Level (Water Depth)
TDD .ft        8011.00                                 : Total Depth (Driller)
TDL .ft        8018.00                                 : Total Depth (Logger)
SRVC.          SCHLUMBERGER                            : Service Company
LATI.          58 13 21.6 N                            : Latitude
LONG.          00 05 07.2 E                            : Longitude
DATE.          APR-MAY-1973                            : Logging Date
PROJ.          UKCS                                    : Project
SET .          COMP WIRE                               : Set
~Curve Information Section
DEPTH.ft                                               : Depth Curve
CAL.in                                                 : BHC Caliper
CALI.in                                                : FDC Caliper
DRHO.g/cc                                              : Delta Rho
DT.us/ft                                               : Delta-T
GR.gAPI                                                : BHC Gamma Ray
GRD.gAPI                                               : FDC Gamma Ray
IND.ohmm                                               : Induction 6FF40 Resistivity
NPHI.%                                                 : Neutron Porosity
RHOB.g/cc                                              : Bulk Density
SN.ohmm                                                : Short Normal 16" Resistivity
SP.mV                                                  : Spontaneous Potential
~ASCII Log Data Section
# ...
 7998.0000        12.5636        12.5637         0.1320        95.3458      -999.2500      -999.2500         2.9384        33.2346         2.4400         2.9758        52.6079     
 7998.5000        12.5580        12.5580         0.1122        95.6590      -999.2500      -999.2500         2.9339        34.0003         2.4166         2.9579        52.8519     
 7999.0000        12.3109        12.3109         0.1047        96.0095      -999.2500      -999.2500         2.9294        34.5910         2.4217         2.9408        53.0559     
 7999.5000        12.5966        12.5966         0.1243        95.2065      -999.2500      -999.2500         2.9257        34.7184         2.4391         2.9293        53.2039     
 8000.0000        12.8361        12.8361         0.1301        93.9249      -999.2500      -999.2500         2.9270      -999.2500         2.4423         2.9499        53.3511     
 8000.5000        12.6313        12.6313         0.1315        94.7326      -999.2500      -999.2500         2.9285      -999.2500         2.4344         2.9727        53.4313     
 8001.0000        12.7025        12.7025         0.1321        94.9794      -999.2500      -999.2500         2.9302      -999.2500         2.4241         3.0085        53.4501     
 8001.5000        12.8534        12.8534         0.1215        91.6191      -999.2500      -999.2500         2.9403      -999.2500         2.4274         3.0568        53.5374     
 8002.0000        12.9385        12.9386         0.1101        92.2273      -999.2500      -999.2500         2.9524      -999.2500         2.4302         3.1131        53.6385     
 8002.5000        12.8217        12.8214         0.1214        92.2240      -999.2500      -999.2500         2.9834      -999.2500         2.4484         3.2042        53.9818     
 8003.0000        12.7258        12.7258         0.1154        92.3259      -999.2500      -999.2500         3.0729      -999.2500         2.4467         3.2981        54.4220     
 8003.5000        12.6476        12.6476         0.1079        93.4776      -999.2500      -999.2500         3.1625      -999.2500         2.4471         3.3928        54.8629     
 8004.0000        12.7104        12.7104         0.1143        90.7786      -999.2500      -999.2500         3.2552      -999.2500         2.4613         3.4881        55.3208     
 8004.5000        12.3934        12.3934         0.1036        87.9850      -999.2500      -999.2500         3.4918      -999.2500         2.4753         3.5839        55.7972     
 8005.0000        11.9082        11.9084         0.1121        84.3125      -999.2500      -999.2500         3.8156      -999.2500         2.5018         3.7406        56.2760     
 8005.5000        12.1329        12.1329         0.1141        86.8643      -999.2500      -999.2500         4.1382      -999.2500         2.5296         3.9531        56.4852     
 8006.0000        12.3119        12.3119         0.1043        80.9036      -999.2500      -999.2500         4.4209      -999.2500         2.5664         4.1921        56.5473     
 8006.5000        12.1797        12.1793         0.0865      -999.2500      -999.2500      -999.2500         4.7261      -999.2500         2.5864         4.3795        56.8426     
 8007.0000        11.7679        11.7679         0.0839      -999.2500      -999.2500      -999.2500         4.9816      -999.2500         2.6085         4.5240        57.3298     
 8007.5000        11.9539        11.9539         0.0907      -999.2500      -999.2500      -999.2500         5.0357      -999.2500         2.6426         4.6393        57.6903     
 8008.0000        11.9691        11.9691         0.0777      -999.2500      -999.2500      -999.2500         5.0384      -999.2500         2.6474         4.6536        57.5002     
 8008.5000        11.9755        11.9755         0.0596      -999.2500      -999.2500      -999.2500         4.9935      -999.2500         2.6190         4.5553        57.0469     
 8009.0000        12.1311        12.1311         0.0619      -999.2500      -999.2500      -999.2500         4.8843      -999.2500         2.5897         4.3840        56.2191     
 8009.5000        12.2049        12.2049         0.0811      -999.2500      -999.2500      -999.2500         4.7796      -999.2500         2.5780         4.1608        55.1095     
 8010.0000        12.1223        12.1223         0.1190      -999.2500      -999.2500      -999.2500         4.7482      -999.2500         2.5741         3.9411        54.3974     
 8010.5000        11.9443        11.9443         0.1251      -999.2500      -999.2500      -999.2500         4.6759      -999.2500         2.5446         3.7291        54.2439     
 8011.0000        11.9047        11.9047         0.0970      -999.2500      -999.2500      -999.2500         4.5553      -999.2500         2.5013         3.5174        54.6781     
 8011.5000        11.8978        11.8978         0.0843      -999.2500      -999.2500      -999.2500         4.4444      -999.2500         2.4953         3.3313        55.4368     
 8012.0000        11.9073        11.9073         0.0912      -999.2500      -999.2500      -999.2500         4.3913      -999.2500         2.4857         3.1483        55.5356     
 8012.5000        11.9023        11.9023         0.0846      -999.2500      -999.2500      -999.2500         4.3683      -999.2500         2.4732         2.9745        54.9654     
 8013.0000        11.8827        11.8827         0.0936      -999.2500      -999.2500      -999.2500         4.3786      -999.2500         2.4427         2.8259        54.3380     
 8013.5000        11.8838        11.8837         0.1005      -999.2500      -999.2500      -999.2500         4.4449      -999.2500         2.3763         2.7416        53.5516     
 8014.0000        11.9423        11.9423         0.0877      -999.2500      -999.2500      -999.2500      -999.2500      -999.2500         2.2919         2.6855        53.5210     
 8014.5000        12.1535        12.1535         0.0747      -999.2500      -999.2500      -999.2500      -999.2500      -999.2500         2.2167         2.6431        53.8229     
 8015.0000        12.1936        12.1936         0.0591      -999.2500      -999.2500      -999.2500      -999.2500      -999.2500         2.1814         2.6261      -999.2500     
 8015.5000        11.9871        11.9865         0.0557      -999.2500      -999.2500      -999.2500      -999.2500      -999.2500         2.1757         2.6805      -999.2500     
 8016.0000      -999.2500      -999.2500      -999.2500      -999.2500      -999.2500      -999.2500      -999.2500      -999.2500         2.1675         2.8239      -999.2500    
