~Version Information Section
VERS.          2.0                                     : CWLS LOG ASCII Standard
WRAP.          NO                                      : One line per depth step
CREA.          05/03/15                                : LAS Creation Date
~Well Information Section
STRT.ft        460.5000                                : Start Depth
STOP.ft        8016.0000                               : Stop Depth
STEP.ft        0.5000                                  : Step
NULL.          -999.2500                               : Null Value
COMP.          MONSANTO PLC                            : Company
WELL.          15/21-1                                 : Well
FLD .          WILDCAT                                 : Field
LOC .          NORTH SEA                               : Location
LOC1.                                                  : Location (UTM)
CTRY.          UK                                      : Country
PROV.          UKCS                                    : Province
UWI .          913                                     : UWI Number
API .                                                  : API Number
SECT.                                                  : Section
TOWN.                                                  : Township
RNGE.                                                  : Range
PDAT.          MSL                                     : Perm Datum
EPD .ft        0.00                                    : Elevation
LMF .          RT                                      : Log Measured From
DMF .          RT                                      : Drill Measured From
APD .ft        30.00                                   : Above Perm Datum
EKB .ft        31.00                                   : Elev-Kelly Bushing
EDF .ft        30.00                                   : Elev-Drill Floor
EGL .ft        -457.00                                 : Elev-Ground Level (Water Depth)
TDD .ft        8011.00                                 : Total Depth (Driller)
TDL .ft        8018.00                                 : Total Depth (Logger)
SRVC.          SCHLUMBERGER                            : Service Company
LATI.          58 13 21.6 N                            : Latitude
LONG.          00 05 07.2 E                            : Longitude
DATE.          APR-MAY-1973                            : Logging Date
PROJ.          UKCS                                    : Project
SET .          COMP WIRE                               : Set
~Curve Information Section
DEPTH.ft                                               : Depth Curve
CAL.in                                                 : BHC Caliper
CALI.in                                                : FDC Caliper
DRHO.g/cc                                              : Delta Rho
DT.us/ft                                               : Delta-T
GR.gAPI                                                : BHC Gamma Ray
GRD.gAPI                                               : FDC Gamma Ray
IND.ohmm                                               : Induction 6FF40 Resistivity
NPHI.%                                                 : Neutron Porosity
RHOB.g/cc                                              : Bulk Density
SN.ohmm                                                : Short Normal 16" Resistivity
SP.mV                                                  : Spontaneous Potential
~ASCII Log Data Section
# ...
 4488.0000      -999.2500      -999.2500      -999.2500       117.9320        24.3323      -999.2500         6.3368      -999.2500      -999.2500         4.0834        24.5788     
 4488.5000      -999.2500      -999.2500      -999.2500       121.7749        23.8574      -999.2500         6.0770      -999.2500      -999.2500         4.0567        24.3353     
 4489.0000      -999.2500      -999.2500      -999.2500       125.7117        24.0443      -999.2500         5.6708      -999.2500      -999.2500         4.0317        24.4283     
 4489.5000      -999.2500      -999.2500      -999.2500       130.0168        24.2137      -999.2500         5.2400      -999.2500      -999.2500         4.0060        24.7281     
 4490.0000      -999.2500      -999.2500      -999.2500       133.8218        23.7579      -999.2500         4.8189      -999.2500      -999.2500         3.8908        24.5518     
 4490.5000      -999.2500      -999.2500      -999.2500       135.2806        23.2477      -999.2500         4.4612      -999.2500      -999.2500         3.7250        24.3376     
 4491.0000      -999.2500      -999.2500      -999.2500       136.7100        22.5242      -999.2500         4.1122      -999.2500      -999.2500         3.5026        24.0445     
 4491.5000      -999.2500      -999.2500      -999.2500       136.5213        22.6914      -999.2500         3.7631      -999.2500      -999.2500         3.3039        24.3789     
 4492.0000      -999.2500      -999.2500      -999.2500       135.3233        22.7603      -999.2500         3.4138      -999.2500      -999.2500         3.1467        25.5003     
 4492.5000      -999.2500      -999.2500      -999.2500       134.2271        24.3869      -999.2500         3.1161      -999.2500      -999.2500         3.0205        24.8412     
 4493.0000      -999.2500      -999.2500      -999.2500       136.2025        25.9352      -999.2500         2.8277      -999.2500      -999.2500         2.9196        24.4469     
 4493.5000      -999.2500      -999.2500      -999.2500       136.6759        25.7783      -999.2500         2.5716      -999.2500      -999.2500         2.8676        23.8207     
 4494.0000      -999.2500      -999.2500      -999.2500       138.1725        26.1625      -999.2500         2.4497      -999.2500      -999.2500         2.8112        22.9108     
 4494.5000      -999.2500      -999.2500      -999.2500       138.2703        26.2360      -999.2500         2.3761      -999.2500      -999.2500         2.7252        23.3166     
 4495.0000      -999.2500      -999.2500      -999.2500       135.5352        25.4369      -999.2500         2.3819      -999.2500      -999.2500         2.6606        23.6827     
 4495.5000      -999.2500      -999.2500      -999.2500       134.5924        24.2145      -999.2500         2.4378      -999.2500      -999.2500         2.6419        23.8995     
 4496.0000      -999.2500      -999.2500      -999.2500       132.2861        23.7128      -999.2500         2.5171      -999.2500      -999.2500         2.6233        24.0839     
 4496.5000      -999.2500      -999.2500      -999.2500       130.0005        23.7025      -999.2500         2.5848      -999.2500      -999.2500         2.6448        24.1516     
 4497.0000      -999.2500      -999.2500      -999.2500       132.0310        24.1805      -999.2500         2.6518      -999.2500      -999.2500         2.7176        24.1235     
 4497.5000      -999.2500      -999.2500      -999.2500       133.3716        24.4268      -999.2500         2.7376      -999.2500      -999.2500         2.8075        23.8517     
 4498.0000      -999.2500      -999.2500      -999.2500       135.5228        24.7387      -999.2500         2.8490      -999.2500      -999.2500         2.8679        23.4999     
 4498.5000      -999.2500      -999.2500      -999.2500       137.6766        24.8150      -999.2500         2.9170      -999.2500      -999.2500         2.8905        23.3480     
 4499.0000      -999.2500      -999.2500      -999.2500       135.3961        25.8920      -999.2500         2.8993      -999.2500      -999.2500         2.8681        23.7460     
 4499.5000      -999.2500      -999.2500      -999.2500       127.7399        28.0140      -999.2500         2.7263      -999.2500      -999.2500         2.7775        24.3978     
 4500.0000      -999.2500      -999.2500      -999.2500       119.2772        30.4718      -999.2500         2.5469      -999.2500      -999.2500         2.6485        25.0257     
 4500.5000      -999.2500      -999.2500      -999.2500       116.7924        32.5446      -999.2500         2.3844      -999.2500      -999.2500         2.4802        25.5484     
 4501.0000        12.4081        12.4081      -999.2500       118.4108        34.5505        18.8709         2.2412      -999.2500      -999.2500         2.2705        25.7817     
 4501.5000        12.6351        12.6351      -999.2500       121.9182        34.5347        19.6512         2.1105        58.3629      -999.2500         2.1275        26.0474     
 4502.0000        12.6887        12.6887      -999.2500       127.5838        30.3239        21.6661         1.9798        56.7352      -999.2500         2.0651        26.4773     
 4502.5000        12.6808        12.6808      -999.2500       125.5535        26.7669        24.4725         1.8490        53.5539      -999.2500         2.0102        26.9685     
 4503.0000        12.5880        12.5880        -0.0072       122.7387        25.3578        27.3424         1.7290        49.2262         2.3729         1.9823        26.9145     
 4503.5000        12.3696        12.3696        -0.0364       121.0781        25.6944        31.1692         1.6235        48.7013         2.2354         1.9637        26.9296     
 4504.0000        12.3359        12.3359        -0.0488       119.7720        26.0750        35.2300         1.5698        49.9779         2.2059         1.9384        26.7588     
 4504.5000        12.3091        12.3091        -0.0427       121.3225        26.5428        38.5324         1.5620        51.8185         2.1363         1.9248        26.3984     
 4505.0000        12.2834        12.2834        -0.0599       122.9050        29.2375        38.6919         1.5705        53.5001         2.0266         1.9124        26.3593     
 4505.5000        12.2625        12.2625        -0.0524       122.7625        31.5576        37.8643         1.5881        54.2826         1.9702         1.9096        26.3264     
 4506.0000        12.2531        12.2531        -0.0318       123.8494        34.6841        38.1386         1.6156        53.8544         1.9441         1.9209        26.4143     
 4506.5000        12.2576        12.2576        -0.0270       123.8699        35.9182        38.7135         1.6761        53.7391         1.9126         1.9415        26.0430     
 4507.0000        12.2753        12.2753        -0.0376       122.6613        35.8388        36.5850         1.7610        54.0335         1.8834         1.9624        21.5484     
 4507.5000        12.2764        12.2764        -0.0480       121.7471        35.1447        34.0558         1.8711        53.3751         1.8845         1.9899        13.1102     
 4508.0000        12.2784        12.2784        -0.0564       122.0022        34.6372        31.4873         1.9823        53.2782         1.9082         2.0567        22.5677     
 4508.5000        12.2883        12.2883        -0.0673       116.8125        34.8348        28.9038         2.1066        53.4607         1.9285         2.1431        17.9079     
 4509.0000        12.2986        12.2986        -0.0588       112.1187        34.2073        26.3235         2.2322        53.3121         1.9497         2.2729        17.9975     
 4509.5000        12.3222        12.3222        -0.0303       112.8240        33.1724        24.9397         2.3912        53.6086         1.9760         2.3803        18.8034     
 4510.0000        12.3332        12.3332        -0.0183       115.2985        29.7894        25.0861         2.7205        55.5434         1.9801         2.4962        18.2656     
