~Version Information Section
VERS.          2.0                                     : CWLS LOG ASCII Standard
WRAP.          NO                                      : One line per depth step
CREA.          05/03/15                                : LAS Creation Date
~Well Information Section
STRT.ft        460.5000                                : Start Depth
STOP.ft        8016.0000                               : Stop Depth
STEP.ft        0.5000                                  : Step
NULL.          -999.2500                               : Null Value
COMP.          MONSANTO PLC                            : Company
WELL.          15/21-1                                 : Well
FLD .          WILDCAT                                 : Field
LOC .          NORTH SEA                               : Location
LOC1.                                                  : Location (UTM)
CTRY.          UK                                      : Country
PROV.          UKCS                                    : Province
UWI .          913                                     : UWI Number
API .                                                  : API Number
SECT.                                                  : Section
TOWN.                                                  : Township
RNGE.                                                  : Range
PDAT.          MSL                                     : Perm Datum
EPD .ft        0.00                                    : Elevation
LMF .          RT                                      : Log Measured From
DMF .          RT                                      : Drill Measured From
APD .ft        30.00                                   : Above Perm Datum
EKB .ft        31.00                                   : Elev-Kelly Bushing
EDF .ft        30.00                                   : Elev-Drill Floor
EGL .ft        -457.00                                 : Elev-Ground Level (Water Depth)
TDD .ft        8011.00                                 : Total Depth (Driller)
TDL .ft        8018.00                                 : Total Depth (Logger)
SRVC.          SCHLUMBERGER                            : Service Company
LATI.          58 13 21.6 N                            : Latitude
LONG.          00 05 07.2 E                            : Longitude
DATE.          APR-MAY-1973                            : Logging Date
PROJ.          UKCS                                    : Project
SET .          COMP WIRE                               : Set
~Curve Information Section
DEPTH.ft                                               : Depth Curve
CAL.in                                                 : BHC Caliper
CALI.in                                                : FDC Caliper
DRHO.g/cc                                              : Delta Rho
DT.us/ft                                               : Delta-T
GR.gAPI                                                : BHC Gamma Ray
GRD.gAPI                                               : FDC Gamma Ray
IND.ohmm                                               : Induction 6FF40 Resistivity
NPHI.%                                                 : Neutron Porosity
RHOB.g/cc                                              : Bulk Density
SN.ohmm                                                : Short Normal 16" Resistivity
SP.mV                                                  : Spontaneous Potential
~ASCII Log Data Section
# ...
 5185.5000        12.1312        12.1312         0.0046       103.2154        21.3101        25.1707         0.6766        31.0693         2.1471         0.9530        21.0358     
 5186.0000        12.1448        12.1448        -0.0008       102.8248        20.6901        24.5087         0.6815        30.7870         2.1495         0.9631        21.0346     
 5186.5000        12.1481        12.1481        -0.0000       102.8117        21.4873        24.2692         0.6877        29.8567         2.1582         0.9737        21.0334     
 5187.0000        12.1478        12.1478         0.0060       102.4397        22.0837        24.1481         0.7127        29.2939         2.1705         0.9844        20.9009     
 5187.5000        12.1476        12.1476         0.0117       102.5386        21.7650        23.6118         0.7456        28.6565         2.1757         0.9947        20.8309     
 5188.0000        12.1472        12.1472         0.0050       102.8575        20.9106        22.9141         0.7786        28.9032         2.1657         1.0050        20.6441     
 5188.5000        12.1517        12.1517         0.0076       103.0109        21.6708        22.8741         0.8065        29.9519         2.1559         1.0149        20.6285     
 5189.0000        12.1652        12.1652         0.0119       102.8573        22.1259        22.8711         0.8267        30.6333         2.1637         1.0221        20.6272     
 5189.5000        12.1663        12.1663         0.0139       102.5729        22.1453        22.8410         0.8467        31.3528         2.1719         1.0291        20.4861     
 5190.0000        12.1640        12.1640         0.0092       101.9674        21.6770        22.7669         0.8669        31.5327         2.1726         1.0469        20.4248     
 5190.5000        12.1532        12.1531         0.0032       101.2721        21.3413        22.6927         0.8908        31.3168         2.1681         1.0770        20.4048     
 5191.0000        12.1414        12.1414         0.0003       101.0391        21.7471        22.7576         0.9175        31.4999         2.1601         1.0992        20.2539     
 5191.5000        12.1296        12.1296         0.0014       101.3888        22.2416        23.0222         0.9443        31.6910         2.1477         1.1233        20.0140     
 5192.0000        12.1249        12.1249         0.0043       102.4157        23.2148        23.4711         0.9642        32.3477         2.1602         1.1504        19.8454     
 5192.5000        12.1312        12.1312         0.0017       103.7622        23.4840        23.8929         0.9819        32.4868         2.1687         1.1779        20.0093     
 5193.0000        12.1643        12.1643        -0.0008       110.0348        23.2521        24.0824         0.9908        32.2093         2.1824         1.2071        20.2498     
 5193.5000        12.2135        12.2135         0.0045       111.9819        20.6388        24.2761         0.9972        30.9286         2.2094         1.2288        20.4119     
 5194.0000        12.2407        12.2407         0.0075       108.6889        20.1147        24.5112         1.0039        29.3661         2.2512         1.2458        20.4152     
 5194.5000        12.2434        12.2434         0.0020        99.4102        19.5760        24.9742         1.0153        26.5966         2.3029         1.2574        20.4140     
 5195.0000        12.2267        12.2267         0.0000       100.8452        19.4319        25.6205         1.0273        23.4686         2.3371         1.2580        20.4128     
 5195.5000        12.1993        12.1993        -0.0000       100.2121        19.4949        25.4422         1.0408        22.0617         2.3443         1.2428        20.4116     
 5196.0000        12.1874        12.1874         0.0001       109.3340        20.5691        24.8667         1.0552        22.0210         2.3103         1.2521        20.4104     
 5196.5000        12.1756        12.1756        -0.0021       107.7053        21.5192        24.5268         1.0776        22.5627         2.2847         1.2669        20.4092     
 5197.0000        12.1639        12.1639        -0.0031       107.8700        22.3652        24.1926         1.1051        22.3034         2.2819         1.2940        20.3246     
 5197.5000        12.1741        12.1741        -0.0006       126.3787        23.1052        23.8670         1.1358        21.6709         2.3047         1.3335        20.3970     
 5198.0000        12.1964        12.1964         0.0080       117.4706        23.8967        23.7240         1.1876        22.4844         2.3063         1.3785        20.4056     
 5198.5000        12.2263        12.2263         0.0050       109.6413        24.4889        23.6522         1.2868        23.2723         2.2298         1.4386        20.4044     
 5199.0000        12.2406        12.2406        -0.0011       106.7642        24.7555        23.8369         1.4054        21.9683         2.1956         1.5211        20.4032     
 5199.5000        12.2404        12.2404         0.0024       113.7067        24.4091        24.1809         1.5202        19.9093         2.2241         1.6124        20.4020     
 5200.0000        12.2401        12.2401         0.0172       122.0819        23.2000        24.8944         1.6379        18.2565         2.2815         1.7187        20.4007     
 5200.5000        12.2399        12.2399         0.0364       118.3872        21.7823        25.5981         1.7579        17.9008         2.3351         1.8249        20.4657     
 5201.0000        12.2398        12.2398         0.0220       120.5701        20.6802        26.0343         1.8781        16.9460         2.3733         1.9396        20.5459     
 5201.5000        12.2397        12.2397         0.0015       121.9523        20.0708        26.3186         1.9980        15.0202         2.4117         2.1036        20.4228     
 5202.0000        12.2375        12.2375         0.0021       113.2381        19.5512        26.0798         2.1122        13.2377         2.4556         2.2730        20.3906     
 5202.5000        12.2305        12.2305         0.0077       114.7580        18.7865        25.7564         2.1924        11.4891         2.4743         2.4422        20.3878     
 5203.0000        12.2235        12.2235         0.0073       109.8930        19.1936        25.1667         2.2632        11.3415         2.4420         2.6117        20.3850     
 5203.5000        12.2192        12.2192         0.0032       104.9745        20.4800        24.3953         2.3208        11.6239         2.4070         2.7575        20.3822     
 5204.0000        12.2191        12.2191         0.0051       110.9614        20.9061        23.7614         2.3920        11.2850         2.4116         2.8944        20.3794     
 5204.5000        12.2190        12.2190         0.0104       111.1014        21.4381        23.6334         2.4751        10.6808         2.4507         3.0315        20.3766     
 5205.0000        12.2255        12.2255         0.0234       111.8613        22.0432        23.7685         2.5678        10.4401         2.5038         3.1663        20.4190     
 5205.5000        12.2337        12.2337         0.0407       114.1055        22.7260        23.9079         2.6694        10.9220         2.5423         3.2964        20.5665     
 5206.0000        12.2356        12.2356         0.0367       103.2380        23.5493        24.2760         2.7298        11.6212         2.5051         3.4262        20.5683     
 5206.5000        12.2272        12.2272         0.0273        95.9901        22.5790        24.8643         2.7607        11.6923         2.4791         3.5642        20.4890     
 5207.0000        12.2188        12.2188         0.0305       103.2380        21.9615        25.1373         2.7944        11.3587         2.4704         3.6237        20.2792     
 5207.5000        12.2093        12.2093         0.0287        86.2541        21.8495        24.8802         2.6739        10.9196         2.4562         3.5952        20.2668     
