~Version Information Section
VERS.          2.0                                     : CWLS LOG ASCII Standard
WRAP.          NO                                      : One line per depth step
CREA.          05/03/15                                : LAS Creation Date
~Well Information Section
STRT.ft        460.5000                                : Start Depth
STOP.ft        8016.0000                               : Stop Depth
STEP.ft        0.5000                                  : Step
NULL.          -999.2500                               : Null Value
COMP.          MONSANTO PLC                            : Company
WELL.          15/21-1                                 : Well
FLD .          WILDCAT                                 : Field
LOC .          NORTH SEA                               : Location
LOC1.                                                  : Location (UTM)
CTRY.          UK                                      : Country
PROV.          UKCS                                    : Province
UWI .          913                                     : UWI Number
API .                                                  : API Number
SECT.                                                  : Section
TOWN.                                                  : Township
RNGE.                                                  : Range
PDAT.          MSL                                     : Perm Datum
EPD .ft        0.00                                    : Elevation
LMF .          RT                                      : Log Measured From
DMF .          RT                                      : Drill Measured From
APD .ft        30.00                                   : Above Perm Datum
EKB .ft        31.00                                   : Elev-Kelly Bushing
EDF .ft        30.00                                   : Elev-Drill Floor
EGL .ft        -457.00                                 : Elev-Ground Level (Water Depth)
TDD .ft        8011.00                                 : Total Depth (Driller)
TDL .ft        8018.00                                 : Total Depth (Logger)
SRVC.          SCHLUMBERGER                            : Service Company
LATI.          58 13 21.6 N                            : Latitude
LONG.          00 05 07.2 E                            : Longitude
DATE.          APR-MAY-1973                            : Logging Date
PROJ.          UKCS                                    : Project
SET .          COMP WIRE                               : Set
~Curve Information Section
DEPTH.ft                                               : Depth Curve
CAL.in                                                 : BHC Caliper
CALI.in                                                : FDC Caliper
DRHO.g/cc                                              : Delta Rho
DT.us/ft                                               : Delta-T
GR.gAPI                                                : BHC Gamma Ray
GRD.gAPI                                               : FDC Gamma Ray
IND.ohmm                                               : Induction 6FF40 Resistivity
NPHI.%                                                 : Neutron Porosity
RHOB.g/cc                                              : Bulk Density
SN.ohmm                                                : Short Normal 16" Resistivity
SP.mV                                                  : Spontaneous Potential
~ASCII Log Data Section
# ...
 7773.0000        13.6832        13.6832         0.0700        65.2765        71.8281        89.3819         4.8112        35.4387         2.1693         3.3707        52.6745     
 7773.5000        13.0074        13.0074         0.0053        67.4335        70.6254        87.2347         4.6975        31.7788         2.2030         3.2889        52.8148     
 7774.0000        13.0007        13.0007         0.0153        83.3619        71.5247        87.8870         4.3363        34.1284         2.1729         3.1552        53.0161     
 7774.5000        13.6043        13.6043         0.0500       102.8405        70.4211        91.6805         3.8380        42.9920         2.0536         3.0254        53.2174     
 7775.0000        15.1833        15.1833         0.0842       117.5807        68.2982        97.1129         3.4711        45.5375         1.9587         2.8938        53.6282     
 7775.5000        16.3526        16.3526         0.0980       119.4902        65.6833        95.0544         3.3615        48.7117         1.8451         2.7328        53.9356     
 7776.0000        16.4983        16.4983         0.1019       115.4712        63.6337        89.8005         3.2516        50.5117         1.8692         2.5700        53.9490     
 7776.5000        16.5004        16.5004         0.1128       111.5063        65.4598        80.1697         3.0195        50.9343         1.9000         2.4386        54.1611     
 7777.0000        16.4666        16.4666         0.1234       106.9460        67.4108        78.5779         2.6317        49.0130         1.9487         2.3228        54.4787     
 7777.5000        16.1880        16.1880         0.1466       105.7350        65.9612        78.5950         2.2287        47.9778         2.0026         2.2258        54.7257     
 7778.0000        15.5273        15.5273         0.1565       109.4893        65.8176        78.4463         2.0206        48.2252         2.0451         2.1574        54.7378     
 7778.5000        15.9439        15.9439         0.1484       111.0560        66.3560        77.6673         1.9684        48.9029         2.0556         2.0972        54.9292     
 7779.0000        15.9432        15.9432         0.1467       114.8170        66.6184        78.9035         2.0230        48.3194         2.0869         2.0387        55.1181     
 7779.5000        15.5268        15.5268         0.1518       116.8036        68.3120        81.5852         2.0564        47.3768         2.1556         1.9812        55.2131     
 7780.0000        15.2185        15.2185         0.1485       115.1152        69.8038        83.8362         2.0655        46.7792         2.1921         1.9294        55.3130     
 7780.5000        14.8168        14.8168         0.1311       117.7278        67.8920        85.0384         2.0343        46.9980         2.1789         1.8787        55.3341     
 7781.0000        14.8705        14.8709         0.1057       122.8681        66.8941        85.8565         2.0050        47.9537         2.1581         1.8471        55.4931     
 7781.5000        15.2604        15.2604         0.1018       129.1604        68.4492        87.1395         1.9701        48.3647         2.1595         1.8320        55.5053     
 7782.0000        15.4238        15.4238         0.0946       131.0506        71.9903        89.9915         1.9239        47.3565         2.1536         1.8150        55.5027     
 7782.5000        14.9982        14.9982         0.0834       131.2507        75.6883        93.1788         1.8753        45.7276         2.1760         1.7925        55.6575     
 7783.0000        13.6768        13.6768         0.0450       130.1712        79.9695        99.6813         1.8345        43.7672         2.2107         1.7698        55.6976     
 7783.5000        13.2468        13.2468         0.0195       129.2787        82.7994       102.4982         1.7986        42.0083         2.2564         1.7470        55.6950     
 7784.0000        13.1720        13.1720         0.0290       128.5749        83.6902       102.7590         1.7658        41.5721         2.2737         1.7240        55.6924     
 7784.5000        13.0780        13.0780         0.0612       128.2748        82.1879       102.9065         1.7400        41.4802         2.2499         1.7009        55.5469     
 7785.0000        13.0915        13.0915         0.0870       130.4041        79.5973       101.2254         1.7371        41.8466         2.1806         1.6994        55.4872     
 7785.5000        13.1199        13.1199         0.0913       131.2583        74.9732        99.3427         1.7800        42.2989         2.0971         1.7177        55.4846     
 7786.0000        13.1962        13.1962         0.0844       126.7585        68.5388        95.1855         1.8192        42.6416         2.0160         1.7359        55.4820     
 7786.5000        13.6009        13.6009         0.1036       128.0242        65.6804        90.8011         1.8437        43.3208         1.9784         1.7545        55.4794     
 7787.0000        14.1665        14.1665         0.1081       126.7124        63.4687        88.5560         1.8518        43.8391         1.9182         1.7755        55.4768     
 7787.5000        14.7938        14.7938         0.0999       124.1896        62.2727        86.7262         1.8659        44.0215         1.9024         1.7967        55.2820     
 7788.0000        15.7361        15.7361         0.0983       122.1928        63.7581        84.6723         1.9132        43.6250         1.9112         1.8373        55.2139     
 7788.5000        15.8748        15.8748         0.1047       104.4132        65.5566        82.5182         1.9610        42.4703         1.9497         1.8829        55.0691     
 7789.0000        16.0624        16.0624         0.1144       101.4348        67.3383        81.1189         2.0167        40.4808         2.0203         1.9336        54.8518     
 7789.5000        14.1174        14.1135         0.1050        96.5961        68.7545        81.1845         2.0910        38.2497         2.1630         2.0089        54.6720     
 7790.0000        13.2503        13.2503         0.0778        93.2260        66.0857        83.9675         2.2533        36.2458         2.2852         2.0843        54.6270     
 7790.5000        13.7251        13.7251         0.0642        91.1927        63.8717        86.6566         2.4242        34.2313         2.3858         2.1664        54.4195     
 7791.0000        14.2811        14.2811         0.0726        89.2853        63.9589        87.6425         2.6432        32.0631         2.4610         2.2518        54.2965     
 7791.5000        14.4731        14.4731         0.0637        81.9468        62.2723        86.2686         2.9585        30.0775         2.4698         2.4124        54.2532     
 7792.0000        14.3841        14.3841         0.0724        78.5884        60.1876        84.6700         3.4017        29.2657         2.4776         2.6256        54.2844     
 7792.5000        14.3424        14.3424         0.1257        72.2538        60.3476        80.7634         3.9757        28.6857         2.5122         2.8387        54.5201     
 7793.0000        14.4892        14.4892         0.0959        71.1325        58.8309        76.9602         4.5974        26.7931         2.5192         3.0755        54.3451     
 7793.5000        13.8315        13.8315         0.0306        73.3709        56.2327        74.3633         5.1232        24.3158         2.4921         3.3652        54.2340     
 7794.0000        13.1062        13.1053         0.0268        75.1912        53.8821        72.6927         5.4516        22.3189         2.5221         3.6267        54.0507     
 7794.5000        13.0906        13.0906         0.1106        77.4809        54.8517        70.0284         5.5947        22.8227         2.5500         3.8338        53.8442     
 7795.0000        13.1305        13.1305         0.1389        78.9831        59.6258        69.8625         5.6827        25.1185         2.5530         4.0409        53.8350     
